%time,field.header.seq,field.header.stamp,field.header.frame_id,field.pose.position.x,field.pose.position.y,field.pose.position.z,field.pose.orientation.x,field.pose.orientation.y,field.pose.orientation.z,field.pose.orientation.w
1543475341951127000,0,1543475341951127000,/map,1.31500792503,18.4993972778,2.28508591652,0.00752136867242,-0.00488796649765,0.0124566265909,0.999882177684
1543475357648884000,1,1543475357648884000,/map,1.32147991657,18.5001277924,2.28537631035,0.00753927953691,-0.00499413961727,0.0127757001875,0.999877492155
1543475357748912000,2,1543475357748912000,/map,1.31897163391,18.504486084,2.28426456451,0.00751629459019,-0.00486785263849,0.012458962723,0.999882284859
1543475357848870000,3,1543475357848870000,/map,1.31161165237,18.4996643066,2.28334569931,0.0074385411002,-0.00497699079578,0.012782023401,0.999878251362
1543475357948859000,4,1543475357948859000,/map,1.31945419312,18.5020427704,2.2845916748,0.00749996810527,-0.00493621936816,0.0126256758678,0.999879981061
1543475358048902000,5,1543475358048902000,/map,1.3188482523,18.500169754,2.28251814842,0.00755122191103,-0.00487587607287,0.0125862555748,0.999880388372
1543475358148862000,6,1543475358148862000,/map,1.32123291492,18.5068893433,2.28629040718,0.00746777399985,-0.00500715838776,0.0126124689275,0.999880035976
1543475358248870000,7,1543475358248870000,/map,1.32133877277,18.501581192,2.28391909599,0.00749647957555,-0.00499822692098,0.0125970091358,0.999880060749
1543475358348934000,8,1543475358348934000,/map,1.3124037981,18.4976711273,2.28151226044,0.00755457881058,-0.00500057768843,0.0125606782351,0.99988006877
1543475358448902000,9,1543475358448902000,/map,1.31479156017,18.5070514679,2.28772997856,0.007504273183,-0.00495940601807,0.0126034534645,0.999880114382
1543475358548907000,10,1543475358548907000,/map,1.32228577137,18.5029678345,2.28254961967,0.00747290837061,-0.00492460597706,0.0126292266332,0.999880196089
1543475358648926000,11,1543475358648926000,/map,1.3183119297,18.4992656708,2.28694796562,0.00752394308762,-0.00503618686904,0.0125480601476,0.999880279478
1543475358748882000,12,1543475358748882000,/map,1.31681120396,18.5076160431,2.28432512283,0.00752874396525,-0.00487782083132,0.0126144447763,0.999880193154
1543475358848901000,13,1543475358848901000,/map,1.31487524509,18.5041465759,2.28124952316,0.00745527453153,-0.0049257672384,0.0126049409216,0.999880628457
1543475358948944000,14,1543475358948944000,/map,1.31905126572,18.5047264099,2.28555107117,0.00752880895802,-0.00493414652965,0.0126362823784,0.999879640557
1543475359048921000,15,1543475359048921000,/map,1.31228125095,18.506231308,2.28375434875,0.00752254633176,-0.00497563743924,0.0125964134904,0.999879985146
1543475359148918000,16,1543475359148918000,/map,1.31782150269,18.5000858307,2.28264713287,0.00751523179813,-0.00492164143564,0.0126181606047,0.999880033184
1543475359248970000,17,1543475359248970000,/map,1.31656348705,18.5069694519,2.27981042862,0.00744841798342,-0.0048483060574,0.0125867797652,0.99988128694
1543475359348980000,18,1543475359348980000,/map,1.3156670332,18.5025444031,2.28572678566,0.00755945648418,-0.00499459263526,0.0125930883635,0.999879654152
1543475359448969000,19,1543475359448969000,/map,1.31713938713,18.5076828003,2.28376984596,0.00752867480273,-0.00490172472107,0.0126110793909,0.999880119228
1543475359549014000,20,1543475359549014000,/map,1.32097244263,18.5001277924,2.28343129158,0.0074722045103,-0.00493655097323,0.0125508657697,0.999881129131
1543475359649016000,21,1543475359649016000,/map,1.31547856331,18.5032920837,2.28705239296,0.00748218031993,-0.00493124337433,0.0126454573913,0.999879888899
1543475359749078000,22,1543475359749078000,/map,1.32232713699,18.4998836517,2.28146314621,0.00750058772143,-0.00492222765996,0.0125363377596,0.999881169487
1543475359849071000,23,1543475359849071000,/map,1.31662845612,18.501996994,2.28723597527,0.0075207319261,-0.00497823923912,0.0125983129173,0.999879961914
1543475359949103000,24,1543475359949103000,/map,1.32383084297,18.4970302582,2.28225302696,0.00749195215822,-0.00488621020778,0.0126231750889,0.999880318365
1543475360049127000,25,1543475360049127000,/map,1.31740558147,18.5042304993,2.28691864014,0.00749946633018,-0.00501707051864,0.0126325777116,0.999879495234
1543475360149151000,26,1543475360149151000,/map,1.31972754002,18.4987850189,2.28133201599,0.00754633417376,-0.0048413731419,0.0125686255696,0.999880814696
1543475360249160000,27,1543475360249160000,/map,1.3220988512,18.5058021545,2.28284287453,0.00753063119953,-0.00488026632169,0.0126549154697,0.999879655613
1543475360349184000,28,1543475360349184000,/map,1.31500959396,18.5038204193,2.27984142303,0.00746793549171,-0.00489905413176,0.0125674684752,0.999881136908
1543475360449207000,29,1543475360449207000,/map,1.3227148056,18.4993934631,2.2803940773,0.00748719617417,-0.00479677019377,0.012612081833,0.999880927051
1543475360549213000,30,1543475360549213000,/map,1.31639862061,18.5015945435,2.28593993187,0.0074778171944,-0.00492861735572,0.0126036772187,0.999880462006
1543475360649248000,31,1543475360649248000,/map,1.31911706924,18.4980678558,2.28393006325,0.00751614562145,-0.00493154309403,0.0124797118852,0.999881715119
1543475360749319000,32,1543475360749319000,/map,1.32022154331,18.5078487396,2.28077054024,0.0074808800596,-0.00493521087419,0.012582016285,0.999880679378
1543475360849325000,33,1543475360849325000,/map,1.32171142101,18.4992008209,2.28366303444,0.00748378134839,-0.0048935308034,0.0125551814343,0.999881199839
1543475360949360000,34,1543475360949360000,/map,1.3164358139,18.5032253265,2.28459072113,0.00752506598003,-0.00500886323934,0.0126020630715,0.999879729106
1543475361049370000,35,1543475361049370000,/map,1.31864762306,18.499162674,2.28480911255,0.00749984877359,-0.00490002148182,0.0125626575521,0.999880953761
1543475361149418000,36,1543475361149418000,/map,1.31602621078,18.5038757324,2.28622150421,0.00755256048707,-0.00506057614124,0.0126846265635,0.999878217409
1543475361249464000,37,1543475361249464000,/map,1.31942653656,18.504491806,2.27952337265,0.00747010656039,-0.00483367225796,0.0126555262159,0.999880328228
1543475361349519000,38,1543475361349519000,/map,1.31828773022,18.5034236908,2.28607201576,0.00751454264547,-0.00491923120096,0.0125408579133,0.99988102277
1543475361449565000,39,1543475361449565000,/map,1.31517708302,18.5075950623,2.2899119854,0.00750157815183,-0.0050366656153,0.0127905332934,0.999877372773
1543475361549557000,40,1543475361549557000,/map,1.32311236858,18.5013217926,2.28090071678,0.00749818783216,-0.004897593592,0.012639414586,0.999880010779
1543475361649594000,41,1543475361649594000,/map,1.3171069622,18.5061511993,2.28288412094,0.00754134559173,-0.00495466033927,0.0125988691523,0.999879916762
1543475361749636000,42,1543475361749636000,/map,1.31915664673,18.50141716,2.28376626968,0.00754379445551,-0.00492294378321,0.0126106878274,0.99987990596
1543475361849717000,43,1543475361849717000,/map,1.31217956543,18.4972934723,2.28269314766,0.00747693023194,-0.00487527457573,0.0125073045436,0.999881940304
1543475361949731000,44,1543475361949731000,/map,1.318115592,18.4972381592,2.28234696388,0.00751792315211,-0.0048919540206,0.0125812727979,0.999880623471
1543475362049791000,45,1543475362049791000,/map,1.31762731075,18.5071792603,2.27922964096,0.0074640123266,-0.00491237019163,0.012615696872,0.999880493525
1543475362149848000,46,1543475362149848000,/map,1.31343913078,18.5022163391,2.28042173386,0.007523861296,-0.00487652861532,0.0126219016211,0.999880142107
1543475362249889000,47,1543475362249889000,/map,1.31851494312,18.5053596497,2.28482985497,0.00753759228675,-0.00495041873446,0.0126108737494,0.999879814738
1543475362349919000,48,1543475362349919000,/map,1.31727361679,18.5033397675,2.27885580063,0.00750494903116,-0.00486708524442,0.0126088086637,0.999880495442
1543475362449956000,49,1543475362449956000,/map,1.31573963165,18.5100498199,2.28220653534,0.00749271516588,-0.0049432102946,0.0126561555996,0.999879615562
1543475362550010000,50,1543475362550010000,/map,1.31725001335,18.4989337921,2.28499341011,0.00746243550837,-0.00495555151359,0.0125333113804,0.999881328294
1543475362650064000,51,1543475362650064000,/map,1.31785476208,18.5062103271,2.28143143654,0.00749043665193,-0.00490916333794,0.0125881700387,0.999880658603
1543475362750134000,52,1543475362750134000,/map,1.31880736351,18.5003185272,2.28168082237,0.00747038192134,-0.00480520225605,0.0125856850693,0.999881344939
1543475362850195000,53,1543475362850195000,/map,1.31917309761,18.5038299561,2.28537631035,0.00750747505738,-0.00496462992935,0.0125647339537,0.99988055173
1543475362950217000,54,1543475362950217000,/map,1.31569468975,18.5090618134,2.28012895584,0.0074554677667,-0.00491510981785,0.0126188686362,0.999880503785
1543475363050314000,55,1543475363050314000,/map,1.31499123573,18.5038414001,2.28545165062,0.00753535898639,-0.00489482954355,0.0126269465535,0.999879902403
1543475363150315000,56,1543475363150315000,/map,1.322026968,18.5008563995,2.28109931946,0.00750438320236,-0.00488460067169,0.012623484953,0.999880229096
1543475363250386000,57,1543475363250386000,/map,1.3187879324,18.5007820129,2.28329873085,0.00751109011023,-0.0049208615359,0.012572869123,0.999880638681
1543475363350432000,58,1543475363350432000,/map,1.32545042038,18.4976711273,2.28519272804,0.00749395029247,-0.00498755047519,0.0126137022553,0.999879922573
1543475363450478000,59,1543475363450478000,/map,1.32094883919,18.5029773712,2.28654289246,0.00750572602776,-0.00502413419365,0.0125921440666,0.999879922821
1543475363550592000,60,1543475363550592000,/map,1.32249653339,18.5010509491,2.28120064735,0.00753241900235,-0.00490285370478,0.0125743516182,0.999880548051
1543475363650588000,61,1543475363650588000,/map,1.32056713104,18.5037307739,2.28683686256,0.00750590193837,-0.00496140651721,0.0125730886351,0.999880474519
1543475363750650000,62,1543475363750650000,/map,1.32225763798,18.4984340668,2.28251600266,0.00753890363757,-0.00485326669552,0.0125469804546,0.999881084938
1543475363850700000,63,1543475363850700000,/map,1.31542980671,18.5045700073,2.28439688683,0.00748941742599,-0.00498617481489,0.0125452452848,0.999880824653
1543475363950791000,64,1543475363950791000,/map,1.32168865204,18.500623703,2.28306984901,0.00749282275412,-0.00488584724234,0.0125983491856,0.999880626726
1543475364050853000,65,1543475364050853000,/map,1.31841623783,18.500875473,2.28472757339,0.00755016617153,-0.00500922618966,0.0125912683811,0.999879674063
1543475364150914000,66,1543475364150914000,/map,1.32419967651,18.4982261658,2.28065466881,0.00755736140881,-0.00487204920378,0.0126738799568,0.999879253806
1543475364250987000,67,1543475364250987000,/map,1.31835711002,18.5035629272,2.2869591713,0.00750703059594,-0.00495907188412,0.0126227838471,0.999879851495
1543475364351050000,68,1543475364351050000,/map,1.31943178177,18.4987392426,2.28291201591,0.00748218583293,-0.00493784905309,0.0125614440067,0.999880915243
1543475364451156000,69,1543475364451156000,/map,1.31618070602,18.5055866241,2.28082370758,0.00752168928222,-0.00492065248824,0.0125894440426,0.999880351476
1543475364551177000,70,1543475364551177000,/map,1.31890833378,18.5017204285,2.286216259,0.0075371120346,-0.00499866549177,0.0125842001781,0.999879914385
1543475364651248000,71,1543475364651248000,/map,1.31748270988,18.5058917999,2.28677177429,0.00749093020049,-0.00503166252557,0.0125651410116,0.999880335624
1543475364751320000,72,1543475364751320000,/map,1.32001459599,18.5014801025,2.28355407715,0.00749320444902,-0.00492067283908,0.0126175891105,0.999880210481
1543475364851398000,73,1543475364851398000,/map,1.31488549709,18.505399704,2.2848880291,0.00751182501353,-0.0049597157254,0.0125554593454,0.999880659952
1543475364951462000,74,1543475364951462000,/map,1.31752562523,18.5005970001,2.28501081467,0.00751917185953,-0.00495304574421,0.0125343595724,0.999880902519
1543475365051543000,75,1543475365051543000,/map,1.31787228584,18.5036964417,2.27594280243,0.00748436746167,-0.00478333965048,0.0126465909842,0.99988057669
1543475365151615000,76,1543475365151615000,/map,1.3147431612,18.5017642975,2.28471207619,0.00749966038721,-0.00496613575706,0.0125535865573,0.999880742916
1543475365251688000,77,1543475365251688000,/map,1.31591010094,18.507390976,2.28033089638,0.00746802362383,-0.00488404476513,0.0125635954098,0.99988125835
1543475365351755000,78,1543475365351755000,/map,1.31897234917,18.498670578,2.28628373146,0.00752025095608,-0.00494332325988,0.0125921083902,0.99988021692
1543475365451875000,79,1543475365451875000,/map,1.31633937359,18.5057907104,2.28412795067,0.00755070449115,-0.00494335441772,0.0126133151572,0.999879719961
1543475365551917000,80,1543475365551917000,/map,1.32181286812,18.4992160797,2.28154921532,0.00750072669475,-0.0048776472086,0.0125967028445,0.999880628242
1543475365651971000,81,1543475365651971000,/map,1.3156247139,18.4989318848,2.28373074532,0.00755892691135,-0.00492376428905,0.0125315954645,0.999880782036
1543475365752015000,82,1543475365752015000,/map,1.31997644901,18.5042953491,2.28305959702,0.00754019411552,-0.00497207486399,0.0126552329959,0.999879127206
1543475365852104000,83,1543475365852104000,/map,1.31502425671,18.5061893463,2.28257799149,0.00750889128293,-0.00493643161169,0.0125376339199,0.999881020887
1543475365952204000,84,1543475365952204000,/map,1.31775677204,18.4962615967,2.28565192223,0.00751570827179,-0.00493746232326,0.0125513081437,0.999880793024
1543475366052269000,85,1543475366052269000,/map,1.31629228592,18.504693985,2.28306531906,0.00753571288619,-0.00495944397775,0.012584951896,0.99988011078
1543475366152367000,86,1543475366152367000,/map,1.32021355629,18.5039291382,2.28751826286,0.00749504501083,-0.00498859301613,0.0125900763435,0.999880206934
1543475366252437000,87,1543475366252437000,/map,1.31602478027,18.5069923401,2.28069400787,0.00752674259135,-0.00486577646688,0.0126782833849,0.999879459483
1543475366352521000,88,1543475366352521000,/map,1.32025790215,18.4987277985,2.28102850914,0.00750262156529,-0.00488861444128,0.0125532923125,0.999881106417
1543475366452567000,89,1543475366452567000,/map,1.31432795525,18.5042419434,2.28580927849,0.00752357475378,-0.00495462120502,0.0126129997457,0.999879872679
1543475366552711000,90,1543475366552711000,/map,1.31882286072,18.5011024475,2.27730846405,0.00749555693358,-0.00482503690374,0.0125868121675,0.999881046827
1543475366652754000,91,1543475366652754000,/map,1.31438755989,18.5011081696,2.28795933723,0.00754371507536,-0.00501195499534,0.0125989684595,0.999879612085
1543475366752823000,92,1543475366752823000,/map,1.31814777851,18.4980831146,2.28523516655,0.00752126352617,-0.00497043900997,0.0125715358618,0.999880333749
1543475366852962000,93,1543475366852962000,/map,1.31685614586,18.5062046051,2.28310155869,0.00751100894272,-0.0049810930113,0.0126174270814,0.999879779769
1543475366953008000,94,1543475366953008000,/map,1.31954503059,18.499874115,2.28347039223,0.00751415885059,-0.00493794457988,0.0125206368699,0.999881186828
1543475367053107000,95,1543475367053107000,/map,1.31891441345,18.5062484741,2.28280591965,0.00751362036703,-0.00500168377374,0.0125715239863,0.999880235555
1543475367153164000,96,1543475367153164000,/map,1.3180025816,18.4960784912,2.28366494179,0.00749672556241,-0.00491182089798,0.0125389572902,0.999881216781
1543475367253254000,97,1543475367253254000,/map,1.31595897675,18.503824234,2.28292346001,0.00754044743254,-0.00499262785587,0.0125756671963,0.99988002676
1543475367353369000,98,1543475367353369000,/map,1.3189406395,18.5023765564,2.28425383568,0.00753441465418,-0.00495350615123,0.0125443523685,0.999880660177
1543475367453416000,99,1543475367453416000,/map,1.32160520554,18.4969997406,2.28645586967,0.00754177766292,-0.00493529597231,0.0126825454886,0.999878951415
1543475367553522000,100,1543475367553522000,/map,1.31811916828,18.5034828186,2.28382706642,0.00752768501606,-0.00498984923111,0.0125745330409,0.999880151059
1543475367653633000,101,1543475367653633000,/map,1.31392037868,18.5023365021,2.2876188755,0.00750183691725,-0.00500949070696,0.0126188701785,0.999879688543
1543475367753708000,102,1543475367753708000,/map,1.32002615929,18.5053005219,2.28436565399,0.00746353746696,-0.00503363960037,0.0126490734936,0.999879472247
1543475367853802000,103,1543475367853802000,/map,1.31523370743,18.5049972534,2.27988767624,0.00755426575777,-0.00483962643949,0.0125459450323,0.999881048099
1543475367953879000,104,1543475367953879000,/map,1.31778848171,18.4967441559,2.28088474274,0.0075176014096,-0.0048443095959,0.0125949906533,0.999880685154
1543475368053972000,105,1543475368053972000,/map,1.31589710712,18.5026741028,2.2834405899,0.00756274511278,-0.00495123079031,0.0126227455284,0.999879470984
1543475368154075000,106,1543475368154075000,/map,1.32061934471,18.4981193542,2.28005623817,0.00750630092324,-0.00487065039778,0.0126166577291,0.999880368924
1543475368254175000,107,1543475368254175000,/map,1.31685507298,18.5068264008,2.2849624157,0.00757398222691,-0.00501549314281,0.0126192141282,0.999879110221
1543475368354311000,108,1543475368354311000,/map,1.31825995445,18.5010490417,2.28289937973,0.0075158106857,-0.00489778504109,0.0126023678487,0.999880345149
1543475368454390000,109,1543475368454390000,/map,1.31734192371,18.5033378601,2.28716778755,0.00755937373822,-0.0051075985905,0.0125865807666,0.999879165845
1543475368554502000,110,1543475368554502000,/map,1.31523013115,18.5032539368,2.28048467636,0.00743409249283,-0.00488382641736,0.0126152387583,0.999880862033
1543475368654608000,111,1543475368654608000,/map,1.32066166401,18.4990272522,2.28601098061,0.0075147203811,-0.00497943664302,0.0125220869422,0.999880958678
1543475368754672000,112,1543475368754672000,/map,1.31582760811,18.5026721954,2.2787797451,0.00748998768115,-0.00486513259871,0.0125988803209,0.999880742281
1543475368854722000,113,1543475368854722000,/map,1.31962990761,18.5029354095,2.28623318672,0.0075324394861,-0.00497908804232,0.0126150619676,0.999879658384
1543475368954814000,114,1543475368954814000,/map,1.31909072399,18.4938983917,2.28600311279,0.00749696854706,-0.00498584433957,0.0125583213084,0.999880605565
1543475369054917000,115,1543475369054917000,/map,1.31770300865,18.5052871704,2.28249979019,0.00754549773255,-0.00495689726708,0.0126009178957,0.999879848533
1543475369155015000,116,1543475369155015000,/map,1.32062745094,18.5004863739,2.28146195412,0.00750762582534,-0.00486986710312,0.0126120974397,0.999880420324
1543475369255177000,117,1543475369255177000,/map,1.31810224056,18.5039024353,2.28713345528,0.00748218781507,-0.00500557388092,0.0125063340296,0.999881269304
1543475369355222000,118,1543475369355222000,/map,1.31519389153,18.5031776428,2.27945709229,0.00748781880553,-0.00491505030316,0.0125885596676,0.999880644385
1543475369455365000,119,1543475369455365000,/map,1.31865847111,18.4965877533,2.28494048119,0.00754367640723,-0.00492318239118,0.0125048105329,0.999881235415
1543475369555454000,120,1543475369555454000,/map,1.31640231609,18.504825592,2.28166913986,0.00749506327318,-0.00490509009561,0.0125780379033,0.999880771432
1543475369655566000,121,1543475369655566000,/map,1.31563067436,18.5032405853,2.2867732048,0.00757055455035,-0.00503295975824,0.0125925923366,0.999879384045
1543475369755661000,122,1543475369755661000,/map,1.32066130638,18.5054550171,2.28166127205,0.0075396532932,-0.0048279374959,0.0125560808049,0.999881087671
1543475369855776000,123,1543475369855776000,/map,1.31535482407,18.5058002472,2.28609037399,0.0075404990105,-0.00500351167085,0.0125693267551,0.999880051691
1543475369955886000,124,1543475369955886000,/map,1.32007241249,18.5002689362,2.28327894211,0.00754747178737,-0.00489193304235,0.0126434190177,0.999879617062
1543475370055959000,125,1543475370055959000,/map,1.3167372942,18.5009899139,2.28210783005,0.00747427708666,-0.00491276273999,0.0124639148277,0.999882318461
1543475370156051000,126,1543475370156051000,/map,1.31815183163,18.5094776154,2.28420495987,0.00756105188063,-0.00498505451077,0.0128307098847,0.9998766687
1543475370256190000,127,1543475370256190000,/map,1.31803369522,18.5060634613,2.28266429901,0.00748614090811,-0.0049115517144,0.0125583478809,0.999881054052
1543475370356317000,128,1543475370356317000,/map,1.3200725317,18.5023612976,2.28260159492,0.00751609044355,-0.00493913868433,0.012571379353,0.999880529721
1543475370456388000,129,1543475370456388000,/map,1.31826043129,18.50730896,2.28042840958,0.00748709525277,-0.00489626258884,0.0123893400185,0.999883230318
1543475370556523000,130,1543475370556523000,/map,1.3190639019,18.5000267029,2.27930426598,0.0074975341641,-0.00478166545823,0.0126777238084,0.999880091799
1543475370656612000,131,1543475370656612000,/map,1.31881678104,18.500202179,2.2887237072,0.00749229811602,-0.00504013857531,0.0125199895474,0.999880849068
1543475370756713000,132,1543475370756713000,/map,1.31713521481,18.5056648254,2.28348040581,0.00752638933401,-0.00498496096545,0.0127034263624,0.999878555919
1543475370856831000,133,1543475370856831000,/map,1.32095420361,18.4993877411,2.28035211563,0.0074807642363,-0.00491546632194,0.0126406502451,0.999880037964
1543475370956936000,134,1543475370956936000,/map,1.31614589691,18.5033607483,2.28689599037,0.00751948600067,-0.00496167790848,0.0126275162019,0.999879685221
1543475371057065000,135,1543475371057065000,/map,1.31968379021,18.4966278076,2.28493499756,0.00748944372675,-0.00498438727235,0.0125593814594,0.999880655905
1543475371157154000,136,1543475371157154000,/map,1.31535470486,18.5039653778,2.28150653839,0.00750145338136,-0.00482663767915,0.0125896864527,0.999880958695
1543475371257277000,137,1543475371257277000,/map,1.31556069851,18.4994392395,2.28512978554,0.00751400382945,-0.0049634892055,0.0125470298423,0.999880730669
1543475371357410000,138,1543475371357410000,/map,1.31786036491,18.5062789917,2.27975487709,0.00752375295043,-0.00484410125799,0.0126414428095,0.999880053681
1543475371457499000,139,1543475371457499000,/map,1.3181874752,18.5025672913,2.28511619568,0.00752234452864,-0.00495392337374,0.0125859454175,0.999880226304
1543475371557610000,140,1543475371557610000,/map,1.32031571865,18.5058174133,2.28052306175,0.00746795001814,-0.00487390514564,0.0126337943643,0.999880423856
1543475371657756000,141,1543475371657756000,/map,1.31599414349,18.5008392334,2.28211116791,0.00752907304926,-0.00485306268956,0.0126120247817,0.999880341677
1543475371757828000,142,1543475371757828000,/map,1.32226455212,18.5008506775,2.28349375725,0.00754185008551,-0.00495908127915,0.0125671712152,0.999880289944
1543475371857917000,143,1543475371857917000,/map,1.31762063503,18.5028705597,2.28515744209,0.00749249683535,-0.00492156983666,0.0126785121303,0.999879440719
1543475371958066000,144,1543475371958066000,/map,1.314899683,18.5038070679,2.28696107864,0.00750211812164,-0.00488767467154,0.0126801138579,0.999879514528
1543475372058198000,145,1543475372058198000,/map,1.32085239887,18.4969806671,2.28324532509,0.0075496901129,-0.00487205325499,0.0125797600022,0.999880500317
1543475372158291000,146,1543475372158291000,/map,1.31662499905,18.5054340363,2.28567099571,0.00754776002633,-0.00496455820983,0.0126369133749,0.999879339171
1543475372258424000,147,1543475372258424000,/map,1.31570100784,18.5011138916,2.28472208977,0.00751263717227,-0.00490976210832,0.0125422939103,0.999881065618
1543475372358533000,148,1543475372358533000,/map,1.32027077675,18.5039176941,2.28171396255,0.00753778732976,-0.0049250751585,0.0127030526241,0.999878771577
1543475372458677000,149,1543475372458677000,/map,1.31313312054,18.5075473785,2.28559303284,0.00755654345546,-0.00489851318343,0.0125539319851,0.999880643883
1543475372558770000,150,1543475372558770000,/map,1.31971895695,18.5044212341,2.28316307068,0.00748415935661,-0.00495483721589,0.0125298450768,0.999881212909
1543475372658892000,151,1543475372658892000,/map,1.31656324863,18.5011520386,2.27950334549,0.00747908786425,-0.00481179907632,0.0125967211762,0.999881109157
1543475372758996000,152,1543475372758996000,/map,1.31986117363,18.5036048889,2.28807759285,0.0075297273823,-0.00496878822446,0.0124691873247,0.999881559844
1543475372859121000,153,1543475372859121000,/map,1.31513142586,18.5017051697,2.28399133682,0.0075065290596,-0.00499712873359,0.0126503070606,0.999879317947
1543475372959253000,154,1543475372959253000,/map,1.31808209419,18.5048542023,2.28055930138,0.00748978147849,-0.00482300533666,0.0124572434119,0.999882722563
1543475373059367000,155,1543475373059367000,/map,1.32014322281,18.5018749237,2.28665852547,0.00752106083857,-0.00497479434804,0.0126860926013,0.999878866723
1543475373159514000,156,1543475373159514000,/map,1.31406629086,18.5064754486,2.28136825562,0.0075269129799,-0.00484653204961,0.0126106381731,0.999880407105
1543475373259636000,157,1543475373259636000,/map,1.31741142273,18.4989891052,2.28374457359,0.0074927932299,-0.00493843398948,0.012608992644,0.99988023444
1543475373359712000,158,1543475373359712000,/map,1.31686484814,18.5014743805,2.28178310394,0.0074717418359,-0.00494351979796,0.0125610555398,0.999880970201
1543475373459881000,159,1543475373459881000,/map,1.31378448009,18.5071716309,2.28115224838,0.0075604760107,-0.00487943870401,0.0128146002008,0.999877400636
1543475373559962000,160,1543475373559962000,/map,1.31594920158,18.4992408752,2.2834239006,0.00748740822325,-0.00492327485603,0.0125695274082,0.999880846433
1543475373660103000,161,1543475373660103000,/map,1.31373941898,18.5079250336,2.2836368084,0.00755761242642,-0.00490075642705,0.0126416257144,0.999879519932
1543475373760231000,162,1543475373760231000,/map,1.31828379631,18.5036907196,2.27944540977,0.00753088309348,-0.00482269820341,0.0126404526902,0.999880115983
1543475373860378000,163,1543475373860378000,/map,1.31985020638,18.5020942688,2.28579425812,0.00745088943514,-0.00506289017712,0.0125982384054,0.999880060697
1543475373960482000,164,1543475373960482000,/map,1.3193166256,18.5023269653,2.28015708923,0.00753712590855,-0.004865958844,0.0125675642054,0.999880778147
1543475374060614000,165,1543475374060614000,/map,1.3154964447,18.499961853,2.28378796577,0.0074311542722,-0.00491022148096,0.0126290470038,0.999880580291
1543475374160709000,166,1543475374160709000,/map,1.31804811954,18.5063533783,2.28568863869,0.00754615411483,-0.00500431826745,0.0124963927794,0.999880919172
1543475374260870000,167,1543475374260870000,/map,1.31494629383,18.5017662048,2.28214120865,0.00746939192564,-0.00490676762112,0.0125889410892,0.999880818087
1543475374360987000,168,1543475374360987000,/map,1.31989753246,18.5026855469,2.28539013863,0.00747154983613,-0.00499926116136,0.012595544654,0.999880260624
1543475374461079000,169,1543475374461079000,/map,1.32116305828,18.4977722168,2.2817773819,0.00754158833317,-0.00491587201373,0.0125778713912,0.999880370744
1543475374561242000,170,1543475374561242000,/map,1.31745314598,18.50431633,2.28349590302,0.007496189557,-0.00491997060761,0.012625178736,0.999880095758
1543475374661338000,171,1543475374661338000,/map,1.32284700871,18.5022888184,2.28216099739,0.00747252227826,-0.00494437293127,0.0125730064486,0.999880809945
1543475374761492000,172,1543475374761492000,/map,1.31771230698,18.4988059998,2.2834956646,0.00753898434513,-0.00485970549323,0.0126328287427,0.999879972104
1543475374861621000,173,1543475374861621000,/map,1.31772875786,18.5025539398,2.27921557426,0.00745948613296,-0.0048470190717,0.0125389507099,0.99988181161
1543475374961710000,174,1543475374961710000,/map,1.31535637379,18.5001296997,2.28649091721,0.00749292037647,-0.00500680324006,0.0125211851067,0.999880996914
1543475375061856000,175,1543475375061856000,/map,1.31827449799,18.5042362213,2.28253173828,0.00748800558839,-0.00493797555214,0.0126427055873,0.999879846864
1543475375161976000,176,1543475375161976000,/map,1.3202599287,18.4967422485,2.28568053246,0.0075061577746,-0.00500414416584,0.0125549439705,0.999880487618
1543475375262111000,177,1543475375262111000,/map,1.31536972523,18.5033740997,2.28332138062,0.00754382691802,-0.00484133259812,0.0126273421245,0.999880094014
1543475375362321000,178,1543475375362321000,/map,1.31547284126,18.4988918304,2.28682231903,0.00745351049972,-0.00497857410858,0.0125508231031,0.999881060837
1543475375462386000,179,1543475375462386000,/map,1.31810033321,18.50415802,2.28133654594,0.00750124574667,-0.00488691281961,0.0125949566524,0.999880601103
1543475375562516000,180,1543475375562516000,/map,1.31763875484,18.4986438751,2.28525352478,0.00749982865539,-0.00500180131702,0.0125661916654,0.999880405539
1543475375662672000,181,1543475375662672000,/map,1.31585717201,18.5019874573,2.27860808372,0.00755030891361,-0.00486328269606,0.0126181411372,0.999880054722
1543475375762800000,182,1543475375762800000,/map,1.31896793842,18.499879837,2.28672361374,0.00752711187489,-0.00499446231143,0.0125174112261,0.999880849076
1543475375862957000,183,1543475375862957000,/map,1.31663751602,18.5006923676,2.27873873711,0.00749978165432,-0.00487686050493,0.0126088279128,0.999880486341
1543475375963085000,184,1543475375963085000,/map,1.31883609295,18.5034923553,2.2879357338,0.00753518582592,-0.00497467441355,0.0125926055473,0.99987994273
1543475376063198000,185,1543475376063198000,/map,1.31945323944,18.4980640411,2.2820854187,0.00747467463753,-0.00489909415858,0.0126053285468,0.999880609777
1543475376163367000,186,1543475376163367000,/map,1.32012712955,18.5027828217,2.28722453117,0.00750531984258,-0.00499978951402,0.0125652499068,0.999880386233
1543475376263474000,187,1543475376263474000,/map,1.31780230999,18.5014629364,2.28314256668,0.00758292416822,-0.0049042813472,0.0127091304777,0.999878455257
1543475376363577000,188,1543475376363577000,/map,1.31973958015,18.500453949,2.28707766533,0.00739188789358,-0.00509515458742,0.0121074301339,0.999886398312
1543475376463731000,189,1543475376463731000,/map,1.31290996075,18.505531311,2.2826590538,0.00761337336591,-0.00491100499736,0.0128044478548,0.999876974778
1543475376563868000,190,1543475376563868000,/map,1.32053518295,18.5022296906,2.28393530846,0.00753501413948,-0.0049898831748,0.0126569701731,0.999879055553
1543475376663993000,191,1543475376663993000,/map,1.31776309013,18.5030345917,2.2868039608,0.00759179437474,-0.00499128119972,0.0126345478651,0.999878902653
1543475376764149000,192,1543475376764149000,/map,1.31607604027,18.5036468506,2.27703642845,0.00741395357247,-0.0047939127478,0.0125974251693,0.999881671285
1543475376864287000,193,1543475376864287000,/map,1.31543898582,18.499174118,2.28651738167,0.00751960754576,-0.00498281766612,0.0125623220396,0.999880400396
1543475376964394000,194,1543475376964394000,/map,1.31352746487,18.5018081665,2.2818198204,0.00751406288089,-0.00486506312315,0.0126449729976,0.999879980136
1543475377064535000,195,1543475377064535000,/map,1.32205402851,18.4975776672,2.28107190132,0.00749502384432,-0.0049766128629,0.0125860686593,0.999880317247
1543475377164715000,196,1543475377164715000,/map,1.31620848179,18.5006694794,2.28510189056,0.00755655698867,-0.00494308872462,0.012569225952,0.999880232267
1543475377264860000,197,1543475377264860000,/map,1.31693506241,18.5041007996,2.28211760521,0.0074644657245,-0.00487695961214,0.0127084484374,0.999879488916
1543475377365014000,198,1543475377365014000,/map,1.3237746954,18.4981861115,2.28196287155,0.00749792024549,-0.00495379148165,0.01254394798,0.999880938168
1543475377465127000,199,1543475377465127000,/map,1.31812763214,18.5011367798,2.28447031975,0.00757213302437,-0.00494523471063,0.0125911150501,0.999879828418
1543475377565285000,200,1543475377565285000,/map,1.32068109512,18.4991607666,2.27938437462,0.00746415107322,-0.00489377103094,0.0126733151246,0.999879855051
1543475377665405000,201,1543475377665405000,/map,1.31834292412,18.5024337769,2.28677821159,0.00751339728708,-0.00493766242787,0.0125697715507,0.999880577466
1543475377765557000,202,1543475377765557000,/map,1.3172262907,18.4989204407,2.282320261,0.00741140134525,-0.00489520404648,0.012598713641,0.999881183202
1543475377865710000,203,1543475377865710000,/map,1.3174726963,18.5039138794,2.28363466263,0.00752644200759,-0.00493217850653,0.0125703864311,0.999880498695
1543475377965843000,204,1543475377965843000,/map,1.31648039818,18.4995231628,2.2845056057,0.00759866270269,-0.00491998559109,0.0126772483341,0.99987866336
1543475378065967000,205,1543475378065967000,/map,1.31951773167,18.5043964386,2.28486895561,0.00749374092166,-0.00492271134483,0.012526201744,0.999881345475
1543475378166117000,206,1543475378166117000,/map,1.31480467319,18.5014286041,2.28012561798,0.00752251045541,-0.00493747457182,0.0126398736068,0.999879626143
1543475378266268000,207,1543475378266268000,/map,1.31626820564,18.5045604706,2.28810501099,0.0075615637117,-0.00498969674787,0.0125623805223,0.999880048944
1543475378366397000,208,1543475378366397000,/map,1.31552243233,18.4986362457,2.28112816811,0.00748892592684,-0.00491689828145,0.0125600463006,0.999880985586
1543475378466568000,209,1543475378466568000,/map,1.31726872921,18.5016384125,2.28637266159,0.0074873458293,-0.00494404158849,0.0125436182614,0.999881069801
1543475378566688000,210,1543475378566688000,/map,1.31714558601,18.4984798431,2.28825688362,0.00766492637311,-0.00511776363985,0.0129348476826,0.999873865602
1543475378666809000,211,1543475378666809000,/map,1.31581115723,18.5069828033,2.28239107132,0.00745594806798,-0.00497840481196,0.0125426986319,0.999881145454
1543475378766960000,212,1543475378766960000,/map,1.31720352173,18.5061264038,2.28728747368,0.00751526919452,-0.00490767951846,0.0127722150928,0.999878145542
1543475378867125000,213,1543475378867125000,/map,1.3177472353,18.5010852814,2.28060936928,0.00745498703665,-0.0049014384843,0.0124140997085,0.99988313777
1543475378967243000,214,1543475378967243000,/map,1.31918811798,18.5035171509,2.28226470947,0.00749345918473,-0.0049295695321,0.0126928717602,0.999879211915
1543475379067373000,215,1543475379067373000,/map,1.31921410561,18.4991149902,2.28235650063,0.0074809238978,-0.00483956815277,0.0124970221353,0.999882212461
1543475379167541000,216,1543475379167541000,/map,1.31392014027,18.5042362213,2.28136396408,0.0074955602983,-0.00491614108489,0.0125969682324,0.999880475119
1543475379267703000,217,1543475379267703000,/map,1.31744754314,18.501449585,2.2869887352,0.00754549702956,-0.00508540262191,0.0125572290418,0.999879752847
1543475379367846000,218,1543475379367846000,/map,1.31236052513,18.5063095093,2.28275203705,0.00750277177232,-0.00492102401961,0.0125908960694,0.999880473494
1543475379467978000,219,1543475379467978000,/map,1.31429207325,18.5019931793,2.28443598747,0.00750875043662,-0.00490953271344,0.0126519062414,0.999879714978
1543475379568094000,220,1543475379568094000,/map,1.31898987293,18.5046195984,2.27979421616,0.00751446368529,-0.00494633720947,0.0125434670347,0.999880856912
1543475379668259000,221,1543475379668259000,/map,1.31315362453,18.5001831055,2.28673791885,0.00749988755596,-0.00500258587314,0.0125447676594,0.999880670193
1543475379768449000,222,1543475379768449000,/map,1.31659352779,18.4987201691,2.28428697586,0.00753831329051,-0.00495584270951,0.0126614732725,0.999879142972
1543475379868556000,223,1543475379868556000,/map,1.3185646534,18.5058994293,2.27976465225,0.00749764774635,-0.00489570717601,0.0125174319292,0.9998815586
1543475379968707000,224,1543475379968707000,/map,1.31601059437,18.4996128082,2.28736591339,0.00750246731792,-0.00503605512095,0.0125345298456,0.99988061122
1543475380068863000,225,1543475380068863000,/map,1.31673693657,18.5060539246,2.28214764595,0.00752753436285,-0.00489833310766,0.0126215070366,0.999880012861
1543475380169015000,226,1543475380169015000,/map,1.31771290302,18.4997520447,2.2868180275,0.00752476597781,-0.00500453080335,0.0125541089747,0.999880356301
1543475380269180000,227,1543475380269180000,/map,1.31729900837,18.5019817352,2.28010082245,0.00748093767232,-0.00494275756896,0.012640603655,0.999879902718
1543475380369333000,228,1543475380369333000,/map,1.31574857235,18.5012111664,2.28661823273,0.00749996011208,-0.00498980189416,0.0126210598001,0.999879773435
1543475380469465000,229,1543475380469465000,/map,1.31578862667,18.5049571991,2.2827129364,0.00758195098796,-0.00496608357692,0.0125482124297,0.999880190022
1543475380569623000,230,1543475380569623000,/map,1.31888639927,18.4998321533,2.28751564026,0.0075438398784,-0.00501106467518,0.0125808109208,0.999879844235
1543475380669759000,231,1543475380669759000,/map,1.31687021255,18.5036869049,2.28303933144,0.00751682309399,-0.0049378333985,0.0125568847581,0.999880712794
1543475380769900000,232,1543475380769900000,/map,1.31681668758,18.4986877441,2.28363895416,0.00751950681193,-0.00493264236567,0.0125681181719,0.9998805771
1543475380870054000,233,1543475380870054000,/map,1.31682896614,18.5036697388,2.28642654419,0.00744597169184,-0.00506553490279,0.0125729419262,0.999880402345
1543475380970180000,234,1543475380970180000,/map,1.31788301468,18.5060634613,2.27850055695,0.00756927624343,-0.0047982362665,0.0126351749338,0.999880010471
1543475381070331000,235,1543475381070331000,/map,1.31666898727,18.5023384094,2.28737783432,0.00755619578915,-0.00504457358394,0.0126110668526,0.999879201292
1543475381170497000,236,1543475381170497000,/map,1.31685197353,18.5030326843,2.28161668777,0.00751994423365,-0.00490742437407,0.0125982547998,0.999880318639
1543475381270636000,237,1543475381270636000,/map,1.32288503647,18.4981269836,2.28353118896,0.0074863459666,-0.00491408955438,0.0126195809274,0.999880269095
1543475381370793000,238,1543475381370793000,/map,1.31702709198,18.5016975403,2.28293514252,0.007485414219,-0.00495330772547,0.0125946721841,0.999880396622
1543475381470957000,239,1543475381470957000,/map,1.31934905052,18.5010166168,2.28711056709,0.00752386217407,-0.00494756601484,0.0126013263334,0.999880052638
1543475381571129000,240,1543475381571129000,/map,1.3160970211,18.4965610504,2.28375315666,0.00750020789655,-0.00508151379271,0.0126079230724,0.999879475424
1543475381671243000,241,1543475381671243000,/map,1.31927716732,18.5024681091,2.28029894829,0.00751374737749,-0.00491380124151,0.0126215580823,0.999880040019
1543475381771436000,242,1543475381771436000,/map,1.31384277344,18.5021343231,2.28566217422,0.00750820320536,-0.00505230694378,0.0126043101761,0.999879608975
1543475381871543000,243,1543475381871543000,/map,1.31810414791,18.5067310333,2.28355813026,0.00752877345079,-0.00501217927855,0.0126142174587,0.999879531317
1543475381971704000,244,1543475381971704000,/map,1.31724011898,18.5005931854,2.28081440926,0.00750030824362,-0.00481386858265,0.0126214454635,0.999880628455
1543475382071855000,245,1543475382071855000,/map,1.31872367859,18.5073204041,2.28619480133,0.00753270935316,-0.00496729726542,0.0126186487744,0.999879669736
1543475382172006000,246,1543475382172006000,/map,1.31853663921,18.5025691986,2.28179645538,0.00751951131947,-0.00492781861516,0.0126030430132,0.999880161249
1543475382272179000,247,1543475382272179000,/map,1.31678533554,18.5083560944,2.28374528885,0.00748662564374,-0.00491610744481,0.0125864456284,0.999880674736
1543475382372364000,248,1543475382372364000,/map,1.31487238407,18.5004615784,2.28517508507,0.00749662298614,-0.00501671197213,0.0125408524439,0.999880673013
1543475382472505000,249,1543475382472505000,/map,1.31872653961,18.5026988983,2.28438210487,0.00755789485179,-0.00499309709704,0.0125870793711,0.99987974909
1543475382572650000,250,1543475382572650000,/map,1.31351697445,18.5016860962,2.28608560562,0.00751587542372,-0.00496210586602,0.0125828902017,0.999880272831
1543475382672799000,251,1543475382672799000,/map,1.32137608528,18.5014514923,2.28617548943,0.00749844230819,-0.00502611864521,0.0125978067062,0.999879896168
1543475382772980000,252,1543475382772980000,/map,1.31746780872,18.4936199188,2.28550028801,0.00748119640159,-0.00504050351179,0.0125917420379,0.999880029332
1543475382873116000,253,1543475382873116000,/map,1.3164910078,18.5008144379,2.28342819214,0.0074713011929,-0.0049859963188,0.0126143772816,0.999880091303
1543475382973286000,254,1543475382973286000,/map,1.32151949406,18.4972667694,2.28393483162,0.00760851086217,-0.00497259745974,0.0125736988905,0.999879635723
1543475383073434000,255,1543475383073434000,/map,1.31797802448,18.5034008026,2.28354382515,0.00745780816718,-0.00494971607395,0.0125741055121,0.999880879545
1543475383173590000,256,1543475383173590000,/map,1.319470644,18.4999713898,2.28585767746,0.00755209199226,-0.00498989612719,0.0126298837489,0.999879269152
1543475383273766000,257,1543475383273766000,/map,1.3166655302,18.5037651062,2.28185582161,0.00752481699341,-0.00489370590836,0.0125685242333,0.999880723372
1543475383373920000,258,1543475383373920000,/map,1.31952500343,18.4999103546,2.28736448288,0.0074457794051,-0.00506162593111,0.0125994614142,0.999880089753
1543475383474041000,259,1543475383474041000,/map,1.31792354584,18.5029029846,2.28202366829,0.00752976620207,-0.00492353462474,0.0125658628782,0.999880573128
1543475383574227000,260,1543475383574227000,/map,1.31487393379,18.5070343018,2.27768039703,0.007497221453,-0.00490543830604,0.0127150841437,0.999879020172
1543475383674386000,261,1543475383674386000,/map,1.31542742252,18.4978370667,2.28455591202,0.00754619671011,-0.00499503696032,0.0125991538436,0.999879675683
1543475383774522000,262,1543475383774522000,/map,1.31965112686,18.5022525787,2.28604125977,0.00751100658888,-0.00505429164059,0.0126137434855,0.999879458931
1543475383874688000,263,1543475383874688000,/map,1.31590330601,18.4993057251,2.28317403793,0.0075041540449,-0.00495359676376,0.0125825970233,0.99988040675
1543475383974849000,264,1543475383974849000,/map,1.32158696651,18.5007629395,2.28629183769,0.00756021787728,-0.0050318486765,0.0125579556262,0.999879903466
1543475384075064000,265,1543475384075064000,/map,1.31733000278,18.5034484863,2.28331685066,0.00749896943204,-0.00499023752664,0.0125910884561,0.999880156558
1543475384175162000,266,1543475384175162000,/map,1.3211619854,18.5014057159,2.28319692612,0.00753845988219,-0.00484927164481,0.0125930020614,0.999880529106
1543475384275334000,267,1543475384275334000,/map,1.31515228748,18.5028648376,2.28544807434,0.00739960112339,-0.00504426406839,0.0125662406748,0.999880938361
1543475384375485000,268,1543475384375485000,/map,1.3223887682,18.4986019135,2.28257203102,0.00756946369531,-0.00495254783034,0.0126100607557,0.999879573677
1543475384475672000,269,1543475384475672000,/map,1.31808543205,18.5061092377,2.28471302986,0.00749566478828,-0.00491380532022,0.012585158951,0.999880634526
1543475384575796000,270,1543475384575796000,/map,1.31544363499,18.5022411346,2.28595161438,0.0074276284531,-0.00504654189942,0.0125625108378,0.999880765928
1543475384675977000,271,1543475384675977000,/map,1.31842195988,18.5035495758,2.28087472916,0.00762093383717,-0.00494186093572,0.0127616793536,0.999877311933
1543475384776107000,272,1543475384776107000,/map,1.3180590868,18.500038147,2.28423810005,0.00748125227539,-0.00497618677858,0.012463861696,0.999881953323
1543475384876261000,273,1543475384876261000,/map,1.31826627254,18.5040245056,2.28515791893,0.00762264820069,-0.00495815503319,0.012810159789,0.999876598256
1543475384976428000,274,1543475384976428000,/map,1.31901276112,18.4979934692,2.27931332588,0.00749137070547,-0.00490073281489,0.0125694073777,0.999880929002
1543475385076592000,275,1543475385076592000,/map,1.31996273994,18.5005970001,2.28212404251,0.00753243430973,-0.00491588597219,0.012707064686,0.999878806159
1543475385176802000,276,1543475385176802000,/map,1.3133302927,18.5097770691,2.28056240082,0.00746337349138,-0.00499842195652,0.012529691532,0.99988115327
1543475385276946000,277,1543475385276946000,/map,1.31909799576,18.5038318634,2.27939176559,0.00751475735443,-0.00487840029544,0.0125761196902,0.999880778316
1543475385377093000,278,1543475385377093000,/map,1.31295490265,18.5014266968,2.27860307693,0.00746483302041,-0.00485456394388,0.0126331208087,0.999880549734
1543475385477255000,279,1543475385477255000,/map,1.32082295418,18.5018558502,2.28145670891,0.00750685048871,-0.00490900323241,0.01259457224,0.999880455671
1543475385577426000,280,1543475385577426000,/map,1.31369137764,18.5078620911,2.2795855999,0.00747390762172,-0.00492797609285,0.0125846665698,0.99988073385
1543475385677551000,281,1543475385677551000,/map,1.31812262535,18.5034313202,2.28189349174,0.00752596427187,-0.00487565580344,0.0126187976309,0.999880169715
1543475385777728000,282,1543475385777728000,/map,1.32244920731,18.4973754883,2.28486156464,0.00750677807753,-0.00498790248444,0.0125648296062,0.999880439937
1543475385877895000,283,1543475385877895000,/map,1.31676757336,18.5023174286,2.28282856941,0.00744696190536,-0.00495135387758,0.0126178282411,0.99988040148
1543475385978099000,284,1543475385978099000,/map,1.32145965099,18.5017757416,2.2846930027,0.00755471042863,-0.00500780367745,0.0126233339811,0.999879242555
1543475386078222000,285,1543475386078222000,/map,1.31735801697,18.505273819,2.28244018555,0.00752494397267,-0.00501255425083,0.0126428185333,0.999879197032
1543475386178416000,286,1543475386178416000,/map,1.32214272022,18.4994735718,2.2824280262,0.00748621510665,-0.00486150034946,0.0125776735761,0.999881055189
1543475386278561000,287,1543475386278561000,/map,1.32115054131,18.5043735504,2.28138923645,0.00755604665621,-0.00497609039241,0.0126366782881,0.999879222229
1543475386378741000,288,1543475386378741000,/map,1.31488716602,18.5021076202,2.28450012207,0.00741645383525,-0.00494782192541,0.0125508979918,0.999881488093
1543475386478909000,289,1543475386478909000,/map,1.31946635246,18.498500824,2.2780649662,0.00758549194748,-0.00488066793902,0.0126008902791,0.999879921269
1543475386579031000,290,1543475386579031000,/map,1.31669211388,18.5066680908,2.28365206718,0.00747825539713,-0.00493511352658,0.0125895970689,0.99988060407
1543475386679210000,291,1543475386679210000,/map,1.31744873524,18.4997024536,2.2819545269,0.0075344825733,-0.00496260737782,0.0125841282287,0.999880114722
1543475386779388000,292,1543475386779388000,/map,1.31265950203,18.5027961731,2.28890395164,0.00749714623684,-0.00504708447949,0.0125951584037,0.999879833641
1543475386879575000,293,1543475386879575000,/map,1.31694352627,18.4991645813,2.28396868706,0.00748646775244,-0.00495743992524,0.0126498722812,0.999879671421
1543475386979747000,294,1543475386979747000,/map,1.31442379951,18.5019741058,2.28282237053,0.0075701550758,-0.00487398333952,0.0124870831013,0.999881497876
1543475387079914000,295,1543475387079914000,/map,1.31186318398,18.499458313,2.28895974159,0.00745162870832,-0.00512372234935,0.0126264190676,0.999879389847
1543475387180041000,296,1543475387180041000,/map,1.31723296642,18.5043945312,2.28231048584,0.00753512290572,-0.00489543485014,0.0125654281575,0.999880676209
1543475387280185000,297,1543475387280185000,/map,1.31664681435,18.4993362427,2.28597187996,0.00747603306599,-0.00509706756347,0.0125150661715,0.999880743864
1543475387380389000,298,1543475387380389000,/map,1.31420302391,18.5018768311,2.28056764603,0.00748415378766,-0.00481447976478,0.012583701128,0.999881222292
1543475387480504000,299,1543475387480504000,/map,1.32095897198,18.503911972,2.28591442108,0.00757033504098,-0.00498384177041,0.0126068358444,0.999879452253
1543475387580729000,300,1543475387580729000,/map,1.31790733337,18.5028686523,2.28133368492,0.00748898200685,-0.00493182308988,0.0125855836569,0.999880590547
1543475387680908000,301,1543475387680908000,/map,1.317517519,18.4965820312,2.28630447388,0.00757663112892,-0.00494221798195,0.0126490682332,0.999879077796
1543475387781033000,302,1543475387781033000,/map,1.31990611553,18.5049915314,2.28430771828,0.00752296469695,-0.00493386705601,0.0126153858586,0.999879949793
1543475387881170000,303,1543475387881170000,/map,1.31891381741,18.4992809296,2.2818801403,0.00750328433792,-0.00494682725058,0.0126379661944,0.999879748487
1543475387981348000,304,1543475387981348000,/map,1.31842780113,18.5023269653,2.28525948524,0.00753806500846,-0.00498519742189,0.0125909023242,0.999879890067
1543475388081549000,305,1543475388081549000,/map,1.3160200119,18.5009117126,2.27888393402,0.00750481636515,-0.00486515997993,0.0126614513343,0.999879840581
1543475388181707000,306,1543475388181707000,/map,1.32128083706,18.5049571991,2.28455162048,0.00754389945233,-0.00495592994011,0.0126499119836,0.999879246742
1543475388281877000,307,1543475388281877000,/map,1.31708323956,18.5023555756,2.28272223473,0.00749853367571,-0.00487558630772,0.0125953421966,0.999880671883
1543475388382042000,308,1543475388382042000,/map,1.31738209724,18.5004749298,2.28834223747,0.0074043889105,-0.00489939536316,0.0125789068555,0.999881464001
1543475388482259000,309,1543475388482259000,/map,1.32014524937,18.5028038025,2.28190350533,0.00752553190565,-0.00491626440921,0.012629960496,0.999879833186
1543475388582391000,310,1543475388582391000,/map,1.31607866287,18.5012798309,2.28682661057,0.0075507575017,-0.00500425253532,0.012632646785,0.999879172577
1543475388682521000,311,1543475388682521000,/map,1.31683719158,18.5046367645,2.28236985207,0.00748414896442,-0.00494967900494,0.0126570779932,0.999879636041
1543475388782726000,312,1543475388782726000,/map,1.3209887743,18.4979915619,2.28417420387,0.0075188428493,-0.00488888103117,0.0125859856074,0.999880572274
1543475388882894000,313,1543475388882894000,/map,1.31504976749,18.5007362366,2.28668904305,0.0075191130722,-0.00501639573214,0.0126148706674,0.999879574624
1543475388983042000,314,1543475388983042000,/map,1.31864714622,18.4961643219,2.28754162788,0.00752777643157,-0.00506138072439,0.0125822156558,0.999879694191
1543475389083190000,315,1543475389083190000,/map,1.31875026226,18.5017166138,2.28423118591,0.00750829828523,-0.00494312233379,0.0126042837266,0.999880154334
1543475389183402000,316,1543475389183402000,/map,1.31969726086,18.5054740906,2.28133058548,0.00748912132774,-0.00495721720229,0.0126140910261,0.999880104696
1543475389283532000,317,1543475389283532000,/map,1.31593954563,18.5004348755,2.28238320351,0.00747935460771,-0.00484785230201,0.0125878144889,0.999881045179
1543475389383729000,318,1543475389383729000,/map,1.32022881508,18.5003528595,2.28274416924,0.00753663023069,-0.00497869895434,0.012591339044,0.999879927763
1543475389483904000,319,1543475389483904000,/map,1.31519043446,18.5017967224,2.28431105614,0.00745238167844,-0.00486580991802,0.0125702269396,0.999881380613
1543475389584040000,320,1543475389584040000,/map,1.31956863403,18.5013618469,2.28663516045,0.00750290124476,-0.00510898500396,0.0125767457457,0.999879707871
1543475389684225000,321,1543475389684225000,/map,1.31381940842,18.4995231628,2.28075194359,0.00754466505486,-0.00490949928506,0.0125813253728,0.999880335389
1543475389784403000,322,1543475389784403000,/map,1.31546783447,18.505853653,2.28588986397,0.00753116648284,-0.0049835076581,0.0125886069041,0.999879979377
1543475389884570000,323,1543475389884570000,/map,1.31314718723,18.5020256042,2.28082561493,0.0074576719432,-0.00490927400078,0.0125594298872,0.99988126439
1543475389984767000,324,1543475389984767000,/map,1.31933510303,18.5036315918,2.28402733803,0.0075442760388,-0.00486469274346,0.0125761599716,0.999880622306
1543475390084885000,325,1543475390084885000,/map,1.31775081158,18.4993991852,2.2854013443,0.0075484544049,-0.00502441674446,0.0126199122202,0.999879249654
1543475390185095000,326,1543475390185095000,/map,1.31583917141,18.5064620972,2.2824280262,0.00746228624431,-0.00486674720889,0.0125610330557,0.999881417721
1543475390285264000,327,1543475390285264000,/map,1.31879270077,18.5009536743,2.28393125534,0.00752119101853,-0.00495617420945,0.0126139241424,0.999879871255
1543475390385424000,328,1543475390385424000,/map,1.31791841984,18.5053520203,2.28349542618,0.00760105979518,-0.00500653185552,0.0126536750077,0.999878514139
1543475390485565000,329,1543475390485565000,/map,1.31893837452,18.4994163513,2.27899003029,0.00753733860461,-0.00482529836601,0.0126006072551,0.999880557726
1543475390585779000,330,1543475390585779000,/map,1.3125513792,18.501657486,2.28549623489,0.00749325044337,-0.00493285678369,0.0126063537411,0.999880291819
1543475390685960000,331,1543475390685960000,/map,1.31799781322,18.4987697601,2.28449821472,0.00747162030569,-0.00504549106256,0.0125831958742,0.999880183368
1543475390786103000,332,1543475390786103000,/map,1.31637752056,18.5012645721,2.28256368637,0.00755999874914,-0.00486052910923,0.0125734073404,0.999880558419
1543475390886319000,333,1543475390886319000,/map,1.31440126896,18.5055503845,2.28646349907,0.0075336884629,-0.0050038131941,0.0127919184323,0.999877278577
1543475390986459000,334,1543475390986459000,/map,1.32028996944,18.5020370483,2.28302764893,0.00750842707747,-0.00488445481334,0.0126127843522,0.999880334488
1543475391086673000,335,1543475391086673000,/map,1.31224286556,18.5016689301,2.285394907,0.0075575587935,-0.00500675911189,0.0125833740844,0.99987972995
1543475391186789000,336,1543475391186789000,/map,1.31668925285,18.502161026,2.28042006493,0.0075100573349,-0.00491899595301,0.0126364867892,0.999879853642
1543475391286983000,337,1543475391286983000,/map,1.31885516644,18.4952259064,2.2826397419,0.00748772825628,-0.00486996296523,0.0125845402582,0.999880916276
1543475391387133000,338,1543475391387133000,/map,1.3216176033,18.5009708405,2.28077960014,0.00755488297171,-0.00485383404702,0.0125444637745,0.999880993152
1543475391487294000,339,1543475391487294000,/map,1.31821095943,18.4992313385,2.28416204453,0.00750638664383,-0.00495021211923,0.0126062598521,0.999880108699
1543475391587482000,340,1543475391587482000,/map,1.32072329521,18.5052089691,2.28250861168,0.00748471404966,-0.00497753138999,0.0126283934415,0.999879856241
1543475391687723000,341,1543475391687723000,/map,1.32072472572,18.4999904633,2.28248119354,0.00754889143698,-0.00495841711778,0.0126174669243,0.999879606686
1543475391787837000,342,1543475391787837000,/map,1.31363284588,18.5038166046,2.28599786758,0.0074382687108,-0.00501091515478,0.0125566770155,0.999880939287
1543475391887998000,343,1543475391887998000,/map,1.31872820854,18.5009765625,2.28288435936,0.00749740894303,-0.00484689015177,0.0125989775357,0.999880774033
1543475391988193000,344,1543475391988193000,/map,1.32379281521,18.4981956482,2.2824652195,0.00749058036222,-0.00474514505465,0.0126286906252,0.999880938401
1543475392088334000,345,1543475392088334000,/map,1.31686913967,18.5045127869,2.28369116783,0.00746124636457,-0.00501206780575,0.0126290177306,0.999879851227
1543475392188537000,346,1543475392188537000,/map,1.3184992075,18.49817276,2.28357934952,0.00754764958336,-0.00495838057352,0.0125707474813,0.999880204702
1543475392288726000,347,1543475392288726000,/map,1.31713294983,18.5029506683,2.28486585617,0.00747738190783,-0.00493167439192,0.0126020291607,0.999880470961
1543475392388857000,348,1543475392388857000,/map,1.31315767765,18.4985103607,2.2831132412,0.00754356949538,-0.00497862103022,0.0125701279634,0.999880142705
1543475392489065000,349,1543475392489065000,/map,1.31884002686,18.5016326904,2.28551149368,0.00753868677811,-0.00493161731997,0.0126117046363,0.999879888916
1543475392589217000,350,1543475392589217000,/map,1.31352567673,18.4964580536,2.28544688225,0.00754268228974,-0.00504551273447,0.0126015627198,0.999879418411
1543475392689393000,351,1543475392689393000,/map,1.31992149353,18.5039653778,2.28414559364,0.00755038588797,-0.00493973448423,0.0126031306674,0.999879868681
1543475392789560000,352,1543475392789560000,/map,1.31385064125,18.5019721985,2.28414106369,0.00750907389713,-0.00499412105046,0.0126174792972,0.999879728658
1543475392889742000,353,1543475392889742000,/map,1.32138729095,18.5007514954,2.28179240227,0.00754237244448,-0.00485652920503,0.0125922698681,0.999880473597
1543475392989943000,354,1543475392989943000,/map,1.31546354294,18.5003757477,2.28660750389,0.00757584008102,-0.00500059412163,0.012616830215,0.999879200854
1543475393090075000,355,1543475393090075000,/map,1.3189599514,18.5034046173,2.28345322609,0.00752641110796,-0.00506553654525,0.0125727014127,0.999879803104
1543475393190282000,356,1543475393190282000,/map,1.31585717201,18.4990882874,2.2836151123,0.00743561048976,-0.00485446055733,0.012708236284,0.999879816098
1543475393290470000,357,1543475393290470000,/map,1.32133996487,18.5034008026,2.28363180161,0.00757782326382,-0.00489453252333,0.0125983640384,0.999879943478
1543475393390622000,358,1543475393390622000,/map,1.3158864975,18.4998073578,2.28489017487,0.00758164183778,-0.0049978174002,0.0126427421572,0.99987884346
1543475393490816000,359,1543475393490816000,/map,1.31817996502,18.5059070587,2.2844722271,0.00754726969778,-0.00492518368007,0.0125731571874,0.999880341343
1543475393590992000,360,1543475393590992000,/map,1.31388437748,18.5003318787,2.28712439537,0.00750002153171,-0.0050494523833,0.0125812676292,0.999879975003
1543475393691202000,361,1543475393691202000,/map,1.31781804562,18.5045089722,2.28339028358,0.00750905210361,-0.0049433217952,0.012618752371,0.999879965193
1543475393791325000,362,1543475393791325000,/map,1.31477487087,18.5012645721,2.28008818626,0.0075560447835,-0.00487791678304,0.0125765170762,0.999880464522
1543475393891522000,363,1543475393891522000,/map,1.31723594666,18.5008583069,2.28707003593,0.00741458614854,-0.00508234680758,0.0126671980768,0.999879360601
1543475393991683000,364,1543475393991683000,/map,1.32060217857,18.4979076385,2.28070092201,0.00755254445571,-0.00492480677222,0.0126370829244,0.999879497482
1543475394091854000,365,1543475394091854000,/map,1.31647932529,18.506526947,2.28381586075,0.00755468449888,-0.00492461253408,0.0126014807288,0.9998799316
1543475394192030000,366,1543475394192030000,/map,1.32188498974,18.5007972717,2.28441619873,0.00752244967839,-0.00496232470589,0.0126423782262,0.999879471915
1543475394292216000,367,1543475394292216000,/map,1.32081627846,18.5040512085,2.28302431107,0.0075090164241,-0.00499520770759,0.0126660921644,0.999879109033
1543475394392392000,368,1543475394392392000,/map,1.31475806236,18.4972686768,2.28842616081,0.007524039177,-0.00505134806642,0.0125965406069,0.999879592692
1543475394492558000,369,1543475394492558000,/map,1.3154399395,18.4984416962,2.28100943565,0.00748441256007,-0.00488581517107,0.012586287936,0.999880841768
1543475394592751000,370,1543475394592751000,/map,1.32065427303,18.5001277924,2.28690576553,0.00753053703377,-0.00501614277467,0.0126529479147,0.999879008797
1543475394692913000,371,1543475394692913000,/map,1.31521987915,18.5003051758,2.28312444687,0.00748772545224,-0.00492418731139,0.0126266721368,0.999880119563
1543475394793063000,372,1543475394793063000,/map,1.32460796833,18.500579834,2.28355932236,0.00756717213245,-0.00493417275386,0.0126749222029,0.999878861759
1543475394893286000,373,1543475394893286000,/map,1.31613981724,18.4997463226,2.28485107422,0.00747180255281,-0.00496166942369,0.0125831111282,0.999880602531
1543475394993443000,374,1543475394993443000,/map,1.32064688206,18.5014266968,2.28143525124,0.00757004714851,-0.00497222962384,0.0126398373748,0.999879095606
1543475395093645000,375,1543475395093645000,/map,1.31536054611,18.5010471344,2.2897310257,0.00749741402498,-0.00506885197222,0.0126342018411,0.99987922894
1543475395193769000,376,1543475395193769000,/map,1.31660830975,18.4999427795,2.28349542618,0.00743863213142,-0.00497229834034,0.012652908101,0.999879916249
1543475395293961000,377,1543475395293961000,/map,1.32453179359,18.5035228729,2.28087449074,0.00754589943262,-0.00487378490742,0.012499126504,0.999881531712
1543475395394169000,378,1543475395394169000,/map,1.3178293705,18.4999599457,2.28246927261,0.00756249484341,-0.0049956559392,0.0126004762192,0.99987953279
1543475395494344000,379,1543475395494344000,/map,1.31924128532,18.5039138794,2.28748488426,0.0074706324042,-0.00507166544473,0.0125382911241,0.999880622433
1543475395594556000,380,1543475395594556000,/map,1.32070469856,18.5020103455,2.28330779076,0.00755671201617,-0.00487741777391,0.0126876961503,0.999879057319
1543475395694710000,381,1543475395694710000,/map,1.31244015694,18.5029258728,2.28541231155,0.0075227658753,-0.00499634859872,0.0125757922511,0.999880139789
1543475395794856000,382,1543475395794856000,/map,1.32058680058,18.5051956177,2.28273940086,0.00752013892509,-0.00490209126926,0.0126262168985,0.999879990628
