%time,field.header.seq,field.header.stamp,field.header.frame_id,field.pose.position.x,field.pose.position.y,field.pose.position.z,field.pose.orientation.x,field.pose.orientation.y,field.pose.orientation.z,field.pose.orientation.w
1543475341951127000,0,1543475341951127000,/map,1.33987796307,18.5373268127,0.25870347023,0.0,0.0,0.707106796641,0.707106765732
1543475357648884000,1,1543475357648884000,/map,1.32848751545,18.5221176148,0.312112092972,0.00197158474054,-0.00875077505245,0.724499476147,0.689216980241
1543475357748912000,2,1543475357748912000,/map,1.34795475006,18.5313510895,0.285999298096,0.00180252087032,-0.00886188974047,0.716277278973,0.697757176571
1543475357848870000,3,1543475357848870000,/map,1.33506369591,18.5390434265,0.283467173576,0.00186994729892,-0.0087575097726,0.715611411743,0.6984412049
1543475357948859000,4,1543475357948859000,/map,1.32420742512,18.5245475769,0.282746911049,0.00174341851273,-0.00877854373097,0.716284730816,0.697750730606
1543475358048902000,5,1543475358048902000,/map,1.34649908543,18.5349063873,0.286162137985,0.00181146886533,-0.00879399633517,0.715840475526,0.698206128452
1543475358148862000,6,1543475358148862000,/map,1.3371206522,18.5289459229,0.28076851368,0.00189140675345,-0.00878736069728,0.715894388305,0.698150721311
1543475358248870000,7,1543475358248870000,/map,1.34379553795,18.5434036255,0.29038631916,0.00174015341931,-0.00882106319567,0.715959010942,0.698084418506
1543475358348934000,8,1543475358348934000,/map,1.34102070332,18.5266189575,0.281873822212,0.00176639514149,-0.00883511936413,0.715918681069,0.698125534994
1543475358448902000,9,1543475358448902000,/map,1.32309663296,18.5244598389,0.279437303543,0.0018056315018,-0.00887790184478,0.715878591848,0.698166000524
1543475358548907000,10,1543475358548907000,/map,1.33647298813,18.5464935303,0.294266700745,0.00179986442512,-0.00881307661627,0.715963478381,0.698079786123
1543475358648926000,11,1543475358648926000,/map,1.34896016121,18.5288925171,0.277686476707,0.00180214357314,-0.00876632125081,0.715969991001,0.698073689432
1543475358748882000,12,1543475358748882000,/map,1.33454883099,18.5261154175,0.291681528091,0.00175839801081,-0.00888149447192,0.715839049022,0.698206619123
1543475358848901000,13,1543475358848901000,/map,1.33380389214,18.5463371277,0.282018184662,0.00187505785033,-0.00877264432723,0.715987380628,0.698055582064
1543475358948944000,14,1543475358948944000,/map,1.3324598074,18.5304508209,0.278490781784,0.00178854805771,-0.00875473615869,0.715928774566,0.698116140366
1543475359048921000,15,1543475359048921000,/map,1.34260976315,18.5359630585,0.290181517601,0.00183498313334,-0.00881258250714,0.71597908148,0.698063697745
1543475359148918000,16,1543475359148918000,/map,1.32519984245,18.5380477905,0.282284140587,0.00180058651112,-0.00883762236437,0.715901296979,0.698143242682
1543475359248970000,17,1543475359248970000,/map,1.34245038033,18.5242156982,0.281860232353,0.0018341323085,-0.00879415881883,0.71595922828,0.698084294459
1543475359348980000,18,1543475359348980000,/map,1.33403241634,18.5436172485,0.277282714844,0.00183827597629,-0.00869515681848,0.715900520508,0.698145729577
1543475359448969000,19,1543475359448969000,/map,1.33494496346,18.5290546417,0.29198384285,0.00181370332423,-0.00887703936657,0.715931922461,0.698111302769
1543475359549014000,20,1543475359549014000,/map,1.33746612072,18.5430545807,0.282130241394,0.00185768457362,-0.00878958847558,0.715951372164,0.698092346927
1543475359649016000,21,1543475359649016000,/map,1.34431827068,18.5224781036,0.283411741257,0.00179244831887,-0.00877442360395,0.71585547471,0.69819104545
1543475359749078000,22,1543475359749078000,/map,1.32930409908,18.5366725922,0.290995121002,0.00180461466294,-0.00877744582049,0.716029600012,0.698012400834
1543475359849071000,23,1543475359849071000,/map,1.34845256805,18.5267906189,0.276196599007,0.00182221695568,-0.00878445634418,0.715811122312,0.698236313884
1543475359949103000,24,1543475359949103000,/map,1.3306825161,18.534526825,0.293337702751,0.00179836562547,-0.00883799533689,0.71597390428,0.69806878179
1543475360049127000,25,1543475360049127000,/map,1.34983003139,18.5221538544,0.277584552765,0.00184274806068,-0.00875263882129,0.715964877194,0.698078999983
1543475360149151000,26,1543475360149151000,/map,1.33118999004,18.5417175293,0.291915655136,0.00175541061872,-0.00885051029323,0.71596143836,0.698081518007
1543475360249160000,27,1543475360249160000,/map,1.34033024311,18.5239429474,0.276062965393,0.00191212597636,-0.00875955663847,0.715864480423,0.698181680947
1543475360349184000,28,1543475360349184000,/map,1.34376132488,18.5431232452,0.2846763134,0.00187484986103,-0.00877566814591,0.71603046481,0.698011350946
1543475360449207000,29,1543475360449207000,/map,1.32721972466,18.531703949,0.277156114578,0.00181570645247,-0.00874494187483,0.715848097569,0.698198918939
1543475360549213000,30,1543475360549213000,/map,1.34881567955,18.525226593,0.28126013279,0.00190279997087,-0.00868599278803,0.715971374875,0.698073007099
1543475360649248000,31,1543475360649248000,/map,1.32994568348,18.5339221954,0.291811108589,0.00180249074809,-0.00877268802169,0.71592919598,0.698115446982
1543475360749319000,32,1543475360749319000,/map,1.3411976099,18.5249996185,0.282245993614,0.00182650009499,-0.00880207168853,0.715761230284,0.698287225039
1543475360849325000,33,1543475360849325000,/map,1.34070134163,18.5476589203,0.277930259705,0.00180095657054,-0.00877931866831,0.71599057131,0.698052420606
1543475360949360000,34,1543475360949360000,/map,1.34223115444,18.520740509,0.286873936653,0.00183134578672,-0.00875213153969,0.715881701293,0.698164333177
1543475361049370000,35,1543475361049370000,/map,1.33127164841,18.537771225,0.285852313042,0.00177964873237,-0.0088627414996,0.715966240301,0.698076376489
1543475361149418000,36,1543475361149418000,/map,1.3396474123,18.5252361298,0.285342693329,0.0018380013106,-0.00876810703576,0.71587758234,0.698168338693
1543475361249464000,37,1543475361249464000,/map,1.33389735222,18.5392742157,0.287973999977,0.00176319995052,-0.00891861736658,0.716076244764,0.697962865112
1543475361349519000,38,1543475361349519000,/map,1.34087872505,18.5348854065,0.273127913475,0.00186396878662,-0.00870014418422,0.715949186911,0.698095691773
1543475361449565000,39,1543475361449565000,/map,1.33678984642,18.5328388214,0.292949438095,0.00183416109874,-0.00879221511176,0.715810921715,0.698236390601
1543475361549557000,40,1543475361549557000,/map,1.33228957653,18.5419845581,0.294082522392,0.00174517675875,-0.00886544073105,0.71623919364,0.697796371309
1543475361649594000,41,1543475361649594000,/map,1.34970510006,18.5252628326,0.272204637527,0.00183756311348,-0.00876542132029,0.715853113136,0.698193462562
1543475361749636000,42,1543475361749636000,/map,1.33076512814,18.5415649414,0.285197973251,0.00182870978885,-0.00883608401589,0.715902774954,0.698141673483
1543475361849717000,43,1543475361849717000,/map,1.34038794041,18.5271129608,0.284971952438,0.00185332301198,-0.00881529414384,0.715947073697,0.698096442799
1543475361949731000,44,1543475361949731000,/map,1.3241430521,18.5230445862,0.281932711601,0.00183873893772,-0.00873451978798,0.715794629477,0.698253804583
1543475362049791000,45,1543475362049791000,/map,1.34330105782,18.5276622772,0.28232562542,0.00185749259432,-0.00877497083991,0.71597056646,0.698072845461
1543475362149848000,46,1543475362149848000,/map,1.33649277687,18.5470066071,0.27642929554,0.00180458329739,-0.00875136263529,0.715966879242,0.698077062336
1543475362249889000,47,1543475362249889000,/map,1.32822835445,18.5278301239,0.281937479973,0.00187200154646,-0.00876838864499,0.715951437792,0.698092507978
1543475362349919000,48,1543475362349919000,/map,1.34330499172,18.5389595032,0.289567112923,0.00182931557945,-0.00883037679412,0.715931782451,0.69811199741
1543475362449956000,49,1543475362449956000,/map,1.33478832245,18.5314464569,0.273196578026,0.0018652259512,-0.00874835513956,0.715936075784,0.698108532111
1543475362550010000,50,1543475362550010000,/map,1.33390045166,18.5469341278,0.285881876945,0.00180319246441,-0.00879344142583,0.716004328861,0.698038125704
1543475362650064000,51,1543475362650064000,/map,1.33826076984,18.5177879333,0.288100004196,0.00177155467553,-0.00878106114671,0.715799442433,0.69824846063
1543475362750134000,52,1543475362750134000,/map,1.33752810955,18.5438022614,0.278190255165,0.00182571444684,-0.00876774188408,0.715961752141,0.698082060319
1543475362850195000,53,1543475362850195000,/map,1.33818769455,18.5244598389,0.282240629196,0.00188453675433,-0.00868015558319,0.715919971649,0.698125846545
1543475362950217000,54,1543475362950217000,/map,1.33965396881,18.5377731323,0.289404392242,0.00179788962952,-0.00881914564999,0.715893274351,0.698151709876
1543475363050314000,55,1543475363050314000,/map,1.33130097389,18.5441493988,0.275195479393,0.00179677181865,-0.00874722366235,0.715982534959,0.698061077072
1543475363150315000,56,1543475363150315000,/map,1.33339881897,18.5293273926,0.29110121727,0.00186720936331,-0.00878945555355,0.715956297014,0.698087272314
1543475363250386000,57,1543475363250386000,/map,1.34818065166,18.5280056,0.277065634727,0.00185243282427,-0.00876034179607,0.71594567368,0.698098572727
1543475363350432000,58,1543475363350432000,/map,1.33499836922,18.5310249329,0.285822272301,0.00183112580945,-0.00879081001892,0.715877627623,0.698168024838
1543475363450478000,59,1543475363450478000,/map,1.35194909573,18.5247192383,0.287412524223,0.00177265600645,-0.00882568124903,0.715969914566,0.698073095368
1543475363550592000,60,1543475363550592000,/map,1.33630955219,18.538602829,0.288221478462,0.0017545621367,-0.00885998692077,0.715911058773,0.698133066163
1543475363650588000,61,1543475363650588000,/map,1.34278869629,18.5295982361,0.276178479195,0.00185921959079,-0.00879310060815,0.71590078381,0.698144177391
1543475363750650000,62,1543475363750650000,/map,1.33833909035,18.5365772247,0.292797684669,0.00179922076196,-0.00881572054339,0.715912119952,0.698132424675
1543475363850700000,63,1543475363850700000,/map,1.34254705906,18.5236587524,0.278514504433,0.00189879707059,-0.00876263891171,0.715876091808,0.698169772982
1543475363950791000,64,1543475363950791000,/map,1.32870268822,18.540719986,0.286603927612,0.00177005027951,-0.00882157810032,0.715892653994,0.698152386402
1543475364050853000,65,1543475364050853000,/map,1.3467079401,18.5269012451,0.282059073448,0.00184386813853,-0.00875294540899,0.715967333465,0.698076473968
1543475364150914000,66,1543475364150914000,/map,1.33528888226,18.5318107605,0.286722064018,0.00179666335344,-0.0088808425234,0.715920992664,0.698122507086
1543475364250987000,67,1543475364250987000,/map,1.34853422642,18.5260753632,0.276900172234,0.00189951955667,-0.00878876598481,0.71604018652,0.698001146637
1543475364351050000,68,1543475364351050000,/map,1.33232152462,18.5389766693,0.293587803841,0.00180123152956,-0.00881495749402,0.715912086024,0.698132463916
1543475364451156000,69,1543475364451156000,/map,1.33979773521,18.5239849091,0.279184103012,0.0017985759425,-0.00878240223607,0.715861841462,0.698184401483
1543475364551177000,70,1543475364551177000,/map,1.3321596384,18.5429229736,0.27906024456,0.00183945740146,-0.00879801307336,0.715943879163,0.698099973679
1543475364651248000,71,1543475364651248000,/map,1.34156024456,18.5283145905,0.29194009304,0.00179491155275,-0.00886414199793,0.715917055434,0.698126761425
1543475364751320000,72,1543475364751320000,/map,1.33593964577,18.5400924683,0.287651658058,0.00173879539282,-0.00885484384035,0.715893769385,0.698150900083
1543475364851398000,73,1543475364851398000,/map,1.34140300751,18.5272922516,0.280653357506,0.00181950778262,-0.00877784340796,0.715980127374,0.698063103209
1543475364951462000,74,1543475364951462000,/map,1.32937276363,18.539686203,0.286548852921,0.00180406875725,-0.00881882293938,0.71585734777,0.69818853567
1543475365051543000,75,1543475365051543000,/map,1.33957207203,18.5261440277,0.285457968712,0.00181433874901,-0.00881922849447,0.715870969435,0.698174537279
1543475365151615000,76,1543475365151615000,/map,1.33629107475,18.5368270874,0.267181634903,0.00191087610905,-0.00867436773254,0.716042190239,0.698000491185
1543475365251688000,77,1543475365251688000,/map,1.33183276653,18.5301456451,0.293813109398,0.00179066473374,-0.00881481350664,0.715835254998,0.698211271954
1543475365351755000,78,1543475365351755000,/map,1.33590865135,18.5429992676,0.27626311779,0.00182722917432,-0.00873421493105,0.715913083924,0.698132387867
1543475365451875000,79,1543475365451875000,/map,1.34166026115,18.5204906464,0.29256606102,0.00182242006807,-0.00881302505637,0.715946465579,0.698097176473
1543475365551917000,80,1543475365551917000,/map,1.33309447765,18.5434818268,0.282299757004,0.00184386339882,-0.00883459488119,0.715955626507,0.69808745224
1543475365651971000,81,1543475365651971000,/map,1.34615695477,18.5226821899,0.279285311699,0.00185464446235,-0.00875286475911,0.715917476617,0.6981275774
1543475365752015000,82,1543475365752015000,/map,1.32893383503,18.5293617249,0.286242842674,0.00186277231558,-0.0088267162832,0.715838659829,0.698207442135
1543475365852104000,83,1543475365852104000,/map,1.34402275085,18.5399971008,0.282715797424,0.00181703017164,-0.00884728558053,0.716056428055,0.697983965275
1543475365952204000,84,1543475365952204000,/map,1.32930159569,18.5382328033,0.28241610527,0.00181796424369,-0.00880038735283,0.715805689178,0.698241694207
1543475366052269000,85,1543475366052269000,/map,1.33986282349,18.5166702271,0.289049863815,0.00182321532478,-0.00880569680911,0.715907197741,0.698137536459
1543475366152367000,86,1543475366152367000,/map,1.33436965942,18.543598175,0.280806303024,0.00182199640721,-0.00883534884747,0.715944603868,0.698098804706
1543475366252437000,87,1543475366252437000,/map,1.34382784367,18.5332298279,0.292294383049,0.00177237356745,-0.00882725643535,0.715928196786,0.69811586093
1543475366352521000,88,1543475366352521000,/map,1.33041965961,18.5405273438,0.274187922478,0.00188235351795,-0.00876267018329,0.716047518331,0.697993999866
1543475366452567000,89,1543475366452567000,/map,1.34376275539,18.5206184387,0.281683325768,0.00184728671852,-0.00876215838962,0.715811996576,0.698235631911
1543475366552711000,90,1543475366552711000,/map,1.32809555531,18.540184021,0.290918469429,0.00181705633243,-0.00882330791003,0.715982696502,0.698059901336
1543475366652754000,91,1543475366652754000,/map,1.34172213078,18.5280666351,0.269118905067,0.00188810429983,-0.00871202744452,0.715903843269,0.698141978993
1543475366752823000,92,1543475366752823000,/map,1.33036231995,18.5317401886,0.298948407173,0.00179034711601,-0.00887817528763,0.715940120612,0.69810294109
1543475366852962000,93,1543475366852962000,/map,1.34124517441,18.5252952576,0.282833337784,0.00180345834829,-0.00883301826202,0.715892141941,0.698152681319
1543475366953008000,94,1543475366953008000,/map,1.33514916897,18.5445804596,0.281292676926,0.00178932576494,-0.00883316830454,0.71597571493,0.69806700902
1543475367053107000,95,1543475367053107000,/map,1.34143710136,18.5238513947,0.284161090851,0.00182080304916,-0.00880514411702,0.715808408116,0.698238839499
1543475367153164000,96,1543475367153164000,/map,1.33816373348,18.5429267883,0.28246986866,0.00177666146533,-0.00884956566735,0.715947378369,0.69809589604
1543475367253254000,97,1543475367253254000,/map,1.33600223064,18.5160655975,0.28484082222,0.00182751048701,-0.00877422870233,0.715865916735,0.698180250632
1543475367353369000,98,1543475367353369000,/map,1.33382403851,18.5421581268,0.282515048981,0.00180191249639,-0.00886215531586,0.715940513894,0.698102711554
1543475367453416000,99,1543475367453416000,/map,1.34120070934,18.5312843323,0.285907387733,0.00182469819889,-0.00883035175209,0.715870513961,0.698174836703
1543475367553522000,100,1543475367553522000,/map,1.34354865551,18.522069931,0.288982629776,0.00184427894614,-0.00882236923052,0.716085520007,0.697954362744
1543475367653633000,101,1543475367653633000,/map,1.3344335556,18.540266037,0.281525850296,0.0017935672085,-0.00885142706119,0.715838397097,0.698207579877
1543475367753708000,102,1543475367753708000,/map,1.3294570446,18.5313453674,0.291735291481,0.00176274716709,-0.00884676697955,0.715975574554,0.698067048412
1543475367853802000,103,1543475367853802000,/map,1.3459841013,18.5382194519,0.281435251236,0.00171846380527,-0.00883678732787,0.715986886067,0.698055683346
1543475367953879000,104,1543475367953879000,/map,1.3286408186,18.5355014801,0.27572953701,0.00191862695881,-0.00876400549938,0.715821316242,0.698225861947
1543475368053972000,105,1543475368053972000,/map,1.3393586874,18.5186576843,0.28219974041,0.00189072971435,-0.00874109913568,0.715962566751,0.698081385898
1543475368154075000,106,1543475368154075000,/map,1.3338509798,18.5392856598,0.286330223083,0.00184687378255,-0.00884866452869,0.715967298699,0.698075294927
1543475368254175000,107,1543475368254175000,/map,1.34412384033,18.5236034393,0.276985645294,0.00186362471372,-0.008751839691,0.715938654135,0.698105848507
1543475368354311000,108,1543475368354311000,/map,1.33334386349,18.5463581085,0.2902084589,0.00180916012445,-0.00890209669034,0.715947232344,0.698095294436
1543475368454390000,109,1543475368454390000,/map,1.33840751648,18.5253372192,0.281149983406,0.00185106518249,-0.0087777716443,0.715920815081,0.698123850628
1543475368554502000,110,1543475368554502000,/map,1.33730852604,18.5363025665,0.291780233383,0.00173354105697,-0.00895692678493,0.715911642725,0.698131282861
1543475368654608000,111,1543475368654608000,/map,1.33138680458,18.5326385498,0.274101614952,0.00180353934633,-0.00871003697893,0.715961258906,0.698083346204
1543475368754672000,112,1543475368754672000,/map,1.34601330757,18.525428772,0.291870951653,0.00179190274437,-0.00883486861394,0.715812812371,0.698234023681
1543475368854722000,113,1543475368854722000,/map,1.32961606979,18.5364151001,0.271861672401,0.00185671470595,-0.00873624904207,0.715984153552,0.698059397491
1543475368954814000,114,1543475368954814000,/map,1.34341919422,18.5337505341,0.294019818306,0.00180564425714,-0.00884695528027,0.715953944047,0.698089121126
1543475369054917000,115,1543475369054917000,/map,1.33814644814,18.5149555206,0.286095380783,0.00177513049274,-0.00882678315224,0.715862728959,0.698182991843
1543475369155015000,116,1543475369155015000,/map,1.33564078808,18.547296524,0.279324293137,0.00183079350207,-0.00884045072168,0.715961798917,0.698081082051
1543475369255177000,117,1543475369255177000,/map,1.3423037529,18.5258045197,0.280738711357,0.00186526721558,-0.00875219041501,0.715947555416,0.698096710947
1543475369355222000,118,1543475369355222000,/map,1.33576977253,18.5373973846,0.293132901192,0.00175030396554,-0.00883036516777,0.715792910602,0.698254588398
1543475369455365000,119,1543475369455365000,/map,1.33120155334,18.53266716,0.27209842205,0.00181993723032,-0.00877000488918,0.715980813647,0.698062496723
1543475369555454000,120,1543475369555454000,/map,1.34146845341,18.5206356049,0.29075217247,0.00185223332205,-0.00881555540692,0.715806815526,0.698240258121
1543475369655566000,121,1543475369655566000,/map,1.33331501484,18.543094635,0.278715014458,0.00183202617136,-0.00876809962476,0.715967362834,0.698076284847
1543475369755661000,122,1543475369755661000,/map,1.33511424065,18.532497406,0.292217493057,0.00179449193008,-0.00891200241298,0.715936919323,0.698105782501
1543475369855776000,123,1543475369855776000,/map,1.34380543232,18.5379314423,0.276860117912,0.00191713785011,-0.00874528104451,0.715874521411,0.698171550721
1543475369955886000,124,1543475369955886000,/map,1.33038270473,18.5365695953,0.290853977203,0.00179404977629,-0.00886992938595,0.71592000637,0.698123663986
1543475370055959000,125,1543475370055959000,/map,1.34352469444,18.5251941681,0.280787229538,0.00187839358761,-0.00879585028138,0.716013091625,0.698028908626
1543475370156051000,126,1543475370156051000,/map,1.33277082443,18.5315532684,0.281252980232,0.00180968948658,-0.00875928584926,0.715711381236,0.698338899607
1543475370256190000,127,1543475370256190000,/map,1.33938968182,18.5488204956,0.286638498306,0.00182476759126,-0.00887076670674,0.71634895702,0.697683417817
1543475370356317000,128,1543475370356317000,/map,1.33690142632,18.5325279236,0.281436800957,0.00181811272362,-0.0087669903273,0.715711919678,0.698338229211
1543475370456388000,129,1543475370456388000,/map,1.34159612656,18.5290908813,0.282865285873,0.00182229777249,-0.00880715308272,0.715920978967,0.698123388206
1543475370556523000,130,1543475370556523000,/map,1.33549559116,18.5423221588,0.278571844101,0.00183039680773,-0.00875669110471,0.715657343603,0.698394255815
1543475370656612000,131,1543475370656612000,/map,1.33814382553,18.523015976,0.278492808342,0.00192290583881,-0.00868215303571,0.71618726452,0.697851506262
1543475370756713000,132,1543475370756713000,/map,1.33939135075,18.5305843353,0.2984790802,0.00173255697779,-0.00886204163677,0.715766682509,0.698281117226
1543475370856831000,133,1543475370856831000,/map,1.33478069305,18.5416202545,0.278563022614,0.00179868168809,-0.00884653167495,0.716131494779,0.697907003696
1543475370956936000,134,1543475370956936000,/map,1.343780756,18.5230922699,0.277538895607,0.00181338195474,-0.00876557439607,0.715915899706,0.698129143425
1543475371057065000,135,1543475371057065000,/map,1.33098530769,18.537815094,0.293768763542,0.001808531611,-0.00882553885466,0.715941933201,0.698101702735
1543475371157154000,136,1543475371157154000,/map,1.34287500381,18.5199794769,0.283296823502,0.00177074097493,-0.00882045164218,0.715855663096,0.69819032772
1543475371257277000,137,1543475371257277000,/map,1.3293197155,18.5415878296,0.278390884399,0.00189163444728,-0.00871722204673,0.715945258279,0.698099433395
1543475371357410000,138,1543475371357410000,/map,1.33578920364,18.5252723694,0.289083480835,0.00180311906886,-0.00882299544075,0.715865520999,0.698180105243
1543475371457499000,139,1543475371457499000,/map,1.33867275715,18.5434894562,0.274696230888,0.00189561786193,-0.00874521669554,0.716026158988,0.698016093985
1543475371557610000,140,1543475371557610000,/map,1.33839011192,18.5291881561,0.290806174278,0.00181566524382,-0.00882215348304,0.715883526524,0.698161621274
1543475371657756000,141,1543475371657756000,/map,1.3412412405,18.5389633179,0.276241540909,0.00183467657403,-0.00872692384547,0.715988478865,0.698055135999
1543475371757828000,142,1543475371757828000,/map,1.33061683178,18.5264606476,0.284023046494,0.00189203571478,-0.00875553357856,0.715925146491,0.698119578192
1543475371857917000,143,1543475371857917000,/map,1.34841454029,18.5313301086,0.285207271576,0.00182590388584,-0.00883957417963,0.715877759177,0.698167287919
1543475371958066000,144,1543475371958066000,/map,1.33212971687,18.534910202,0.287138223648,0.00181889202533,-0.00877786966487,0.716063963225,0.697977106506
1543475372058198000,145,1543475372058198000,/map,1.33121037483,18.5350322723,0.289084792137,0.00184870215413,-0.0087609043292,0.715988773007,0.698054371653
1543475372158291000,146,1543475372158291000,/map,1.3458493948,18.5207805634,0.279854893684,0.00189249384906,-0.00878368912267,0.715847547063,0.698198793064
1543475372258424000,147,1543475372258424000,/map,1.33224010468,18.5443229675,0.288426399231,0.0018271112412,-0.00884743996588,0.715997501526,0.698044384176
1543475372358533000,148,1543475372358533000,/map,1.33382236958,18.5269412994,0.284091234207,0.00183967361042,-0.00878413846951,0.715824952046,0.698222093994
1543475372458677000,149,1543475372458677000,/map,1.34421050549,18.5372238159,0.279032111168,0.00184888539884,-0.00881227752148,0.71611588267,0.697923325284
1543475372558770000,150,1543475372558770000,/map,1.32510507107,18.5417156219,0.289796590805,0.00187819654199,-0.00880733593984,0.715795166663,0.69825223422
1543475372658892000,151,1543475372658892000,/map,1.34597623348,18.5311908722,0.281053423882,0.00178828857872,-0.00879574227427,0.715865950092,0.698180047295
1543475372758996000,152,1543475372758996000,/map,1.33170187473,18.528011322,0.27615404129,0.00188662938876,-0.00869084587228,0.715975886746,0.698068363003
1543475372859121000,153,1543475372859121000,/map,1.34328556061,18.5366287231,0.296986579895,0.00180974238235,-0.00883801395165,0.715752029774,0.698296245311
1543475372959253000,154,1543475372959253000,/map,1.33011686802,18.5299930573,0.280230164528,0.0017760157973,-0.00884109995959,0.716093083984,0.697946542215
1543475373059367000,155,1543475373059367000,/map,1.33925974369,18.5381183624,0.277436614037,0.00188400234561,-0.00870682219447,0.7156966701,0.698354435935
1543475373159514000,156,1543475373159514000,/map,1.34231805801,18.5293655396,0.293091058731,0.00180251542306,-0.00883548974374,0.716152217996,0.697885868691
1543475373259636000,157,1543475373259636000,/map,1.3264824152,18.5414390564,0.276393771172,0.00189464689776,-0.00874949216627,0.715885967977,0.698159822357
1543475373359712000,158,1543475373359712000,/map,1.34049928188,18.5215873718,0.286444544792,0.00180619446348,-0.00879020764395,0.715937218707,0.698106989495
1543475373459881000,159,1543475373459881000,/map,1.33573746681,18.5340080261,0.280141592026,0.00178730118545,-0.0087790020588,0.715871112582,0.698174967217
1543475373559962000,160,1543475373559962000,/map,1.3295634985,18.5437145233,0.280848145485,0.00189800967372,-0.00879586755459,0.716258353146,0.697777186373
1543475373660103000,161,1543475373660103000,/map,1.33761465549,18.5212078094,0.286013960838,0.00181096443888,-0.00877612295821,0.71573936159,0.698310007335
1543475373760231000,162,1543475373760231000,/map,1.33065223694,18.5473632812,0.284177780151,0.0018793172215,-0.00880926168622,0.716011056997,0.698030824057
1543475373860378000,163,1543475373860378000,/map,1.34142506123,18.5297088623,0.275569319725,0.00191495870642,-0.00873530518175,0.715958852064,0.698085202198
1543475373960482000,164,1543475373960482000,/map,1.34225618839,18.5302467346,0.292472362518,0.00168820855159,-0.00884864790974,0.71590176389,0.698142905029
1543475374060614000,165,1543475374060614000,/map,1.33707475662,18.5332832336,0.274839282036,0.00188852187593,-0.008770365661,0.71588697813,0.698158541246
1543475374160709000,166,1543475374160709000,/map,1.33111989498,18.5271434784,0.287731528282,0.00178310301697,-0.00872656174649,0.715995212189,0.698048367798
1543475374260870000,167,1543475374260870000,/map,1.34061205387,18.5436401367,0.287927865982,0.00179618313171,-0.00887476069681,0.715767146544,0.698280319268
1543475374360987000,168,1543475374360987000,/map,1.33070397377,18.5269889832,0.278904795647,0.00181284881248,-0.00875110111953,0.715988077586,0.698055301938
1543475374461079000,169,1543475374461079000,/map,1.34483671188,18.5337524414,0.288966178894,0.00174823599299,-0.00881818275071,0.715933619626,0.698110475221
1543475374561242000,170,1543475374561242000,/map,1.34137380123,18.5235462189,0.27848982811,0.00185650314119,-0.00880878841852,0.715903584787,0.698141114627
1543475374661338000,171,1543475374661338000,/map,1.33305931091,18.5409088135,0.285533428192,0.00182207499841,-0.00877946570667,0.715982246049,0.69806090305
1543475374761492000,172,1543475374761492000,/map,1.34774053097,18.5303039551,0.281146764755,0.00178721352513,-0.00878016447311,0.715876584997,0.698169341659
1543475374861621000,173,1543475374861621000,/map,1.33128929138,18.5259819031,0.28515291214,0.0018950576797,-0.00876708530282,0.715996246716,0.698046503938
1543475374961710000,174,1543475374961710000,/map,1.33671295643,18.5360584259,0.275246620178,0.00184647162113,-0.0087021881623,0.715823696449,0.698224389481
1543475375061856000,175,1543475375061856000,/map,1.33327138424,18.5280647278,0.294099450111,0.00175780487387,-0.00883866870067,0.715865003531,0.698180553136
1543475375161976000,176,1543475375161976000,/map,1.34028494358,18.5385227203,0.278891444206,0.00180420614154,-0.00878627774809,0.716046042476,0.697995423493
1543475375262111000,177,1543475375262111000,/map,1.34214890003,18.5195922852,0.289158582687,0.00176841903104,-0.0088462740523,0.715839100272,0.6982069884
1543475375362321000,178,1543475375362321000,/map,1.32880616188,18.5405673981,0.281279444695,0.00191157692171,-0.00875749434291,0.716000723213,0.698041987652
1543475375462386000,179,1543475375462386000,/map,1.33566939831,18.5241127014,0.290644645691,0.00174937593049,-0.00879094476548,0.715844419094,0.698202282026
1543475375562516000,180,1543475375562516000,/map,1.33952498436,18.5398578644,0.276170492172,0.00184899531311,-0.00875967066006,0.715958862859,0.698085063642
1543475375662672000,181,1543475375662672000,/map,1.33726537228,18.5233764648,0.289500117302,0.00176612477566,-0.00884003714639,0.715888374292,0.698156551284
1543475375762800000,182,1543475375762800000,/map,1.33258712292,18.5359706879,0.272282958031,0.001900463105,-0.00877763799473,0.715980085583,0.698062932951
1543475375862957000,183,1543475375862957000,/map,1.3422062397,18.5280399323,0.295169472694,0.00178996845731,-0.00885426928348,0.715803949268,0.698242869022
1543475375963085000,184,1543475375963085000,/map,1.33296227455,18.5316314697,0.271067500114,0.0018554764288,-0.00875144041993,0.716001189305,0.69804173687
1543475376063198000,185,1543475376063198000,/map,1.34094119072,18.5368270874,0.297464966774,0.00181041896684,-0.00884583519884,0.715915530275,0.698128517605
1543475376163367000,186,1543475376163367000,/map,1.33898794651,18.5225315094,0.276547908783,0.00182131378537,-0.00874955475602,0.715943960105,0.698100547269
1543475376263474000,187,1543475376263474000,/map,1.34082305431,18.5378990173,0.292694807053,0.00177133066416,-0.00884251753223,0.715879838222,0.698165259447
1543475376363577000,188,1543475376363577000,/map,1.33431649208,18.5310268402,0.279387593269,0.00189535429185,-0.00882951617764,0.716107790037,0.697931286249
1543475376463731000,189,1543475376463731000,/map,1.34248828888,18.5284919739,0.291331529617,0.00161872477621,-0.00883064796356,0.715167539232,0.698895407207
1543475376563868000,190,1543475376563868000,/map,1.32456338406,18.5421981812,0.278574585915,0.00191703428067,-0.00885473952516,0.716560169291,0.697466445324
1543475376663993000,191,1543475376663993000,/map,1.34805989265,18.529006958,0.285536766052,0.00179837404975,-0.0088567053266,0.715868258124,0.6981768842
1543475376764149000,192,1543475376764149000,/map,1.33457350731,18.5346794128,0.290006279945,0.00183864329201,-0.00889761923171,0.715939702156,0.698102997157
1543475376864287000,193,1543475376864287000,/map,1.33240950108,18.5334320068,0.267562150955,0.0018523074128,-0.00863233881952,0.715903260304,0.698143662558
1543475376964394000,194,1543475376964394000,/map,1.33510422707,18.5254573822,0.296337723732,0.00179348747452,-0.00884060959251,0.715881975221,0.698163035815
1543475377064535000,195,1543475377064535000,/map,1.33022069931,18.5347137451,0.277437567711,0.00187384137004,-0.00875321134685,0.716020346315,0.698022015178
1543475377164715000,196,1543475377164715000,/map,1.35055613518,18.5235042572,0.280651092529,0.00178027200017,-0.00881888299522,0.715881241227,0.698164097038
1543475377264860000,197,1543475377264860000,/map,1.32961642742,18.5344772339,0.28946018219,0.00184785300971,-0.00883861583487,0.715898182972,0.698146299802
1543475377365014000,198,1543475377365014000,/map,1.33652365208,18.5372638702,0.279443383217,0.00183084923603,-0.00872645295099,0.716104323065,0.69793631192
1543475377465127000,199,1543475377465127000,/map,1.35036146641,18.522644043,0.282136201859,0.00179752819671,-0.0088049848111,0.715778163919,0.69826990569
1543475377565285000,200,1543475377565285000,/map,1.33183825016,18.5349197388,0.287309169769,0.00185791741955,-0.00885102782894,0.715958243993,0.698084522323
1543475377665405000,201,1543475377665405000,/map,1.34222614765,18.5268535614,0.274608492851,0.00181824292199,-0.00873822330613,0.716039951419,0.698002238834
1543475377765557000,202,1543475377765557000,/map,1.33555150032,18.5362014771,0.294499993324,0.00182041272696,-0.0088044168001,0.715838626242,0.698207869851
1543475377865710000,203,1543475377865710000,/map,1.33514904976,18.5248851776,0.278170347214,0.00177946393352,-0.00870203455552,0.715951033386,0.698093995029
1543475377965843000,204,1543475377965843000,/map,1.33720993996,18.5397186279,0.285281181335,0.00183417908561,-0.00880962592777,0.715891731594,0.698153317627
1543475378065967000,205,1543475378065967000,/map,1.33472466469,18.5260620117,0.28570830822,0.00189505879578,-0.00885181854733,0.716059966412,0.697980070319
1543475378166117000,206,1543475378166117000,/map,1.34188878536,18.5390663147,0.285547494888,0.00181666133134,-0.00878003364191,0.71577441018,0.698274018192
1543475378266268000,207,1543475378266268000,/map,1.32951307297,18.5289154053,0.275708556175,0.00182889987763,-0.0088103320541,0.716038959669,0.698002321923
1543475378366397000,208,1543475378366397000,/map,1.33751738071,18.5383415222,0.296417117119,0.00181790160594,-0.00887522173329,0.715851225832,0.698194061954
1543475378466568000,209,1543475378466568000,/map,1.33377826214,18.5226173401,0.274465084076,0.00181866929949,-0.00877224886541,0.715901659292,0.698143648767
1543475378566688000,210,1543475378566688000,/map,1.33852219582,18.534828186,0.29194009304,0.00179824473129,-0.00879034807791,0.715881040751,0.698164616397
1543475378666809000,211,1543475378666809000,/map,1.33776807785,18.5269680023,0.290498614311,0.00180467272017,-0.00903801782388,0.716438505638,0.697589367056
1543475378766960000,212,1543475378766960000,/map,1.33347928524,18.5447044373,0.276828765869,0.0017484191482,-0.00879310586477,0.715616394619,0.698435967052
1543475378867125000,213,1543475378867125000,/map,1.33754754066,18.5358161926,0.292506933212,0.00184585815375,-0.00878392862526,0.716212007612,0.697825046526
1543475378967243000,214,1543475378967243000,/map,1.33751296997,18.5258560181,0.274245738983,0.00180249843346,-0.00873795959167,0.71555186843,0.698502628948
1543475379067373000,215,1543475379067373000,/map,1.34006655216,18.5363292694,0.284245371819,0.00181539591141,-0.00878390175596,0.716191484482,0.697846190047
1543475379167541000,216,1543475379167541000,/map,1.3378688097,18.5248184204,0.282761573792,0.00186600715832,-0.00871227100693,0.715722949526,0.698327483258
1543475379267703000,217,1543475379267703000,/map,1.32821309566,18.5396461487,0.280696630478,0.00182480747292,-0.00877621520232,0.715999909256,0.698042819653
1543475379367846000,218,1543475379367846000,/map,1.3416107893,18.5293045044,0.292954683304,0.00173920730016,-0.00893146171398,0.715874388091,0.698169796414
1543475379467978000,219,1543475379467978000,/map,1.32592117786,18.5412483215,0.278828263283,0.00182585372157,-0.00878489188172,0.715947878228,0.698096073327
1543475379568094000,220,1543475379568094000,/map,1.33543121815,18.5279788971,0.286441802979,0.00183845926366,-0.008780940633,0.716010546984,0.698031812854
1543475379668259000,221,1543475379668259000,/map,1.34324383736,18.5375709534,0.275478005409,0.00181498617713,-0.0088113136364,0.715816608987,0.698230369488
1543475379768449000,222,1543475379768449000,/map,1.32717466354,18.5259380341,0.294008016586,0.00176587318316,-0.00884058136634,0.715894054063,0.698150720955
1543475379868556000,223,1543475379868556000,/map,1.33928024769,18.5278129578,0.282161831856,0.00182711248238,-0.00883449008901,0.716055724146,0.697984823161
1543475379968707000,224,1543475379968707000,/map,1.33950674534,18.5431404114,0.27555847168,0.00183858088985,-0.00876369194673,0.715773155234,0.698275452504
1543475380068863000,225,1543475380068863000,/map,1.33378267288,18.5236110687,0.29529941082,0.00174417790075,-0.00886604312873,0.715898312136,0.698146086291
1543475380169015000,226,1543475380169015000,/map,1.33611953259,18.5429439545,0.277248263359,0.00185988185394,-0.0087862555039,0.716006806493,0.698035526037
1543475380269180000,227,1543475380269180000,/map,1.33875358105,18.5237884521,0.291819214821,0.00178148434418,-0.00885966988664,0.715852771442,0.69819276864
1543475380369333000,228,1543475380369333000,/map,1.33602797985,18.5342063904,0.273700118065,0.0017955176884,-0.0087847255756,0.716020034912,0.698022144575
1543475380469465000,229,1543475380469465000,/map,1.33396422863,18.5307674408,0.293463230133,0.00177478082779,-0.00883162980208,0.715932889133,0.698110987398
1543475380569623000,230,1543475380569623000,/map,1.33521330357,18.5396003723,0.279140353203,0.00184905271535,-0.00887293506074,0.715844312348,0.698201097468
1543475380669759000,231,1543475380669759000,/map,1.34182727337,18.5249824524,0.292645812035,0.00179123288372,-0.00887760003733,0.715940664533,0.698102388315
1543475380769900000,232,1543475380769900000,/map,1.33393454552,18.5377407074,0.278882026672,0.00182340397413,-0.00880681746775,0.715884318591,0.698160982553
1543475380870054000,233,1543475380870054000,/map,1.33609211445,18.524023056,0.284562110901,0.00182928759953,-0.00880497909223,0.715917180503,0.698127292627
1543475380970180000,234,1543475380970180000,/map,1.33726167679,18.5383987427,0.289539337158,0.00168327079021,-0.00884696257642,0.715916425452,0.698127903482
1543475381070331000,235,1543475381070331000,/map,1.33666801453,18.5394535065,0.270892739296,0.00195995333963,-0.00874503312777,0.715998876858,0.698043903574
1543475381170497000,236,1543475381170497000,/map,1.33623623848,18.5290489197,0.296594262123,0.00177578560864,-0.00891012961924,0.715923159086,0.698119965664
1543475381270636000,237,1543475381270636000,/map,1.33573698997,18.5338973999,0.276170492172,0.0018472066682,-0.00878750299431,0.715920686819,0.698123869957
1543475381370793000,238,1543475381370793000,/map,1.34822201729,18.5232772827,0.285764694214,0.00181904546505,-0.0087683939694,0.715960328032,0.69808353012
1543475381470957000,239,1543475381470957000,/map,1.33076047897,18.5354537964,0.28266274929,0.0017902529097,-0.00879554927304,0.715910808919,0.69813404657
1543475381571129000,240,1543475381571129000,/map,1.34105467796,18.5308322906,0.291612505913,0.00182177613858,-0.00881861952253,0.715937220939,0.698106588391
1543475381671243000,241,1543475381671243000,/map,1.33332705498,18.52227211,0.280727982521,0.00171034109729,-0.00889660846518,0.715941935085,0.69810104618
1543475381771436000,242,1543475381771436000,/map,1.3410589695,18.5387210846,0.277161359787,0.00183854846434,-0.00878758145661,0.715955459971,0.698088230448
1543475381871543000,243,1543475381871543000,/map,1.32879126072,18.5320663452,0.291358351707,0.00173643574274,-0.00888165054978,0.715922916575,0.698120676243
1543475381971704000,244,1543475381971704000,/map,1.34187018871,18.5417747498,0.281780838966,0.00177958658123,-0.00886777592764,0.715947994787,0.698095025324
1543475382071855000,245,1543475382071855000,/map,1.33445870876,18.5245723724,0.278378844261,0.00189964822558,-0.00870742781413,0.715951008467,0.698093636636
1543475382172006000,246,1543475382172006000,/map,1.34030580521,18.5445632935,0.291908860207,0.00181400673834,-0.00883884263571,0.71594340532,0.698100010471
1543475382272179000,247,1543475382272179000,/map,1.33752262592,18.5280857086,0.277719259262,0.0018324620647,-0.00880162109734,0.715922603084,0.698121765842
1543475382372364000,248,1543475382372364000,/map,1.33427464962,18.5441989899,0.286012530327,0.00181748248649,-0.00877008778668,0.715910613066,0.698134497369
1543475382472505000,249,1543475382472505000,/map,1.33305096626,18.5228481293,0.2869348526,0.00175316522968,-0.00884834309382,0.715858860852,0.698186740476
1543475382572650000,250,1543475382572650000,/map,1.34207117558,18.53565979,0.283920288086,0.00181399678393,-0.00887480782561,0.715954556101,0.69808811822
1543475382672799000,251,1543475382672799000,/map,1.32765340805,18.5308132172,0.288109779358,0.00180574625095,-0.00882327404768,0.715916340877,0.698127983955
1543475382772980000,252,1543475382772980000,/map,1.34921598434,18.5313930511,0.286592721939,0.00174833214989,-0.00885617577254,0.715940546445,0.698102890297
1543475382873116000,253,1543475382873116000,/map,1.33340084553,18.5158939362,0.285150289536,0.00172577629926,-0.00885418983321,0.715921446055,0.69812255951
1543475382973286000,254,1543475382973286000,/map,1.33486068249,18.5380992889,0.28167617321,0.00175757054734,-0.0088086009997,0.715957204789,0.69808638463
1543475383073434000,255,1543475383073434000,/map,1.34599411488,18.5249462128,0.284779548645,0.00186351555953,-0.00889626219788,0.71588466364,0.698159388818
1543475383173590000,256,1543475383173590000,/map,1.33377408981,18.5390090942,0.28346323967,0.00177348387339,-0.00877344605702,0.715913412054,0.698131698063
1543475383273766000,257,1543475383273766000,/map,1.34069299698,18.5273780823,0.288506746292,0.00181224710102,-0.00886842276138,0.715991600804,0.698050209095
1543475383373920000,258,1543475383373920000,/map,1.33267331123,18.5377864838,0.278170824051,0.00185992940947,-0.00878133798168,0.715866295169,0.698179687621
1543475383474041000,259,1543475383474041000,/map,1.34292793274,18.5257835388,0.293199300766,0.00168613167799,-0.00884401807191,0.715953350922,0.698090065541
1543475383574227000,260,1543475383574227000,/map,1.33507990837,18.5365867615,0.277006149292,0.00184258257628,-0.00880587694831,0.715883889845,0.698161383693
1543475383674386000,261,1543475383674386000,/map,1.33098721504,18.5412731171,0.273655414581,0.00183397350678,-0.00876973232199,0.716116127984,0.697923648816
1543475383774522000,262,1543475383774522000,/map,1.33593761921,18.5192718506,0.291765570641,0.00180292197746,-0.00886819931203,0.715850359218,0.698195078557
1543475383874688000,263,1543475383874688000,/map,1.34394884109,18.5368270874,0.287854671478,0.00173729143971,-0.00888498232521,0.715951188139,0.698091638046
1543475383974849000,264,1543475383974849000,/map,1.33118844032,18.5265865326,0.28062582016,0.00180323460598,-0.00880901817078,0.715897173715,0.698147825472
1543475384075064000,265,1543475384075064000,/map,1.34732675552,18.5329399109,0.289746165276,0.00178761476331,-0.0089039785969,0.715885099132,0.698159042367
1543475384175162000,266,1543475384175162000,/map,1.33248949051,18.5361289978,0.28066110611,0.00177422778091,-0.00883114573434,0.715947989216,0.698095509024
1543475384275334000,267,1543475384275334000,/map,1.3434432745,18.5299072266,0.283395171165,0.00190155218873,-0.00875944742913,0.715927659842,0.698116925775
1543475384375485000,268,1543475384375485000,/map,1.3297328949,18.5336265564,0.288019418716,0.00166524527865,-0.00879918535662,0.715890096689,0.698155549114
1543475384475672000,269,1543475384475672000,/map,1.34867453575,18.5255374908,0.280029654503,0.00185082889024,-0.00885431832048,0.715969047614,0.698073419017
1543475384575796000,270,1543475384575796000,/map,1.33290719986,18.5435447693,0.287169337273,0.00182542575364,-0.00877486771468,0.715903584106,0.698141624444
1543475384675977000,271,1543475384675977000,/map,1.33314740658,18.5280685425,0.287514090538,0.00168348764409,-0.00882060802871,0.715890141482,0.698155189104
1543475384776107000,272,1543475384776107000,/map,1.34034180641,18.5363636017,0.276135206223,0.00189616204439,-0.00888285991497,0.716183106562,0.697853320723
1543475384876261000,273,1543475384876261000,/map,1.33737909794,18.526134491,0.287917375565,0.00176872031062,-0.00880926820842,0.715628268875,0.698423545715
1543475384976428000,274,1543475384976428000,/map,1.33782315254,18.5393218994,0.2864164114,0.00188716701387,-0.00889531751271,0.71631980861,0.697712866242
1543475385076592000,275,1543475385076592000,/map,1.33876752853,18.5216388702,0.273779034615,0.00182973752157,-0.00876298381384,0.715741611317,0.698307817517
1543475385176802000,276,1543475385176802000,/map,1.3402453661,18.533744812,0.285261273384,0.00185139381776,-0.00880203684208,0.716102675844,0.697936998688
1543475385276946000,277,1543475385276946000,/map,1.32665395737,18.5487804413,0.279322624207,0.00174142276189,-0.00881212924473,0.715758898356,0.698289705817
1543475385377093000,278,1543475385377093000,/map,1.34351491928,18.5283870697,0.278540730476,0.00186458677655,-0.00876320085148,0.715947135656,0.698097005131
1543475385477255000,279,1543475385477255000,/map,1.32575595379,18.528924942,0.27812743187,0.00184623171723,-0.00871102525911,0.715994789203,0.698048831603
1543475385577426000,280,1543475385577426000,/map,1.34816336632,18.5327262878,0.284636974335,0.00183662175948,-0.00877940449633,0.715901489891,0.698143685532
1543475385677551000,281,1543475385677551000,/map,1.32597100735,18.5438766479,0.278033733368,0.0018001580567,-0.00876947449128,0.715914227565,0.698130843408
1543475385777728000,282,1543475385777728000,/map,1.34146142006,18.5295524597,0.284524321556,0.00187434861828,-0.0087692063239,0.715968647335,0.698074841167
1543475385877895000,283,1543475385877895000,/map,1.34679913521,18.5215206146,0.288157582283,0.00178064361769,-0.00883516874389,0.715869759715,0.698175662872
1543475385978099000,284,1543475385978099000,/map,1.33036839962,18.5370559692,0.281110644341,0.00176512028924,-0.00876684110979,0.715980972832,0.698062513956
1543475386078222000,285,1543475386078222000,/map,1.34601926804,18.5321350098,0.286894798279,0.00180099212642,-0.00888302769076,0.71595198534,0.69809068389
1543475386178416000,286,1543475386178416000,/map,1.33294355869,18.5390033722,0.280512690544,0.00177669920998,-0.00886531612601,0.715974718272,0.698067655965
1543475386278561000,287,1543475386278561000,/map,1.34539425373,18.5236949921,0.282726168633,0.00185537308336,-0.00873127725427,0.715870034107,0.698176493916
1543475386378741000,288,1543475386378741000,/map,1.34013140202,18.5400314331,0.280686736107,0.00182483776238,-0.00886144966554,0.715998920151,0.6980427573
1543475386478909000,289,1543475386478909000,/map,1.32793688774,18.5291919708,0.287919402122,0.00174482770139,-0.00874301512831,0.715837261687,0.698210233413
1543475386579031000,290,1543475386579031000,/map,1.34290492535,18.5261516571,0.271962761879,0.00191304315346,-0.00881481032862,0.715967232669,0.698075612759
1543475386679210000,291,1543475386679210000,/map,1.33350288868,18.5445652008,0.289556026459,0.00179817192864,-0.0087775984068,0.715916570693,0.698128343609
1543475386779388000,292,1543475386779388000,/map,1.33778142929,18.5233478546,0.280586957932,0.00181854619799,-0.0088367866227,0.715916874772,0.698127232321
1543475386879575000,293,1543475386879575000,/map,1.32801783085,18.5359840393,0.296181321144,0.00173255649904,-0.00887009123097,0.715935952264,0.698107464496
1543475386979747000,294,1543475386979747000,/map,1.34031641483,18.525680542,0.279351592064,0.00178876766689,-0.00879907546075,0.716004215832,0.698038207759
1543475387079914000,295,1543475387079914000,/map,1.33068645,18.5356330872,0.282002091408,0.00190504667092,-0.0087996458053,0.71573888876,0.698309945617
1543475387180041000,296,1543475387180041000,/map,1.33041930199,18.5265445709,0.295427322388,0.00164732765313,-0.00889188493839,0.716047876878,0.697992592161
1543475387280185000,297,1543475387280185000,/map,1.34088802338,18.5400333405,0.275979876518,0.00186599392244,-0.00878984840434,0.715864056554,0.698181859666
1543475387380389000,298,1543475387380389000,/map,1.33688306808,18.5242061615,0.28996527195,0.00168174508791,-0.00889060797271,0.715837617539,0.698208159606
1543475387480504000,299,1543475387480504000,/map,1.32950556278,18.534614563,0.27546942234,0.00188832353297,-0.00869632197368,0.715967319065,0.698077077585
1543475387580729000,300,1543475387580729000,/map,1.34793829918,18.5368289948,0.291601777077,0.0018291468589,-0.00887709856881,0.715953280458,0.698089357851
1543475387680908000,301,1543475387680908000,/map,1.33400034904,18.5316982269,0.277067542076,0.00180799024075,-0.00878287592975,0.715906304301,0.698138779702
1543475387781033000,302,1543475387781033000,/map,1.33654618263,18.5212020874,0.291608333588,0.00186337772971,-0.00885204429571,0.716010228479,0.698031175414
1543475387881170000,303,1543475387881170000,/map,1.3416185379,18.5435199738,0.282631158829,0.00183046830654,-0.008808372995,0.715918575165,0.698125816515
1543475387981348000,304,1543475387981348000,/map,1.33737921715,18.5237541199,0.27977514267,0.00180788614227,-0.00880351794928,0.715973918242,0.698069178532
1543475388081549000,305,1543475388081549000,/map,1.33765375614,18.5359115601,0.288968920708,0.00180473724186,-0.00885536846537,0.715892442971,0.698152086203
1543475388181707000,306,1543475388181707000,/map,1.33220994473,18.5296211243,0.27282166481,0.00186712648,-0.00874676493837,0.716023338229,0.698019044907
1543475388281877000,307,1543475388281877000,/map,1.34634256363,18.5395851135,0.290551185608,0.00182987603181,-0.00883873412946,0.71595880352,0.698084178301
1543475388382042000,308,1543475388382042000,/map,1.33169054985,18.5298023224,0.281207084656,0.00185421832823,-0.00874992735166,0.71588998519,0.698155806214
1543475388482259000,309,1543475388482259000,/map,1.33700418472,18.5280818939,0.294272780418,0.00177115188067,-0.00870011947733,0.715905914826,0.698140309722
1543475388582391000,310,1543475388582391000,/map,1.34225058556,18.5359668732,0.275796055794,0.00184548589296,-0.00879758337054,0.71598872772,0.698053965311
1543475388682521000,311,1543475388682521000,/map,1.33199572563,18.5303134918,0.29208278656,0.00180068163273,-0.00887772702208,0.715956415007,0.698086209088
1543475388782726000,312,1543475388782726000,/map,1.33679747581,18.5379085541,0.278229117393,0.00179234845958,-0.00879200210627,0.715988118975,0.698054798474
1543475388882894000,313,1543475388882894000,/map,1.34407234192,18.5217971802,0.286299943924,0.00185903721651,-0.00877371890785,0.715872152263,0.698173780267
1543475388983042000,314,1543475388983042000,/map,1.32930350304,18.5338172913,0.289535880089,0.00176995227928,-0.00886389092731,0.715962535934,0.698080185828
1543475389083190000,315,1543475389083190000,/map,1.34228920937,18.5219917297,0.288725852966,0.00174371691069,-0.00890193511356,0.715896161475,0.698147836055
1543475389183402000,316,1543475389183402000,/map,1.33777225018,18.5374641418,0.281238079071,0.00181403836287,-0.00880444616602,0.715949348036,0.698094350385
1543475389283532000,317,1543475389283532000,/map,1.34014999866,18.539358139,0.278751850128,0.00179041287537,-0.00880087336656,0.715948377272,0.69809545202
1543475389383729000,318,1543475389383729000,/map,1.33075809479,18.5255069733,0.283748865128,0.00186051599285,-0.0087167025732,0.715904661492,0.698141155663
1543475389483904000,319,1543475389483904000,/map,1.3445712328,18.5309009552,0.283440113068,0.00180877246691,-0.00884966593726,0.715928662135,0.698115006634
1543475389584040000,320,1543475389584040000,/map,1.32879173756,18.5329475403,0.286185264587,0.00182878702365,-0.00871031826947,0.715895778348,0.698150428229
1543475389684225000,321,1543475389684225000,/map,1.34497261047,18.5314083099,0.289301633835,0.00169283049907,-0.0089179362473,0.715920834558,0.698122455866
1543475389784403000,322,1543475389784403000,/map,1.32652616501,18.528263092,0.275187373161,0.00186337226336,-0.00880641837314,0.715920832056,0.698123439706
1543475389884570000,323,1543475389884570000,/map,1.33696520329,18.5425071716,0.29135620594,0.00180153494254,-0.00884919742174,0.715928839996,0.698114848889
1543475389984767000,324,1543475389984767000,/map,1.32979416847,18.5279712677,0.276072859764,0.00180172568473,-0.00874480610573,0.715882668377,0.698163510411
1543475390084885000,325,1543475390084885000,/map,1.34441685677,18.5360012054,0.287554860115,0.00189489895029,-0.00877443453657,0.715926834624,0.698117601928
1543475390185095000,326,1543475390185095000,/map,1.33651804924,18.5256347656,0.287110805511,0.00178516362636,-0.00889028268185,0.715976434342,0.698065556758
1543475390285264000,327,1543475390285264000,/map,1.33239269257,18.5432624817,0.279760718346,0.00183479548288,-0.0087180547351,0.715862689397,0.698184244291
1543475390385424000,328,1543475390385424000,/map,1.34154212475,18.5260162354,0.285766243935,0.00181421536659,-0.0088227322923,0.715978849348,0.698063861909
1543475390485565000,329,1543475390485565000,/map,1.3368793726,18.540725708,0.28339779377,0.00183496933941,-0.00891483962297,0.715996702148,0.698044325982
1543475390585779000,330,1543475390585779000,/map,1.33815729618,18.523607254,0.274794101715,0.00191722266851,-0.00874180991196,0.71589407535,0.698151543647
1543475390685960000,331,1543475390685960000,/map,1.32594788074,18.5339450836,0.292325735092,0.00181052718496,-0.0087865737994,0.715940600303,0.698103556036
1543475390786103000,332,1543475390786103000,/map,1.34370005131,18.5259361267,0.283828496933,0.00171533368772,-0.0088509733702,0.715904071144,0.698140443479
1543475390886319000,333,1543475390886319000,/map,1.33307278156,18.5345859528,0.280950427055,0.00190871864859,-0.00878266035854,0.715905606285,0.698139230068
1543475390986459000,334,1543475390986459000,/map,1.33262014389,18.5401306152,0.290694594383,0.00179083709155,-0.00886496007766,0.716218444214,0.697817558932
1543475391086673000,335,1543475391086673000,/map,1.34486472607,18.5286903381,0.279906630516,0.00185384883645,-0.00876342542789,0.715814967147,0.698232553257
1543475391186789000,336,1543475391186789000,/map,1.32432758808,18.5319824219,0.288098454475,0.00180343680765,-0.00888436590797,0.715899822359,0.698144154172
1543475391286983000,337,1543475391286983000,/map,1.34007942677,18.532743454,0.2757614851,0.00183261531292,-0.00878857263613,0.715993635054,0.698049079273
1543475391387133000,338,1543475391387133000,/map,1.3399283886,18.5183925629,0.285175204277,0.00185058109051,-0.00873830482016,0.715884598272,0.698161485141
1543475391487294000,339,1543475391487294000,/map,1.34334719181,18.537443161,0.279245495796,0.00190957977147,-0.00877436454341,0.715865092801,0.698180874087
1543475391587482000,340,1543475391587482000,/map,1.33461022377,18.5275745392,0.287868738174,0.00180803643972,-0.00880803338129,0.715979463695,0.69806343345
1543475391687723000,341,1543475391687723000,/map,1.34287512302,18.5412902832,0.281178116798,0.00177304141969,-0.00881209937364,0.715966980033,0.698076275726
1543475391787837000,342,1543475391787837000,/map,1.34009706974,18.5254669189,0.282783150673,0.00183164674277,-0.00884402287038,0.715936069341,0.698107422211
1543475391887998000,343,1543475391887998000,/map,1.32642591,18.5372028351,0.289831757545,0.0017158609099,-0.00880300751861,0.715858936258,0.698187328916
1543475391988193000,344,1543475391988193000,/map,1.34217083454,18.5285949707,0.280086874962,0.00187456050752,-0.00872866044869,0.715960213051,0.698083999127
1543475392088334000,345,1543475392088334000,/map,1.34704995155,18.5255832672,0.282356381416,0.00194156544854,-0.00865190867492,0.715972632623,0.698072033629
1543475392188537000,346,1543475392188537000,/map,1.33068335056,18.5408191681,0.285248875618,0.00173184939006,-0.00881996180284,0.715953408083,0.698090199348
1543475392288726000,347,1543475392288726000,/map,1.33936357498,18.5226097107,0.283796906471,0.00183037412096,-0.00884320578023,0.715870296938,0.698174881677
1543475392388857000,348,1543475392388857000,/map,1.33500993252,18.5376033783,0.286467909813,0.00180035633102,-0.00877447308089,0.715954701664,0.698089272589
1543475392489065000,349,1543475392489065000,/map,1.32890057564,18.5247554779,0.281693220139,0.00181341584574,-0.00885458295655,0.715888679406,0.698155932856
1543475392589217000,350,1543475392589217000,/map,1.34367728233,18.5351333618,0.288232207298,0.00184383949543,-0.00881776113595,0.715968450948,0.698074512206
1543475392689393000,351,1543475392689393000,/map,1.32846641541,18.5217285156,0.285716414452,0.00176568274627,-0.00890121496743,0.71592570985,0.698117489189
1543475392789560000,352,1543475392789560000,/map,1.34526968002,18.5419445038,0.283166050911,0.00184601652463,-0.00883184787505,0.715934180242,0.698109475833
1543475392889742000,353,1543475392889742000,/map,1.32759416103,18.5301017761,0.28446161747,0.00177846835489,-0.00884106857961,0.715953806598,0.698089406433
1543475392989943000,354,1543475392989943000,/map,1.34741663933,18.5300674438,0.279762387276,0.00189894868883,-0.00876739736475,0.715908159981,0.698136829862
1543475393090075000,355,1543475393090075000,/map,1.32973122597,18.5306930542,0.291759848595,0.00182120305731,-0.00889283538954,0.71596084781,0.698081417244
1543475393190282000,356,1543475393190282000,/map,1.34260118008,18.5365962982,0.280627846718,0.00173970961909,-0.00890392847048,0.715881389395,0.698162967928
1543475393290470000,357,1543475393290470000,/map,1.3309481144,18.5243854523,0.284078598022,0.00182630848455,-0.00869014931774,0.716101083359,0.697940100807
1543475393390622000,358,1543475393390622000,/map,1.34617304802,18.5388355255,0.283984184265,0.00189641247842,-0.00881949432034,0.715854291527,0.698191416047
1543475393490816000,359,1543475393490816000,/map,1.33044993877,18.5268096924,0.286482691765,0.00182744126669,-0.00889493887222,0.715992434415,0.698048977065
1543475393590992000,360,1543475393590992000,/map,1.33950567245,18.5422992706,0.28437435627,0.00185347387776,-0.00881948715475,0.715863654863,0.69818193111
1543475393691202000,361,1543475393691202000,/map,1.32990586758,18.5248241425,0.290105581284,0.00173289168283,-0.00887380339269,0.715924359991,0.698119304611
1543475393791325000,362,1543475393791325000,/map,1.34071755409,18.5390014648,0.279975771904,0.00181456848055,-0.00880509185753,0.715970376119,0.6980727743
1543475393891522000,363,1543475393891522000,/map,1.33059835434,18.5286693573,0.277109861374,0.0018933486775,-0.00879221950524,0.71588555238,0.698159715252
1543475393991683000,364,1543475393991683000,/map,1.34047019482,18.5298118591,0.29437494278,0.00164994983659,-0.0088365156292,0.716042398907,0.697998908756
1543475394091854000,365,1543475394091854000,/map,1.34264743328,18.5259532928,0.274658679962,0.00185782159466,-0.00882287702694,0.715936021976,0.698107669186
1543475394192030000,366,1543475394192030000,/map,1.33167183399,18.5456199646,0.287256121635,0.00185942768577,-0.00882426234082,0.715907635825,0.698136757297
1543475394292216000,367,1543475394292216000,/map,1.34690845013,18.5252761841,0.285341024399,0.00181064347108,-0.00882799488563,0.715989712247,0.698052662793
1543475394392392000,368,1543475394392392000,/map,1.33947706223,18.5375385284,0.281958222389,0.00177774223934,-0.00884177973447,0.715994272991,0.698047894924
1543475394492558000,369,1543475394492558000,/map,1.32874965668,18.5208969116,0.294159770012,0.00174784202717,-0.00889226282217,0.715880538025,0.69816396927
1543475394592751000,370,1543475394592751000,/map,1.33462607861,18.5296268463,0.273903131485,0.00183738349812,-0.00874709396535,0.715914223414,0.698131031456
1543475394692913000,371,1543475394692913000,/map,1.34606647491,18.5323791504,0.293137550354,0.00177854719981,-0.00887172218476,0.716015613997,0.698025622615
1543475394793063000,372,1543475394793063000,/map,1.32873690128,18.530500412,0.279657959938,0.00181245666124,-0.0087765975635,0.715931450079,0.698113060417
1543475394893286000,373,1543475394893286000,/map,1.35338115692,18.5316905975,0.284325838089,0.00186224244267,-0.00883969551501,0.716017688871,0.698023682307
1543475394993443000,374,1543475394993443000,/map,1.32725739479,18.5286655426,0.286460161209,0.0017741215743,-0.00879195625977,0.715855660672,0.698190681034
1543475395093645000,375,1543475395093645000,/map,1.34469342232,18.5340270996,0.27835392952,0.00183744217263,-0.00886862408758,0.715999038059,0.698042512181
1543475395193769000,376,1543475395193769000,/map,1.33035862446,18.530626297,0.298353791237,0.00171720536381,-0.00888570154708,0.715951425992,0.698091434652
1543475395293961000,377,1543475395293961000,/map,1.33698248863,18.5286006927,0.277572631836,0.00174411632542,-0.00877582279381,0.715981185279,0.698062235992
1543475395394169000,378,1543475395394169000,/map,1.35117614269,18.5379486084,0.27857875824,0.00188811801251,-0.0087823344251,0.71575372796,0.698294999641
1543475395494344000,379,1543475395494344000,/map,1.33120954037,18.5269699097,0.284398674965,0.00181593752918,-0.00887976819328,0.716002953487,0.698038410609
1543475395594556000,380,1543475395594556000,/map,1.34087336063,18.5376377106,0.292824149132,0.00169577444147,-0.00886884970814,0.715844926525,0.69820090878
1543475395694710000,381,1543475395694710000,/map,1.34050607681,18.5309123993,0.279451608658,0.00189585195936,-0.0087919767272,0.716096435712,0.69794340863
1543475395794856000,382,1543475395794856000,/map,1.32426095009,18.5340480804,0.287845849991,0.00178546174107,-0.00885254982119,0.715836828337,0.698209194787
