%time,field.header.seq,field.header.stamp,field.header.frame_id,field.twist.linear.x,field.twist.linear.y,field.twist.linear.z,field.twist.angular.x,field.twist.angular.y,field.twist.angular.z
1543475341750597000,577,1543475341750597000,/base_link,0.0522817958322,0.0,0.0,0.0,0.0,0.00194933072689
1543475341850859000,578,1543475341850859000,/base_link,0.0835301335037,0.0,0.0,0.0,0.0,-0.0023013100417
1543475341951127000,579,1543475341951127000,/base_link,0.0679267550761,0.0,0.0,0.0,0.0,0.0025887555603
1543475342051381000,580,1543475342051381000,/base_link,0.0576497884537,0.0,0.0,0.0,0.0,-0.00148013456617
1543475342151608000,581,1543475342151608000,/base_link,0.0771321525686,0.0,0.0,0.0,0.0,0.00166004135689
1543475342251848000,582,1543475342251848000,/base_link,0.0402485236611,0.0,0.0,0.0,0.0,-0.00185883951177
1543475342352111000,583,1543475342352111000,/base_link,0.0780734259868,0.0,0.0,0.0,0.0,0.00218298049847
1543475342452365000,584,1543475342452365000,/base_link,0.071003720278,0.0,0.0,0.0,0.0,-0.00154261499958
1543475342552612000,585,1543475342552612000,/base_link,0.0326199783391,0.0,0.0,0.0,0.0,0.000252481599223
1543475342652849000,586,1543475342652849000,/base_link,0.0891975744186,0.0,0.0,0.0,0.0,-0.00243461237706
1543475342753101000,587,1543475342753101000,/base_link,0.0954427997287,0.0,0.0,0.0,0.0,0.00195038000359
1543475342853360000,588,1543475342853360000,/base_link,0.0435416876781,0.0,0.0,0.0,0.0,-0.000847574083129
1543475342953552000,589,1543475342953552000,/base_link,0.0696914142529,0.0,0.0,0.0,0.0,0.00741807176819
1543475343053827000,590,1543475343053827000,/base_link,0.0815883562005,0.0,0.0,0.0,0.0,-0.00715266438345
1543475343154103000,591,1543475343154103000,/base_link,0.0410146579427,0.0,0.0,0.0,0.0,0.00114680197551
1543475343254353000,592,1543475343254353000,/base_link,0.0788080040048,0.0,0.0,0.0,0.0,-0.00113630188176
1543475343354558000,593,1543475343354558000,/base_link,0.0879162781424,0.0,0.0,0.0,0.0,0.00221034224585
1543475343454818000,594,1543475343454818000,/base_link,0.0681716212035,0.0,0.0,0.0,0.0,-0.00218086258105
1543475343555096000,595,1543475343555096000,/base_link,0.0496431367827,0.0,0.0,0.0,0.0,0.00174297276987
1543475343655289000,596,1543475343655289000,/base_link,0.0629743798195,0.0,0.0,0.0,0.0,-0.00159632765293
1543475343755589000,597,1543475343755589000,/base_link,0.067048447224,0.0,0.0,0.0,0.0,-0.000127725496124
1543475343855821000,598,1543475343855821000,/base_link,0.0633116875001,0.0,0.0,0.0,0.0,0.000372839285841
1543475343956071000,599,1543475343956071000,/base_link,0.0528409651167,0.0,0.0,0.0,0.0,-0.00135915710091
1543475344056295000,600,1543475344056295000,/base_link,0.0830212174921,0.0,0.0,0.0,0.0,0.00202111006212
1543475344156547000,601,1543475344156547000,/base_link,0.0616592571066,0.0,0.0,0.0,0.0,-0.00189601015081
1543475344256839000,602,1543475344256839000,/base_link,0.0642797202857,0.0,0.0,0.0,0.0,0.00278202663395
1543475344357040000,603,1543475344357040000,/base_link,0.0951571955737,0.0,0.0,0.0,0.0,-0.00117234678345
1543475344457324000,604,1543475344457324000,/base_link,0.0440173666055,0.0,0.0,0.0,0.0,0.0003702124707
1543475344557556000,605,1543475344557556000,/base_link,0.0451623491119,0.0,0.0,0.0,0.0,-0.000129162028383
1543475344657778000,606,1543475344657778000,/base_link,0.0706690956215,0.0,0.0,0.0,0.0,-0.000840136109108
1543475344758061000,607,1543475344758061000,/base_link,0.070451494028,0.0,0.0,0.0,0.0,0.000991735758116
1543475344858272000,608,1543475344858272000,/base_link,0.0558640025502,0.0,0.0,0.0,0.0,-0.000234123882261
1543475344958529000,609,1543475344958529000,/base_link,0.0542151151235,0.0,0.0,0.0,0.0,-0.00033397455358
1543475345058802000,610,1543475345058802000,/base_link,0.0493911884483,0.0,0.0,0.0,0.0,-0.000450831643401
1543475345159055000,611,1543475345159055000,/base_link,0.03416052333,0.0,0.0,0.0,0.0,-0.000756527681765
1543475345259326000,612,1543475345259326000,/base_link,0.0728904590607,0.0,0.0,0.0,0.0,0.00230643469428
1543475345359559000,613,1543475345359559000,/base_link,0.0769249238516,0.0,0.0,0.0,0.0,-0.00110353677706
1543475345459809000,614,1543475345459809000,/base_link,0.060744057483,0.0,0.0,0.0,0.0,0.00128439794604
1543475345560047000,615,1543475345560047000,/base_link,0.0706430431229,0.0,0.0,0.0,0.0,0.000213945417691
1543475345660276000,616,1543475345660276000,/base_link,0.0842040688143,0.0,0.0,0.0,0.0,-0.00139331724928
1543475345760509000,617,1543475345760509000,/base_link,0.0681008739457,0.0,0.0,0.0,0.0,-0.000457987606821
1543475345860783000,618,1543475345860783000,/base_link,0.0669617953504,0.0,0.0,0.0,0.0,5.26176610178e-05
1543475345960969000,619,1543475345960969000,/base_link,0.0767886889951,0.0,0.0,0.0,0.0,0.00150149480496
1543475346060909000,620,1543475346060909000,/base_link,0.0588377935264,0.0,0.0,0.0,0.0,-0.00114697010208
1543475346160694000,621,1543475346160694000,/base_link,0.0809081329476,0.0,0.0,0.0,0.0,0.000228762636987
1543475346260464000,622,1543475346260464000,/base_link,0.0514575633216,0.0,0.0,0.0,0.0,0.000660625821769
1543475346360261000,623,1543475346360261000,/base_link,0.0823891457252,0.0,0.0,0.0,0.0,-0.000828834856553
1543475346460020000,624,1543475346460020000,/base_link,0.0816496511413,0.0,0.0,0.0,0.0,-0.000252990399122
1543475346559852000,625,1543475346559852000,/base_link,0.0626972429813,0.0,0.0,0.0,0.0,-0.000208480457966
1543475346659629000,626,1543475346659629000,/base_link,0.0891657107064,0.0,0.0,0.0,0.0,0.00237934426672
1543475346759360000,627,1543475346759360000,/base_link,0.0820538093963,0.0,0.0,0.0,0.0,-0.00266921481644
1543475346859237000,628,1543475346859237000,/base_link,0.0742078463763,0.0,0.0,0.0,0.0,0.00140004907854
1543475346958952000,629,1543475346958952000,/base_link,0.0641074923361,0.0,0.0,0.0,0.0,-0.000348039275144
1543475347058767000,630,1543475347058767000,/base_link,0.0600969691126,0.0,0.0,0.0,0.0,0.00149030159453
1543475347158557000,631,1543475347158557000,/base_link,0.0722103987225,0.0,0.0,0.0,0.0,-0.0025921344292
1543475347258381000,632,1543475347258381000,/base_link,0.0544948720221,0.0,0.0,0.0,0.0,0.0017767503383
1543475347358162000,633,1543475347358162000,/base_link,0.0478175879414,0.0,0.0,0.0,0.0,-0.00322450316101
1543475347457982000,634,1543475347457982000,/base_link,0.0667478413313,0.0,0.0,0.0,0.0,0.00637212047289
1543475347557789000,635,1543475347557789000,/base_link,0.0558526938261,0.0,0.0,0.0,0.0,-0.00450939408968
1543475347657596000,636,1543475347657596000,/base_link,0.0663493375406,0.0,0.0,0.0,0.0,0.00309798256298
1543475347757432000,637,1543475347757432000,/base_link,0.0999769683382,0.0,0.0,0.0,0.0,-0.00221373821225
1543475347857209000,638,1543475347857209000,/base_link,0.0469787907381,0.0,0.0,0.0,0.0,-1.41371896834e-05
1543475347957020000,639,1543475347957020000,/base_link,0.0366484732757,0.0,0.0,0.0,0.0,0.00193618631288
1543475348056869000,640,1543475348056869000,/base_link,0.0615875196006,0.0,0.0,0.0,0.0,-0.00973345819929
1543475348156677000,641,1543475348156677000,/base_link,0.0857863759691,0.0,0.0,0.0,0.0,0.00708803981383
1543475348256489000,642,1543475348256489000,/base_link,0.0642917362592,0.0,0.0,0.0,0.0,0.000551237290326
1543475348356323000,643,1543475348356323000,/base_link,0.0500935116609,0.0,0.0,0.0,0.0,-0.000866250819591
1543475348456199000,644,1543475348456199000,/base_link,0.0924821379313,0.0,0.0,0.0,0.0,0.00109883737986
1543475348555976000,645,1543475348555976000,/base_link,0.0996227437406,0.0,0.0,0.0,0.0,-0.000720920422911
1543475348655857000,646,1543475348655857000,/base_link,0.0468683118333,0.0,0.0,0.0,0.0,-6.56696569485e-05
1543475348755674000,647,1543475348755674000,/base_link,0.0612708204926,0.0,0.0,0.0,0.0,-0.000958046641177
1543475348855479000,648,1543475348855479000,/base_link,0.0807515950771,0.0,0.0,0.0,0.0,0.00153576828064
1543475348955353000,649,1543475348955353000,/base_link,0.0317609388571,0.0,0.0,0.0,0.0,-0.000841200055907
1543475349055165000,650,1543475349055165000,/base_link,0.082183780079,0.0,0.0,0.0,0.0,-0.000196923234386
1543475349155075000,651,1543475349155075000,/base_link,0.0893885239717,0.0,0.0,0.0,0.0,0.000977912519107
1543475349254937000,652,1543475349254937000,/base_link,0.0696112801043,0.0,0.0,0.0,0.0,-0.00149110535716
1543475349354753000,653,1543475349354753000,/base_link,0.0654472538984,0.0,0.0,0.0,0.0,0.00147242853035
1543475349454636000,654,1543475349454636000,/base_link,0.101278208926,0.0,0.0,0.0,0.0,-0.00111143738928
1543475349554496000,655,1543475349554496000,/base_link,0.0584614057654,0.0,0.0,0.0,0.0,0.00120459288612
1543475349654311000,656,1543475349654311000,/base_link,0.0583906670642,0.0,0.0,0.0,0.0,-0.00402123251713
1543475349754175000,657,1543475349754175000,/base_link,0.0942778611447,0.0,0.0,0.0,0.0,0.00411066039153
1543475349854040000,658,1543475349854040000,/base_link,0.0447006504303,0.0,0.0,0.0,0.0,0.000283635270002
1543475349953863000,659,1543475349953863000,/base_link,0.029705756642,0.0,0.0,0.0,0.0,-0.00068957195897
1543475350053766000,660,1543475350053766000,/base_link,0.0690858053586,0.0,0.0,0.0,0.0,-0.00123568327215
1543475350153640000,661,1543475350153640000,/base_link,0.0635313455248,0.0,0.0,0.0,0.0,0.000697935334956
1543475350253489000,662,1543475350253489000,/base_link,0.105164420503,0.0,0.0,0.0,0.0,0.00067776631443
1543475350353404000,663,1543475350353404000,/base_link,0.0825682782381,0.0,0.0,0.0,0.0,-0.000148501661331
1543475350453254000,664,1543475350453254000,/base_link,0.0257814861808,0.0,0.0,0.0,0.0,0.000278217052301
1543475350553158000,665,1543475350553158000,/base_link,0.0243844935906,0.0,0.0,0.0,0.0,6.79631645555e-05
1543475350653011000,666,1543475350653011000,/base_link,0.0784827018611,0.0,0.0,0.0,0.0,-0.000793070768034
1543475350752890000,667,1543475350752890000,/base_link,0.0732366964437,0.0,0.0,0.0,0.0,-0.000782963176854
1543475350852768000,668,1543475350852768000,/base_link,0.0381619826664,0.0,0.0,0.0,0.0,0.00190681363084
1543475350952618000,669,1543475350952618000,/base_link,0.0671490697713,0.0,0.0,0.0,0.0,-0.000884846493514
1543475351052519000,670,1543475351052519000,/base_link,0.0472469545698,0.0,0.0,0.0,0.0,-0.000700631280814
1543475351152462000,671,1543475351152462000,/base_link,0.0810866733554,0.0,0.0,0.0,0.0,0.00116698048448
1543475351252313000,672,1543475351252313000,/base_link,0.0955700566059,0.0,0.0,0.0,0.0,-0.000220559783913
1543475351352226000,673,1543475351352226000,/base_link,0.0626176625802,0.0,0.0,0.0,0.0,0.00105977264171
1543475351452112000,674,1543475351452112000,/base_link,0.0558371385516,0.0,0.0,0.0,0.0,-0.001904060303
1543475351552000000,675,1543475351552000000,/base_link,0.0681704017316,0.0,0.0,0.0,0.0,0.00147368606567
1543475351651882000,676,1543475351651882000,/base_link,0.0469915290192,0.0,0.0,0.0,0.0,-0.000919057780357
1543475351751811000,677,1543475351751811000,/base_link,0.0565858329163,0.0,0.0,0.0,0.0,0.00151984723745
1543475351851700000,678,1543475351851700000,/base_link,0.0702560815363,0.0,0.0,0.0,0.0,-0.00293558697703
1543475351951641000,679,1543475351951641000,/base_link,0.0730289868573,0.0,0.0,0.0,0.0,0.00392567263706
1543475352051507000,680,1543475352051507000,/base_link,0.10156188029,0.0,0.0,0.0,0.0,-0.00415039050426
1543475352151391000,681,1543475352151391000,/base_link,0.0566561913742,0.0,0.0,0.0,0.0,0.00122262731875
1543475352251339000,682,1543475352251339000,/base_link,0.0552489552944,0.0,0.0,0.0,0.0,0.00188270586103
1543475352351252000,683,1543475352351252000,/base_link,0.051317789593,0.0,0.0,0.0,0.0,-0.00342634746609
1543475352451168000,684,1543475352451168000,/base_link,0.065917555303,0.0,0.0,0.0,0.0,0.00414121294543
1543475352551093000,685,1543475352551093000,/base_link,0.0647125126657,0.0,0.0,0.0,0.0,-0.00206456533036
1543475352651008000,686,1543475352651008000,/base_link,0.0439546907993,0.0,0.0,0.0,0.0,-0.000775526911795
1543475352750929000,687,1543475352750929000,/base_link,0.0618087993687,0.0,0.0,0.0,0.0,0.000236506011229
1543475352850830000,688,1543475352850830000,/base_link,0.0646990512125,0.0,0.0,0.0,0.0,-0.000942036457887
1543475352950729000,689,1543475352950729000,/base_link,0.0786615396804,0.0,0.0,0.0,0.0,0.00127114733661
1543475353050665000,690,1543475353050665000,/base_link,0.0797688271062,0.0,0.0,0.0,0.0,-0.00141146965155
1543475353150616000,691,1543475353150616000,/base_link,0.082058599271,0.0,0.0,0.0,0.0,0.00206561931831
1543475353250566000,692,1543475353250566000,/base_link,0.0999571523905,0.0,0.0,0.0,0.0,-0.0013456441624
1543475353350455000,693,1543475353350455000,/base_link,0.0849707260405,0.0,0.0,0.0,0.0,0.00167889688254
1543475353450370000,694,1543475353450370000,/base_link,0.0578802854457,0.0,0.0,0.0,0.0,-0.00158878505256
1543475353550328000,695,1543475353550328000,/base_link,0.0733188831517,0.0,0.0,0.0,0.0,0.00226417863266
1543475353650263000,696,1543475353650263000,/base_link,0.0682710026824,0.0,0.0,0.0,0.0,-0.00177295164384
1543475353750181000,697,1543475353750181000,/base_link,0.0958301398318,0.0,0.0,0.0,0.0,1.59232316833e-05
1543475353850202000,698,1543475353850202000,/base_link,0.0735966870277,0.0,0.0,0.0,0.0,0.000518413875516
1543475353950047000,699,1543475353950047000,/base_link,0.0265045482425,0.0,0.0,0.0,0.0,-0.00212447978696
1543475354049970000,700,1543475354049970000,/base_link,0.0736198113852,0.0,0.0,0.0,0.0,0.00301956430084
1543475354149975000,701,1543475354149975000,/base_link,0.0891765268975,0.0,0.0,0.0,0.0,-0.00219138754058
1543475354249894000,702,1543475354249894000,/base_link,0.0845654208884,0.0,0.0,0.0,0.0,0.000475569546502
1543475354349835000,703,1543475354349835000,/base_link,0.0826990051221,0.0,0.0,0.0,0.0,0.000449352689062
1543475354449795000,704,1543475354449795000,/base_link,0.0606444214028,0.0,0.0,0.0,0.0,0.000749721030938
1543475354549762000,705,1543475354549762000,/base_link,0.0706367782536,0.0,0.0,0.0,0.0,-9.14325310529e-05
1543475354649684000,706,1543475354649684000,/base_link,0.0771275544848,0.0,0.0,0.0,0.0,-0.0015717408423
1543475354749629000,707,1543475354749629000,/base_link,0.0735440154826,0.0,0.0,0.0,0.0,0.00166257861019
1543475354849602000,708,1543475354849602000,/base_link,0.0664284651016,0.0,0.0,0.0,0.0,-0.000169147121506
1543475354949552000,709,1543475354949552000,/base_link,0.0427118792812,0.0,0.0,0.0,0.0,-0.00174791054536
1543475355049516000,710,1543475355049516000,/base_link,0.0837131938881,0.0,0.0,0.0,0.0,0.00157633227082
1543475355149432000,711,1543475355149432000,/base_link,0.0836614191845,0.0,0.0,0.0,0.0,-0.000153610688288
1543475355249406000,712,1543475355249406000,/base_link,0.0757799030206,0.0,0.0,0.0,0.0,-0.000426245516667
1543475355349417000,713,1543475355349417000,/base_link,0.0939016486815,0.0,0.0,0.0,0.0,-0.000158576801606
1543475355449326000,714,1543475355449326000,/base_link,0.0611527005932,0.0,0.0,0.0,0.0,0.000778019821416
1543475355549359000,715,1543475355549359000,/base_link,0.0770212709612,0.0,0.0,0.0,0.0,-0.000159667867801
1543475355649257000,716,1543475355649257000,/base_link,0.103004132507,0.0,0.0,0.0,0.0,-8.47155795922e-05
1543475355749234000,717,1543475355749234000,/base_link,0.0530334125784,0.0,0.0,0.0,0.0,0.000544518267627
1543475355849176000,718,1543475355849176000,/base_link,0.0904959491257,0.0,0.0,0.0,0.0,-0.000630656313959
1543475355949191000,719,1543475355949191000,/base_link,0.098817128308,0.0,0.0,0.0,0.0,3.57313662913e-05
1543475356049149000,720,1543475356049149000,/base_link,0.0768981491104,0.0,0.0,0.0,0.0,0.00014863618652
1543475356149128000,721,1543475356149128000,/base_link,0.0882624839401,0.0,0.0,0.0,0.0,0.000117131848925
1543475356249112000,722,1543475356249112000,/base_link,0.0480605220734,0.0,0.0,0.0,0.0,-0.00104181696793
1543475356349070000,723,1543475356349070000,/base_link,0.0385549735911,0.0,0.0,0.0,0.0,0.000290442302016
1543475356449055000,724,1543475356449055000,/base_link,0.0899800535027,0.0,0.0,0.0,0.0,0.000213087762721
1543475356549026000,725,1543475356549026000,/base_link,0.0473290458547,0.0,0.0,0.0,0.0,-0.000392336868662
1543475356649005000,726,1543475356649005000,/base_link,0.0635310341166,0.0,0.0,0.0,0.0,-0.00183843479411
1543475356749038000,727,1543475356749038000,/base_link,0.0701372491835,0.0,0.0,0.0,0.0,0.00312525396228
1543475356848988000,728,1543475356848988000,/base_link,0.059707118857,0.0,0.0,0.0,0.0,-0.000206929991781
1543475356948943000,729,1543475356948943000,/base_link,0.0823405559829,0.0,0.0,0.0,0.0,-0.00126674023127
1543475357048948000,730,1543475357048948000,/base_link,0.030720667272,0.0,0.0,0.0,0.0,0.00150920050649
1543475357148962000,731,1543475357148962000,/base_link,0.0405700143643,0.0,0.0,0.0,0.0,-0.000913479953684
1543475357248889000,732,1543475357248889000,/base_link,0.0736040092285,0.0,0.0,0.0,0.0,0.000963805572655
1543475357348890000,733,1543475357348890000,/base_link,0.0690996976835,0.0,0.0,0.0,0.0,-0.000421506405952
1543475357448964000,734,1543475357448964000,/base_link,0.0923743645197,0.0,0.0,0.0,0.0,-0.000735549378676
1543475357548911000,735,1543475357548911000,/base_link,0.0621951810698,0.0,0.0,0.0,0.0,0.0010651810817
1543475357648884000,736,1543475357648884000,/base_link,0.070164959026,0.0,0.0,0.0,0.0,-0.00178237843201
1543475357748912000,737,1543475357748912000,/base_link,0.08096982652,0.0,0.0,0.0,0.0,0.00217528268767
1543475357848870000,738,1543475357848870000,/base_link,0.0824596175161,0.0,0.0,0.0,0.0,-0.0014823983142
1543475357948859000,739,1543475357948859000,/base_link,0.0828483699206,0.0,0.0,0.0,0.0,0.00122458102263
1543475358048902000,740,1543475358048902000,/base_link,0.0258819947711,0.0,0.0,0.0,0.0,-0.00216509278312
1543475358148862000,741,1543475358148862000,/base_link,0.0741790707228,0.0,0.0,0.0,0.0,0.00293177841238
1543475358248870000,742,1543475358248870000,/base_link,0.0559691558429,0.0,0.0,0.0,0.0,-0.00177297216331
1543475358348934000,743,1543475358348934000,/base_link,0.0410725284534,0.0,0.0,0.0,0.0,-0.000986780129149
1543475358448902000,744,1543475358448902000,/base_link,0.130065711594,0.0,0.0,0.0,0.0,0.00171235657283
1543475358548907000,745,1543475358548907000,/base_link,0.0865406452428,0.0,0.0,0.0,0.0,0.000470248676974
1543475358648926000,746,1543475358648926000,/base_link,0.0730098178325,0.0,0.0,0.0,0.0,-0.00196421271387
1543475358748882000,747,1543475358748882000,/base_link,0.0865330292511,0.0,0.0,0.0,0.0,0.00131633363731
1543475358848901000,748,1543475358848901000,/base_link,0.0533023282299,0.0,0.0,0.0,0.0,-7.01341591507e-05
1543475358948944000,749,1543475358948944000,/base_link,0.0634704969077,0.0,0.0,0.0,0.0,0.000513564162628
1543475359048921000,750,1543475359048921000,/base_link,0.0706915059685,0.0,0.0,0.0,0.0,-0.000629719791356
1543475359148918000,751,1543475359148918000,/base_link,0.0785012412415,0.0,0.0,0.0,0.0,0.00040049292202
1543475359248970000,752,1543475359248970000,/base_link,0.0725463444931,0.0,0.0,0.0,0.0,-0.000648773334954
1543475359348980000,753,1543475359348980000,/base_link,0.0714699956767,0.0,0.0,0.0,0.0,0.00017447114987
1543475359448969000,754,1543475359448969000,/base_link,0.0543282128045,0.0,0.0,0.0,0.0,0.000361548446897
1543475359549014000,755,1543475359549014000,/base_link,0.0865699543687,0.0,0.0,0.0,0.0,-0.00125544651599
1543475359649016000,756,1543475359649016000,/base_link,0.0742545658931,0.0,0.0,0.0,0.0,0.0019635258871
1543475359749078000,757,1543475359749078000,/base_link,0.0942801423047,0.0,0.0,0.0,0.0,-0.00220017521617
1543475359849071000,758,1543475359849071000,/base_link,0.0824309682769,0.0,0.0,0.0,0.0,0.00123802442338
1543475359949103000,759,1543475359949103000,/base_link,0.0993391134288,0.0,0.0,0.0,0.0,0.00046215438881
1543475360049127000,760,1543475360049127000,/base_link,0.104133645703,0.0,0.0,0.0,0.0,0.000208871033089
1543475360149151000,761,1543475360149151000,/base_link,0.0779784358491,0.0,0.0,0.0,0.0,-0.00129915787114
1543475360249160000,762,1543475360249160000,/base_link,0.0756167137847,0.0,0.0,0.0,0.0,0.00174023124037
1543475360349184000,763,1543475360349184000,/base_link,0.0793664329316,0.0,0.0,0.0,0.0,-0.00178792852138
1543475360449207000,764,1543475360449207000,/base_link,0.0845518374919,0.0,0.0,0.0,0.0,0.000890437566755
1543475360549213000,765,1543475360549213000,/base_link,0.0830782594637,0.0,0.0,0.0,0.0,-0.000138128414408
1543475360649248000,766,1543475360649248000,/base_link,0.0485270346794,0.0,0.0,0.0,0.0,-0.00247537598539
1543475360749319000,767,1543475360749319000,/base_link,0.101827963524,0.0,0.0,0.0,0.0,0.00206343991826
1543475360849325000,768,1543475360849325000,/base_link,0.0921025606866,0.0,0.0,0.0,0.0,-0.000556106812378
1543475360949360000,769,1543475360949360000,/base_link,0.0641851106825,0.0,0.0,0.0,0.0,0.000955586366005
1543475361049370000,770,1543475361049370000,/base_link,0.045869045761,0.0,0.0,0.0,0.0,-0.000826964379784
1543475361149418000,771,1543475361149418000,/base_link,0.0547071610165,0.0,0.0,0.0,0.0,0.00247586013675
1543475361249464000,772,1543475361249464000,/base_link,0.0702192217296,0.0,0.0,0.0,0.0,-0.000596276657487
1543475361349519000,773,1543475361349519000,/base_link,0.0674898005734,0.0,0.0,0.0,0.0,-0.00239618231045
1543475361449565000,774,1543475361449565000,/base_link,0.0581968416717,0.0,0.0,0.0,0.0,0.00549624587427
1543475361549557000,775,1543475361549557000,/base_link,0.128208924641,0.0,0.0,0.0,0.0,-0.00319694908494
1543475361649594000,776,1543475361649594000,/base_link,0.078733256756,0.0,0.0,0.0,0.0,-0.000995152881388
1543475361749636000,777,1543475361749636000,/base_link,0.0527299753082,0.0,0.0,0.0,0.0,0.000197575276396
1543475361849717000,778,1543475361849717000,/base_link,0.0832096352496,0.0,0.0,0.0,0.0,-0.00242276169608
1543475361949731000,779,1543475361949731000,/base_link,0.0579793158416,0.0,0.0,0.0,0.0,0.00182388041356
1543475362049791000,780,1543475362049791000,/base_link,0.10111798456,0.0,0.0,0.0,0.0,0.000656025869164
1543475362149848000,781,1543475362149848000,/base_link,0.0656323026758,0.0,0.0,0.0,0.0,0.000168258489562
1543475362249889000,782,1543475362249889000,/base_link,0.076000802458,0.0,0.0,0.0,0.0,-0.000216871935028
1543475362349919000,783,1543475362349919000,/base_link,0.0644471922168,0.0,0.0,0.0,0.0,-6.06275564747e-05
1543475362449956000,784,1543475362449956000,/base_link,0.0749748367836,0.0,0.0,0.0,0.0,0.000954390473159
1543475362550010000,785,1543475362550010000,/base_link,0.117530039953,0.0,0.0,0.0,0.0,-0.00246219307051
1543475362650064000,786,1543475362650064000,/base_link,0.0818022364509,0.0,0.0,0.0,0.0,0.00110287437861
1543475362750134000,787,1543475362750134000,/base_link,0.0592138199704,0.0,0.0,0.0,0.0,-6.73981162631e-05
1543475362850195000,788,1543475362850195000,/base_link,0.0529155922234,0.0,0.0,0.0,0.0,-0.000407421956646
1543475362950217000,789,1543475362950217000,/base_link,0.081422221095,0.0,0.0,0.0,0.0,0.00111511872621
1543475363050314000,790,1543475363050314000,/base_link,0.0722953590054,0.0,0.0,0.0,0.0,0.000149689972148
1543475363150315000,791,1543475363150315000,/base_link,0.0878275444444,0.0,0.0,0.0,0.0,-8.29444377902e-05
1543475363250386000,792,1543475363250386000,/base_link,0.0384297101284,0.0,0.0,0.0,0.0,-0.00100523880759
1543475363350432000,793,1543475363350432000,/base_link,0.079576870075,0.0,0.0,0.0,0.0,0.000824008859831
1543475363450478000,794,1543475363450478000,/base_link,0.0700240416811,0.0,0.0,0.0,0.0,-0.000422885976792
1543475363550592000,795,1543475363550592000,/base_link,0.0576581661926,0.0,0.0,0.0,0.0,-0.000394933829443
1543475363650588000,796,1543475363650588000,/base_link,0.065049922927,0.0,0.0,0.0,0.0,6.34133889045e-06
1543475363750650000,797,1543475363750650000,/base_link,0.0687082400187,0.0,0.0,0.0,0.0,-0.000559405031808
1543475363850700000,798,1543475363850700000,/base_link,0.0887080385711,0.0,0.0,0.0,0.0,7.1599257058e-06
1543475363950791000,799,1543475363950791000,/base_link,0.0720947362772,0.0,0.0,0.0,0.0,0.00103291743931
1543475364050853000,800,1543475364050853000,/base_link,0.0342098233185,0.0,0.0,0.0,0.0,-0.000130538165028
1543475364150914000,801,1543475364150914000,/base_link,0.071929270259,0.0,0.0,0.0,0.0,0.00166777388085
1543475364250987000,802,1543475364250987000,/base_link,0.0974215018436,0.0,0.0,0.0,0.0,-0.00104171918172
1543475364351050000,803,1543475364351050000,/base_link,0.0651015097877,0.0,0.0,0.0,0.0,-0.00121175064213
1543475364451156000,804,1543475364451156000,/base_link,0.079541173861,0.0,0.0,0.0,0.0,0.000534287726527
1543475364551177000,805,1543475364551177000,/base_link,0.0730287419144,0.0,0.0,0.0,0.0,-7.2087198889e-05
1543475364651248000,806,1543475364651248000,/base_link,0.0425298311341,0.0,0.0,0.0,0.0,-0.000372941095297
1543475364751320000,807,1543475364751320000,/base_link,0.0578069173757,0.0,0.0,0.0,0.0,0.00100085238328
1543475364851398000,808,1543475364851398000,/base_link,0.0665828884216,0.0,0.0,0.0,0.0,-0.00126134279604
1543475364951462000,809,1543475364951462000,/base_link,0.0528758663559,0.0,0.0,0.0,0.0,-0.00041706756699
1543475365051543000,810,1543475365051543000,/base_link,0.0960038004201,0.0,0.0,0.0,0.0,0.00222333323407
1543475365151615000,811,1543475365151615000,/base_link,0.0922946773681,0.0,0.0,0.0,0.0,-0.00175253282879
1543475365251688000,812,1543475365251688000,/base_link,0.0704195433967,0.0,0.0,0.0,0.0,0.000157070210141
1543475365351755000,813,1543475365351755000,/base_link,0.108936587635,0.0,0.0,0.0,0.0,0.000560450554521
1543475365451875000,814,1543475365451875000,/base_link,0.0801603685385,0.0,0.0,0.0,0.0,0.000438848978908
1543475365551917000,815,1543475365551917000,/base_link,0.0892845430038,0.0,0.0,0.0,0.0,-0.000350414611921
1543475365651971000,816,1543475365651971000,/base_link,0.0638848539753,0.0,0.0,0.0,0.0,-0.00128642530337
1543475365752015000,817,1543475365752015000,/base_link,0.0700593447028,0.0,0.0,0.0,0.0,0.00247609976638
1543475365852104000,818,1543475365852104000,/base_link,0.0534689595872,0.0,0.0,0.0,0.0,-0.00233630222875
1543475365952204000,819,1543475365952204000,/base_link,0.10710438737,0.0,0.0,0.0,0.0,0.000264829705112
1543475366052269000,820,1543475366052269000,/base_link,0.0907895329663,0.0,0.0,0.0,0.0,0.00066424364078
1543475366152367000,821,1543475366152367000,/base_link,0.0592598158597,0.0,0.0,0.0,0.0,0.000121967794825
1543475366252437000,822,1543475366252437000,/base_link,0.0872857936687,0.0,0.0,0.0,0.0,0.00171749378238
1543475366352521000,823,1543475366352521000,/base_link,0.0943548594687,0.0,0.0,0.0,0.0,-0.00246781715644
1543475366452567000,824,1543475366452567000,/base_link,0.0922419458131,0.0,0.0,0.0,0.0,0.00113145428165
1543475366552711000,825,1543475366552711000,/base_link,0.0995100037023,0.0,0.0,0.0,0.0,-0.000498930823597
1543475366652754000,826,1543475366652754000,/base_link,0.113738230577,0.0,0.0,0.0,0.0,0.00028195340086
1543475366752823000,827,1543475366752823000,/base_link,0.0546725978249,0.0,0.0,0.0,0.0,-0.000544117210238
1543475366852962000,828,1543475366852962000,/base_link,0.0847835731104,0.0,0.0,0.0,0.0,0.000894682626529
1543475366953008000,829,1543475366953008000,/base_link,0.0680097171816,0.0,0.0,0.0,0.0,-0.00192200626017
1543475367053107000,830,1543475367053107000,/base_link,0.0642230654854,0.0,0.0,0.0,0.0,0.00104201462068
1543475367153164000,831,1543475367153164000,/base_link,0.103352013432,0.0,0.0,0.0,0.0,-0.000683581862825
1543475367253254000,832,1543475367253254000,/base_link,0.08091349437,0.0,0.0,0.0,0.0,0.000745185801832
1543475367353369000,833,1543475367353369000,/base_link,0.0346887610112,0.0,0.0,0.0,0.0,-0.00063583435603
1543475367453416000,834,1543475367453416000,/base_link,0.0654980230778,0.0,0.0,0.0,0.0,0.00270580031903
1543475367553522000,835,1543475367553522000,/base_link,0.0766126888261,0.0,0.0,0.0,0.0,-0.00198664741621
1543475367653633000,836,1543475367653633000,/base_link,0.0605113811464,0.0,0.0,0.0,0.0,0.000516376117276
1543475367753708000,837,1543475367753708000,/base_link,0.0738369684964,0.0,0.0,0.0,0.0,0.00103882838846
1543475367853802000,838,1543475367853802000,/base_link,0.0687064851611,0.0,0.0,0.0,0.0,-0.00223188489821
1543475367953879000,839,1543475367953879000,/base_link,0.0861385713732,0.0,0.0,0.0,0.0,0.000915128552144
1543475368053972000,840,1543475368053972000,/base_link,0.0672634586671,0.0,0.0,0.0,0.0,0.000648298123373
1543475368154075000,841,1543475368154075000,/base_link,0.0732978600071,0.0,0.0,0.0,0.0,-0.000179436507261
1543475368254175000,842,1543475368254175000,/base_link,0.107502322906,0.0,0.0,0.0,0.0,8.5931260449e-05
1543475368354311000,843,1543475368354311000,/base_link,0.0645626377917,0.0,0.0,0.0,0.0,-0.000356146109869
1543475368454390000,844,1543475368454390000,/base_link,0.0493376388549,0.0,0.0,0.0,0.0,-0.000241327574319
1543475368554502000,845,1543475368554502000,/base_link,0.072286872503,0.0,0.0,0.0,0.0,0.000495673261368
1543475368654608000,846,1543475368654608000,/base_link,0.0885915971331,0.0,0.0,0.0,0.0,-0.00187067498148
1543475368754672000,847,1543475368754672000,/base_link,0.0966655203884,0.0,0.0,0.0,0.0,0.00153962032219
1543475368854722000,848,1543475368854722000,/base_link,0.0856593729739,0.0,0.0,0.0,0.0,0.000370440082698
1543475368954814000,849,1543475368954814000,/base_link,0.0920368606224,0.0,0.0,0.0,0.0,-0.0011725341931
1543475369054917000,850,1543475369054917000,/base_link,0.121404379709,0.0,0.0,0.0,0.0,0.000855952429119
1543475369155015000,851,1543475369155015000,/base_link,0.0570312939457,0.0,0.0,0.0,0.0,0.000201349452428
1543475369255177000,852,1543475369255177000,/base_link,0.0683939008686,0.0,0.0,0.0,0.0,-0.00206816111117
1543475369355222000,853,1543475369355222000,/base_link,0.0818906402998,0.0,0.0,0.0,0.0,0.00165059439575
1543475369455365000,854,1543475369455365000,/base_link,0.0906657538373,0.0,0.0,0.0,0.0,-0.00174799053602
1543475369555454000,855,1543475369555454000,/base_link,0.09218877859,0.0,0.0,0.0,0.0,0.00154574018679
1543475369655566000,856,1543475369655566000,/base_link,0.0526663544408,0.0,0.0,0.0,0.0,0.000317130394342
1543475369755661000,857,1543475369755661000,/base_link,0.0687257240015,0.0,0.0,0.0,0.0,-0.000817853619576
1543475369855776000,858,1543475369855776000,/base_link,0.0643996497373,0.0,0.0,0.0,0.0,0.000331966551999
1543475369955886000,859,1543475369955886000,/base_link,0.0738124191308,0.0,0.0,0.0,0.0,0.00145053007889
1543475370055959000,860,1543475370055959000,/base_link,0.0351390313525,0.0,0.0,0.0,0.0,-0.00393922204896
1543475370156051000,861,1543475370156051000,/base_link,0.0959210851682,0.0,0.0,0.0,0.0,0.01020777553
1543475370256190000,862,1543475370256190000,/base_link,0.0387708420858,0.0,0.0,0.0,0.0,-0.0065706346644
1543475370356317000,863,1543475370356317000,/base_link,0.0631752645147,0.0,0.0,0.0,0.0,0.00227852758715
1543475370456388000,864,1543475370456388000,/base_link,0.0462687412722,0.0,0.0,0.0,0.0,-0.0044770323589
1543475370556523000,865,1543475370556523000,/base_link,0.0657368206378,0.0,0.0,0.0,0.0,0.00917812831706
1543475370656612000,866,1543475370656612000,/base_link,0.114081697752,0.0,0.0,0.0,0.0,-0.00947187927068
1543475370756713000,867,1543475370756713000,/base_link,0.0730119343561,0.0,0.0,0.0,0.0,0.00484255450784
1543475370856831000,868,1543475370856831000,/base_link,0.0763782032055,0.0,0.0,0.0,0.0,-0.00243488721449
1543475370956936000,869,1543475370956936000,/base_link,0.0914777707077,0.0,0.0,0.0,0.0,-8.05820243347e-06
1543475371057065000,870,1543475371057065000,/base_link,0.0809076456069,0.0,0.0,0.0,0.0,-0.00130387597057
1543475371157154000,871,1543475371157154000,/base_link,0.0935357953757,0.0,0.0,0.0,0.0,0.000561679168739
1543475371257277000,872,1543475371257277000,/base_link,0.0578937501357,0.0,0.0,0.0,0.0,-0.000867997001622
1543475371357410000,873,1543475371357410000,/base_link,0.0882359669841,0.0,0.0,0.0,0.0,0.00192912717237
1543475371457499000,874,1543475371457499000,/base_link,0.0647074533589,0.0,0.0,0.0,0.0,-0.00109931470171
1543475371557610000,875,1543475371557610000,/base_link,0.0574971030988,0.0,0.0,0.0,0.0,0.000953707137672
1543475371657756000,876,1543475371657756000,/base_link,0.0653972907759,0.0,0.0,0.0,0.0,-0.00040737429402
1543475371757828000,877,1543475371757828000,/base_link,0.0682667138297,0.0,0.0,0.0,0.0,-0.000903049349982
1543475371857917000,878,1543475371857917000,/base_link,0.0546091609002,0.0,0.0,0.0,0.0,0.00222968454069
1543475371958066000,879,1543475371958066000,/base_link,0.0365624757177,0.0,0.0,0.0,0.0,1.45272894931e-05
1543475372058198000,880,1543475372058198000,/base_link,0.0968085406876,0.0,0.0,0.0,0.0,-0.0020217074695
1543475372158291000,881,1543475372158291000,/base_link,0.0966569879812,0.0,0.0,0.0,0.0,0.00115601768088
1543475372258424000,882,1543475372258424000,/base_link,0.0468149950421,0.0,0.0,0.0,0.0,-0.0018654094266
1543475372358533000,883,1543475372358533000,/base_link,0.0624635008246,0.0,0.0,0.0,0.0,0.00304188655543
1543475372458677000,884,1543475372458677000,/base_link,0.0898373442531,0.0,0.0,0.0,0.0,-0.00260154785513
1543475372558770000,885,1543475372558770000,/base_link,0.0788418493252,0.0,0.0,0.0,0.0,-0.000591968225242
1543475372658892000,886,1543475372658892000,/base_link,0.0653697974793,0.0,0.0,0.0,0.0,0.00128197447183
1543475372758996000,887,1543475372758996000,/base_link,0.0983098101514,0.0,0.0,0.0,0.0,-0.00252052077591
1543475372859121000,888,1543475372859121000,/base_link,0.0627737998016,0.0,0.0,0.0,0.0,0.00354933966902
1543475372959253000,889,1543475372959253000,/base_link,0.054516983529,0.0,0.0,0.0,0.0,-0.00386294289568
1543475373059367000,890,1543475373059367000,/base_link,0.0763360178157,0.0,0.0,0.0,0.0,0.00460241658527
1543475373159514000,891,1543475373159514000,/base_link,0.0967244705733,0.0,0.0,0.0,0.0,-0.00153875888035
1543475373259636000,892,1543475373259636000,/base_link,0.0887269203324,0.0,0.0,0.0,0.0,-4.98884329571e-05
1543475373359712000,893,1543475373359712000,/base_link,0.0313404381591,0.0,0.0,0.0,0.0,-0.000947414566724
1543475373459881000,894,1543475373459881000,/base_link,0.0690477622317,0.0,0.0,0.0,0.0,0.00486580819109
1543475373559962000,895,1543475373559962000,/base_link,0.08928217382,0.0,0.0,0.0,0.0,-0.00480031082512
1543475373660103000,896,1543475373660103000,/base_link,0.0935866488281,0.0,0.0,0.0,0.0,0.00156121087619
1543475373760231000,897,1543475373760231000,/base_link,0.0737108930465,0.0,0.0,0.0,0.0,-7.93605763027e-05
1543475373860378000,898,1543475373860378000,/base_link,0.0709355956128,0.0,0.0,0.0,0.0,-0.00075660091131
1543475373960482000,899,1543475373960482000,/base_link,0.0584048950027,0.0,0.0,0.0,0.0,-0.000698381490579
1543475374060614000,900,1543475374060614000,/base_link,0.058617004175,0.0,0.0,0.0,0.0,0.00126698562187
1543475374160709000,901,1543475374160709000,/base_link,0.0767622741431,0.0,0.0,0.0,0.0,-0.00255962224915
1543475374260870000,902,1543475374260870000,/base_link,0.0706589659801,0.0,0.0,0.0,0.0,0.00177810388169
1543475374360987000,903,1543475374360987000,/base_link,0.0623947376432,0.0,0.0,0.0,0.0,9.65610486804e-05
1543475374461079000,904,1543475374461079000,/base_link,0.0606909463412,0.0,0.0,0.0,0.0,-0.000353656698158
1543475374561242000,905,1543475374561242000,/base_link,0.076350945764,0.0,0.0,0.0,0.0,0.000951529006513
1543475374661338000,906,1543475374661338000,/base_link,0.0603816959314,0.0,0.0,0.0,0.0,-0.0010380730772
1543475374761492000,907,1543475374761492000,/base_link,0.0659189004476,0.0,0.0,0.0,0.0,0.00115610258208
1543475374861621000,908,1543475374861621000,/base_link,0.0543977816379,0.0,0.0,0.0,0.0,-0.00184940104023
1543475374961710000,909,1543475374961710000,/base_link,0.0763592669128,0.0,0.0,0.0,0.0,-0.00033159710715
1543475375061856000,910,1543475375061856000,/base_link,0.0627942772147,0.0,0.0,0.0,0.0,0.00243630547664
1543475375161976000,911,1543475375161976000,/base_link,0.0833428363983,0.0,0.0,0.0,0.0,-0.00170961826013
1543475375262111000,912,1543475375262111000,/base_link,0.0910984874688,0.0,0.0,0.0,0.0,0.00135847248526
1543475375362321000,913,1543475375362321000,/base_link,0.0599224948228,0.0,0.0,0.0,0.0,-0.00150730625183
1543475375462386000,914,1543475375462386000,/base_link,0.0804747462551,0.0,0.0,0.0,0.0,0.000893765574213
1543475375562516000,915,1543475375562516000,/base_link,0.0675946556378,0.0,0.0,0.0,0.0,-0.000584562840441
1543475375662672000,916,1543475375662672000,/base_link,0.0785860965533,0.0,0.0,0.0,0.0,0.00103132239751
1543475375762800000,917,1543475375762800000,/base_link,0.0911924708304,0.0,0.0,0.0,0.0,-0.00204061810895
1543475375862957000,918,1543475375862957000,/base_link,0.0848603613849,0.0,0.0,0.0,0.0,0.00190302574767
1543475375963085000,919,1543475375963085000,/base_link,0.100890076476,0.0,0.0,0.0,0.0,-0.000408927483615
1543475376063198000,920,1543475376063198000,/base_link,0.0821728471365,0.0,0.0,0.0,0.0,0.000335420571525
1543475376163367000,921,1543475376163367000,/base_link,0.07240624205,0.0,0.0,0.0,0.0,-0.000856973559543
1543475376263474000,922,1543475376263474000,/base_link,0.0505670623507,0.0,0.0,0.0,0.0,0.00294430970179
1543475376363577000,923,1543475376363577000,/base_link,0.0431340892355,0.0,0.0,0.0,0.0,-0.0106219328371
1543475376463731000,924,1543475376463731000,/base_link,0.0998567748892,0.0,0.0,0.0,0.0,0.0126011286583
1543475376563868000,925,1543475376563868000,/base_link,0.0902343818337,0.0,0.0,0.0,0.0,-0.00282373663905
1543475376663993000,926,1543475376663993000,/base_link,0.0409342836864,0.0,0.0,0.0,0.0,-0.00075725653576
1543475376764149000,927,1543475376764149000,/base_link,0.100651143691,0.0,0.0,0.0,0.0,-0.000615062301466
1543475376864287000,928,1543475376864287000,/base_link,0.102413110667,0.0,0.0,0.0,0.0,-0.000822925546984
1543475376964394000,929,1543475376964394000,/base_link,0.0599085341063,0.0,0.0,0.0,0.0,0.00176928993885
1543475377064535000,930,1543475377064535000,/base_link,0.0990196548275,0.0,0.0,0.0,0.0,-0.00114892963403
1543475377164715000,931,1543475377164715000,/base_link,0.0774181451303,0.0,0.0,0.0,0.0,-0.000421852478707
1543475377264860000,932,1543475377264860000,/base_link,0.0473417490787,0.0,0.0,0.0,0.0,0.00304817625358
1543475377365014000,933,1543475377365014000,/base_link,0.095151904016,0.0,0.0,0.0,0.0,-0.00317788650228
1543475377465127000,934,1543475377465127000,/base_link,0.070047760715,0.0,0.0,0.0,0.0,0.000501599979605
1543475377565285000,935,1543475377565285000,/base_link,0.0606766034074,0.0,0.0,0.0,0.0,0.0017425379576
1543475377665405000,936,1543475377665405000,/base_link,0.0858381700703,0.0,0.0,0.0,0.0,-0.0022775001056
1543475377765557000,937,1543475377765557000,/base_link,0.0581689091528,0.0,0.0,0.0,0.0,0.000734096986585
1543475377865710000,938,1543475377865710000,/base_link,0.0557427543589,0.0,0.0,0.0,0.0,-0.000731548227172
1543475377965843000,939,1543475377965843000,/base_link,0.0434732326866,0.0,0.0,0.0,0.0,0.00251997869633
1543475378065967000,940,1543475378065967000,/base_link,0.0532468783714,0.0,0.0,0.0,0.0,-0.00333671620606
1543475378166117000,941,1543475378166117000,/base_link,0.0704073287831,0.0,0.0,0.0,0.0,0.0027721418351
1543475378266268000,942,1543475378266268000,/base_link,0.0875666204315,0.0,0.0,0.0,0.0,-0.00192488371595
1543475378366397000,943,1543475378366397000,/base_link,0.0926915678559,0.0,0.0,0.0,0.0,-0.000103249377247
1543475378466568000,944,1543475378466568000,/base_link,0.0646972842893,0.0,0.0,0.0,0.0,-0.000286325922467
1543475378566688000,945,1543475378566688000,/base_link,0.0276431730714,0.0,0.0,0.0,0.0,0.00835929907398
1543475378666809000,946,1543475378666809000,/base_link,0.0950477395776,0.0,0.0,0.0,0.0,-0.0104087539953
1543475378766960000,947,1543475378766960000,/base_link,0.0573775377717,0.0,0.0,0.0,0.0,0.00815577271566
1543475378867125000,948,1543475378867125000,/base_link,0.0784123242965,0.0,0.0,0.0,0.0,-0.00845884303719
1543475378967243000,949,1543475378967243000,/base_link,0.0478762628851,0.0,0.0,0.0,0.0,0.00561169828802
1543475379067373000,950,1543475379067373000,/base_link,0.0582979920841,0.0,0.0,0.0,0.0,-0.00559488280624
1543475379167541000,951,1543475379167541000,/base_link,0.0450094046147,0.0,0.0,0.0,0.0,0.00628517056738
1543475379267703000,952,1543475379267703000,/base_link,0.0770172047222,0.0,0.0,0.0,0.0,-0.00494317359037
1543475379367846000,953,1543475379367846000,/base_link,0.0906921320511,0.0,0.0,0.0,0.0,0.00236485954907
1543475379467978000,954,1543475379467978000,/base_link,0.0553056540859,0.0,0.0,0.0,0.0,0.000594610919127
1543475379568094000,955,1543475379568094000,/base_link,0.0767123293049,0.0,0.0,0.0,0.0,-0.000962364215599
1543475379668259000,956,1543475379668259000,/base_link,0.0947458482618,0.0,0.0,0.0,0.0,-0.00065377519177
1543475379768449000,957,1543475379768449000,/base_link,0.0456806253809,0.0,0.0,0.0,0.0,0.00219999576024
1543475379868556000,958,1543475379868556000,/base_link,0.0818568008384,0.0,0.0,0.0,0.0,-0.00300807965414
1543475379968707000,959,1543475379968707000,/base_link,0.0981287347103,0.0,0.0,0.0,0.0,0.000345216745696
1543475380068863000,960,1543475380068863000,/base_link,0.0844654982244,0.0,0.0,0.0,0.0,0.00163372592656
1543475380169015000,961,1543475380169015000,/base_link,0.0789613115033,0.0,0.0,0.0,0.0,-0.0013488972428
1543475380269180000,962,1543475380269180000,/base_link,0.0705226297285,0.0,0.0,0.0,0.0,0.00180585774267
1543475380369333000,963,1543475380369333000,/base_link,0.066102167664,0.0,0.0,0.0,0.0,-0.000522314210871
1543475380469465000,964,1543475380469465000,/base_link,0.0569471567496,0.0,0.0,0.0,0.0,-0.00119189081771
1543475380569623000,965,1543475380569623000,/base_link,0.0771905553561,0.0,0.0,0.0,0.0,0.000529692885634
1543475380669759000,966,1543475380669759000,/base_link,0.0617278278513,0.0,0.0,0.0,0.0,-0.000499543535083
1543475380769900000,967,1543475380769900000,/base_link,0.0502497673298,0.0,0.0,0.0,0.0,0.000195486445422
1543475380870054000,968,1543475380870054000,/base_link,0.0554429814628,0.0,0.0,0.0,0.0,0.000105854231687
1543475380970180000,969,1543475380970180000,/base_link,0.0842444418362,0.0,0.0,0.0,0.0,0.00121416368294
1543475381070331000,970,1543475381070331000,/base_link,0.0963974102806,0.0,0.0,0.0,0.0,-0.000447530182747
1543475381170497000,971,1543475381170497000,/base_link,0.058061799411,0.0,0.0,0.0,0.0,-0.000281952120369
1543475381270636000,972,1543475381270636000,/base_link,0.0811168124722,0.0,0.0,0.0,0.0,0.000422513614722
1543475381370793000,973,1543475381370793000,/base_link,0.0674061984057,0.0,0.0,0.0,0.0,-0.000489076049876
1543475381470957000,974,1543475381470957000,/base_link,0.0478848767383,0.0,0.0,0.0,0.0,0.000132190233964
1543475381571129000,975,1543475381571129000,/base_link,0.0625531934369,0.0,0.0,0.0,0.0,0.000157951843535
1543475381671243000,976,1543475381671243000,/base_link,0.0731954907084,0.0,0.0,0.0,0.0,0.00024431731947
1543475381771436000,977,1543475381771436000,/base_link,0.0723147784649,0.0,0.0,0.0,0.0,-0.00032418106668
1543475381871543000,978,1543475381871543000,/base_link,0.0653976607444,0.0,0.0,0.0,0.0,0.000220631111559
1543475381971704000,979,1543475381971704000,/base_link,0.0700748228527,0.0,0.0,0.0,0.0,8.40553281009e-05
1543475382071855000,980,1543475382071855000,/base_link,0.0898906139534,0.0,0.0,0.0,0.0,-2.49881016607e-05
1543475382172006000,981,1543475382172006000,/base_link,0.0652297337003,0.0,0.0,0.0,0.0,-0.000357531344285
1543475382272179000,982,1543475382272179000,/base_link,0.0614040249121,0.0,0.0,0.0,0.0,-0.000324890758016
1543475382372364000,983,1543475382372364000,/base_link,0.0812411729185,0.0,0.0,0.0,0.0,-0.00086115078879
1543475382472505000,984,1543475382472505000,/base_link,0.0461687833535,0.0,0.0,0.0,0.0,0.000930140803584
1543475382572650000,985,1543475382572650000,/base_link,0.0572642592273,0.0,0.0,0.0,0.0,-0.000117059701501
1543475382672799000,986,1543475382672799000,/base_link,0.0806855559958,0.0,0.0,0.0,0.0,0.000323941981382
1543475382772980000,987,1543475382772980000,/base_link,0.0876432960017,0.0,0.0,0.0,0.0,-0.000132095259096
1543475382873116000,988,1543475382873116000,/base_link,0.0745360163001,0.0,0.0,0.0,0.0,0.000462181493433
1543475382973286000,989,1543475382973286000,/base_link,0.0570680735697,0.0,0.0,0.0,0.0,-0.000882735916628
1543475383073434000,990,1543475383073434000,/base_link,0.0674130792365,0.0,0.0,0.0,0.0,0.000113260233094
1543475383173590000,991,1543475383173590000,/base_link,0.0414377234378,0.0,0.0,0.0,0.0,0.00104877069581
1543475383273766000,992,1543475383273766000,/base_link,0.0614669372252,0.0,0.0,0.0,0.0,-0.00116083280085
1543475383373920000,993,1543475383373920000,/base_link,0.0769132460579,0.0,0.0,0.0,0.0,0.000561010254994
1543475383474041000,994,1543475383474041000,/base_link,0.0665574149042,0.0,0.0,0.0,0.0,-0.000648954016571
1543475383574227000,995,1543475383574227000,/base_link,0.0672152873409,0.0,0.0,0.0,0.0,0.00301476861472
1543475383674386000,996,1543475383674386000,/base_link,0.113713855733,0.0,0.0,0.0,0.0,-0.00242522155682
1543475383774522000,997,1543475383774522000,/base_link,0.0619798165537,0.0,0.0,0.0,0.0,0.000356501880456
1543475383874688000,998,1543475383874688000,/base_link,0.0583305265035,0.0,0.0,0.0,0.0,-0.000689009997071
1543475383974849000,999,1543475383974849000,/base_link,0.0711515510681,0.0,0.0,0.0,0.0,-0.000381758431461
1543475384075064000,1000,1543475384075064000,/base_link,0.0596583730161,0.0,0.0,0.0,0.0,0.000630018159196
1543475384175162000,1001,1543475384175162000,/base_link,0.0383471806093,0.0,0.0,0.0,0.0,2.8367691915e-05
1543475384275334000,1002,1543475384275334000,/base_link,0.0581919053108,0.0,0.0,0.0,0.0,-0.000505554052297
1543475384375485000,1003,1543475384375485000,/base_link,0.0820933062391,0.0,0.0,0.0,0.0,0.000850403871922
1543475384475672000,1004,1543475384475672000,/base_link,0.0870600013449,0.0,0.0,0.0,0.0,-0.000494955003546
1543475384575796000,1005,1543475384575796000,/base_link,0.0475784025656,0.0,0.0,0.0,0.0,-0.000450770057536
1543475384675977000,1006,1543475384675977000,/base_link,0.0613633696135,0.0,0.0,0.0,0.0,0.00398246245232
1543475384776107000,1007,1543475384776107000,/base_link,0.0547870353485,0.0,0.0,0.0,0.0,-0.00628948948059
1543475384876261000,1008,1543475384876261000,/base_link,0.0434998198239,0.0,0.0,0.0,0.0,0.0115574338217
1543475384976428000,1009,1543475384976428000,/base_link,0.0711802176139,0.0,0.0,0.0,0.0,-0.00848389208435
1543475385076592000,1010,1543475385076592000,/base_link,0.0275873086997,0.0,0.0,0.0,0.0,0.00324482325262
1543475385176802000,1011,1543475385176802000,/base_link,0.0930977860162,0.0,0.0,0.0,0.0,-0.00506596208505
1543475385276946000,1012,1543475385276946000,/base_link,0.0852846625647,0.0,0.0,0.0,0.0,0.00158405621179
1543475385377093000,1013,1543475385377093000,/base_link,0.0654343886951,0.0,0.0,0.0,0.0,0.000641180740749
1543475385477255000,1014,1543475385477255000,/base_link,0.0834659975698,0.0,0.0,0.0,0.0,-0.000575569246422
1543475385577426000,1015,1543475385577426000,/base_link,0.0930359145319,0.0,0.0,0.0,0.0,-0.000202524636029
1543475385677551000,1016,1543475385677551000,/base_link,0.0628324159926,0.0,0.0,0.0,0.0,0.000720372087621
1543475385777728000,1017,1543475385777728000,/base_link,0.0856435674405,0.0,0.0,0.0,0.0,-0.00101472175078
1543475385877895000,1018,1543475385877895000,/base_link,0.0774362498561,0.0,0.0,0.0,0.0,0.000939895345551
1543475385978099000,1019,1543475385978099000,/base_link,0.0511553016034,0.0,0.0,0.0,0.0,0.000174227325323
1543475386078222000,1020,1543475386078222000,/base_link,0.0574582393427,0.0,0.0,0.0,0.0,0.00036083015423
1543475386178416000,1021,1543475386178416000,/base_link,0.0717669944666,0.0,0.0,0.0,0.0,-0.00128644776764
1543475386278561000,1022,1543475386278561000,/base_link,0.0526518708787,0.0,0.0,0.0,0.0,0.00117516413414
1543475386378741000,1023,1543475386378741000,/base_link,0.0781698037736,0.0,0.0,0.0,0.0,-0.00173807037811
1543475386478909000,1024,1543475386478909000,/base_link,0.0832919585304,0.0,0.0,0.0,0.0,0.000986318440812
1543475386579031000,1025,1543475386579031000,/base_link,0.0986103276824,0.0,0.0,0.0,0.0,-0.000196094073047
1543475386679210000,1026,1543475386679210000,/base_link,0.0710112208427,0.0,0.0,0.0,0.0,-5.98050862801e-05
1543475386779388000,1027,1543475386779388000,/base_link,0.0872279016579,0.0,0.0,0.0,0.0,0.000193388447412
1543475386879575000,1028,1543475386879575000,/base_link,0.0730861965238,0.0,0.0,0.0,0.0,0.00109207326635
1543475386979747000,1029,1543475386979747000,/base_link,0.0439643366662,0.0,0.0,0.0,0.0,-0.00314327459401
1543475387079914000,1030,1543475387079914000,/base_link,0.0705876853848,0.0,0.0,0.0,0.0,0.00228980463112
1543475387180041000,1031,1543475387180041000,/base_link,0.0954574454647,0.0,0.0,0.0,0.0,-0.00100866988226
1543475387280185000,1032,1543475387280185000,/base_link,0.0646492534974,0.0,0.0,0.0,0.0,-0.000847437248149
1543475387380389000,1033,1543475387380389000,/base_link,0.0696296015621,0.0,0.0,0.0,0.0,0.00134153473252
1543475387480504000,1034,1543475387480504000,/base_link,0.0946222625815,0.0,0.0,0.0,0.0,0.000507361534505
1543475387580729000,1035,1543475387580729000,/base_link,0.057780733126,0.0,0.0,0.0,0.0,-0.000436862389935
1543475387680908000,1036,1543475387680908000,/base_link,0.0767153901603,0.0,0.0,0.0,0.0,0.00127210945247
1543475387781033000,1037,1543475387781033000,/base_link,0.0851562735696,0.0,0.0,0.0,0.0,-0.0006476242253
1543475387881170000,1038,1543475387881170000,/base_link,0.0630054131033,0.0,0.0,0.0,0.0,0.000372797765085
1543475387981348000,1039,1543475387981348000,/base_link,0.0484106300522,0.0,0.0,0.0,0.0,-0.000841116989983
1543475388081549000,1040,1543475388081549000,/base_link,0.0738109671622,0.0,0.0,0.0,0.0,0.00127346087343
1543475388181707000,1041,1543475388181707000,/base_link,0.0887256299012,0.0,0.0,0.0,0.0,-0.000155368994608
1543475388281877000,1042,1543475388281877000,/base_link,0.0561374272876,0.0,0.0,0.0,0.0,-0.00110017710295
1543475388382042000,1043,1543475388382042000,/base_link,0.0741818313983,0.0,0.0,0.0,0.0,-0.000676218813056
1543475388482259000,1044,1543475388482259000,/base_link,0.0848048001596,0.0,0.0,0.0,0.0,0.00122552867727
1543475388582391000,1045,1543475388582391000,/base_link,0.0555935717497,0.0,0.0,0.0,0.0,0.000215068812728
1543475388682521000,1046,1543475388682521000,/base_link,0.0579824229407,0.0,0.0,0.0,0.0,0.000397535372695
1543475388782726000,1047,1543475388782726000,/base_link,0.079315772511,0.0,0.0,0.0,0.0,-0.00124213061567
1543475388882894000,1048,1543475388882894000,/base_link,0.0662197082263,0.0,0.0,0.0,0.0,0.00058002384722
1543475388983042000,1049,1543475388983042000,/base_link,0.0589376282563,0.0,0.0,0.0,0.0,-0.0007034214018
1543475389083190000,1050,1543475389083190000,/base_link,0.0642268756437,0.0,0.0,0.0,0.0,0.000448778239923
1543475389183402000,1051,1543475389183402000,/base_link,0.0489977041784,0.0,0.0,0.0,0.0,-0.000121368359929
1543475389283532000,1052,1543475389283532000,/base_link,0.0665808196046,0.0,0.0,0.0,0.0,4.20120315579e-05
1543475389383729000,1053,1543475389383729000,/base_link,0.0454864290706,0.0,0.0,0.0,0.0,-0.000567625878802
1543475389483904000,1054,1543475389483904000,/base_link,0.0629102506146,0.0,0.0,0.0,0.0,0.000548961434258
1543475389584040000,1055,1543475389584040000,/base_link,0.0606988166536,0.0,0.0,0.0,0.0,-0.00055431441329
1543475389684225000,1056,1543475389684225000,/base_link,0.0855328426908,0.0,0.0,0.0,0.0,0.000175477613661
1543475389784403000,1057,1543475389784403000,/base_link,0.0799507802497,0.0,0.0,0.0,0.0,0.000141993782822
1543475389884570000,1058,1543475389884570000,/base_link,0.0712744064854,0.0,0.0,0.0,0.0,-0.000589077455334
1543475389984767000,1059,1543475389984767000,/base_link,0.0700612807495,0.0,0.0,0.0,0.0,0.000281532483817
1543475390084885000,1060,1543475390084885000,/base_link,0.0478935149875,0.0,0.0,0.0,0.0,0.000956239756825
1543475390185095000,1061,1543475390185095000,/base_link,0.0798826268018,0.0,0.0,0.0,0.0,-0.00124994783496
1543475390285264000,1062,1543475390285264000,/base_link,0.0631801691226,0.0,0.0,0.0,0.0,0.00109202193771
1543475390385424000,1063,1543475390385424000,/base_link,0.0481319104818,0.0,0.0,0.0,0.0,0.000818557307936
1543475390485565000,1064,1543475390485565000,/base_link,0.076773880183,0.0,0.0,0.0,0.0,-0.00112119021539
1543475390585779000,1065,1543475390585779000,/base_link,0.0904626321483,0.0,0.0,0.0,0.0,8.97630347612e-05
1543475390685960000,1066,1543475390685960000,/base_link,0.0670046450757,0.0,0.0,0.0,0.0,-0.00039753581434
1543475390786103000,1067,1543475390786103000,/base_link,0.0427085099508,0.0,0.0,0.0,0.0,-0.000214276719975
1543475390886319000,1068,1543475390886319000,/base_link,0.0643721307817,0.0,0.0,0.0,0.0,0.00576192495023
1543475390986459000,1069,1543475390986459000,/base_link,0.0853541528993,0.0,0.0,0.0,0.0,-0.00557254310897
1543475391086673000,1070,1543475391086673000,/base_link,0.0748221201076,0.0,0.0,0.0,0.0,-0.000323488592189
1543475391186789000,1071,1543475391186789000,/base_link,0.064219315009,0.0,0.0,0.0,0.0,0.00154238738428
1543475391286983000,1072,1543475391286983000,/base_link,0.081893192727,0.0,0.0,0.0,0.0,-0.00126225760426
1543475391387133000,1073,1543475391387133000,/base_link,0.0643901603913,0.0,0.0,0.0,0.0,-0.000653994044237
1543475391487294000,1074,1543475391487294000,/base_link,0.0493654302079,0.0,0.0,0.0,0.0,0.00121564843129
1543475391587482000,1075,1543475391587482000,/base_link,0.0659720507646,0.0,0.0,0.0,0.0,0.000477245479695
1543475391687723000,1076,1543475391687723000,/base_link,0.0493408016366,0.0,0.0,0.0,0.0,-0.000316405675672
1543475391787837000,1077,1543475391787837000,/base_link,0.0856554638326,0.0,0.0,0.0,0.0,-0.00123025439037
1543475391887998000,1078,1543475391887998000,/base_link,0.0602069367244,0.0,0.0,0.0,0.0,0.000848673360439
1543475391988193000,1079,1543475391988193000,/base_link,0.0514909976457,0.0,0.0,0.0,0.0,0.000486522281574
1543475392088334000,1080,1543475392088334000,/base_link,0.0835886824002,0.0,0.0,0.0,0.0,0.00015477504887
1543475392188537000,1081,1543475392188537000,/base_link,0.0645677237476,0.0,0.0,0.0,0.0,-0.00114846577286
1543475392288726000,1082,1543475392288726000,/base_link,0.0466534138594,0.0,0.0,0.0,0.0,0.000555781867096
1543475392388857000,1083,1543475392388857000,/base_link,0.0575442759546,0.0,0.0,0.0,0.0,-0.000796705309717
1543475392489065000,1084,1543475392489065000,/base_link,0.0632112549683,0.0,0.0,0.0,0.0,0.000957356146932
1543475392589217000,1085,1543475392589217000,/base_link,0.0712860111168,0.0,0.0,0.0,0.0,-0.000113868919909
1543475392689393000,1086,1543475392689393000,/base_link,0.0984116956122,0.0,0.0,0.0,0.0,3.18231613686e-05
1543475392789560000,1087,1543475392789560000,/base_link,0.0611760715564,0.0,0.0,0.0,0.0,0.000270244520672
1543475392889742000,1088,1543475392889742000,/base_link,0.0737216600732,0.0,0.0,0.0,0.0,-0.00051534359769
1543475392989943000,1089,1543475392989943000,/base_link,0.0726405562217,0.0,0.0,0.0,0.0,0.000522392736257
1543475393090075000,1090,1543475393090075000,/base_link,0.0562206134119,0.0,0.0,0.0,0.0,-0.000871451192009
1543475393190282000,1091,1543475393190282000,/base_link,0.0607849243503,0.0,0.0,0.0,0.0,0.00275691694731
1543475393290470000,1092,1543475393290470000,/base_link,0.0747704593701,0.0,0.0,0.0,0.0,-0.00220235246724
1543475393390622000,1093,1543475393390622000,/base_link,0.0637683560013,0.0,0.0,0.0,0.0,0.000886130705848
1543475393490816000,1094,1543475393490816000,/base_link,0.0633602430715,0.0,0.0,0.0,0.0,-0.00144965915043
1543475393590992000,1095,1543475393590992000,/base_link,0.0732602812138,0.0,0.0,0.0,0.0,0.000179892103618
1543475393691202000,1096,1543475393691202000,/base_link,0.0655820007098,0.0,0.0,0.0,0.0,0.000730435373799
1543475393791325000,1097,1543475393791325000,/base_link,0.057431120662,0.0,0.0,0.0,0.0,-0.000876602147903
1543475393891522000,1098,1543475393891522000,/base_link,0.0781947856428,0.0,0.0,0.0,0.0,0.00173165841398
1543475393991683000,1099,1543475393991683000,/base_link,0.0722445790547,0.0,0.0,0.0,0.0,-0.000503458028596
1543475394091854000,1100,1543475394091854000,/base_link,0.100134310347,0.0,0.0,0.0,0.0,-0.000698728718999
1543475394192030000,1101,1543475394192030000,/base_link,0.0804541569458,0.0,0.0,0.0,0.0,0.000818707598933
1543475394292216000,1102,1543475394292216000,/base_link,0.0365339511237,0.0,0.0,0.0,0.0,0.000469649967437
1543475394392392000,1103,1543475394392392000,/base_link,0.103922604415,0.0,0.0,0.0,0.0,-0.00138243533164
1543475394492558000,1104,1543475394492558000,/base_link,0.0748112173495,0.0,0.0,0.0,0.0,-0.000231348488632
1543475394592751000,1105,1543475394592751000,/base_link,0.0842374845744,0.0,0.0,0.0,0.0,0.00135478291838
1543475394692913000,1106,1543475394692913000,/base_link,0.0691477576517,0.0,0.0,0.0,0.0,-0.000543078840499
1543475394793063000,1107,1543475394793063000,/base_link,0.0943669865279,0.0,0.0,0.0,0.0,0.000972830335773
1543475394893286000,1108,1543475394893286000,/base_link,0.085159129976,0.0,0.0,0.0,0.0,-0.00183700941032
1543475394993443000,1109,1543475394993443000,/base_link,0.0603694557919,0.0,0.0,0.0,0.0,0.00114387081114
1543475395093645000,1110,1543475395093645000,/base_link,0.0963643767408,0.0,0.0,0.0,0.0,-0.000104631554804
1543475395193769000,1111,1543475395193769000,/base_link,0.0648393431066,0.0,0.0,0.0,0.0,0.00033539337279
1543475395293961000,1112,1543475395293961000,/base_link,0.0863211661941,0.0,0.0,0.0,0.0,-0.0028760894242
1543475395394169000,1113,1543475395394169000,/base_link,0.0715251303878,0.0,0.0,0.0,0.0,0.00188177173667
1543475395494344000,1114,1543475395494344000,/base_link,0.0654063991506,0.0,0.0,0.0,0.0,-0.00121178393979
1543475395594556000,1115,1543475395594556000,/base_link,0.0462001179678,0.0,0.0,0.0,0.0,0.00276292473544
1543475395694710000,1116,1543475395694710000,/base_link,0.080342632015,0.0,0.0,0.0,0.0,-0.0020489223709
1543475395794856000,1117,1543475395794856000,/base_link,0.0860967430991,0.0,0.0,0.0,0.0,0.000954056368305
1543475395895075000,1118,1543475395895075000,/base_link,0.0782618923217,0.0,0.0,0.0,0.0,-0.000314784917798
1543475395995230000,1119,1543475395995230000,/base_link,0.0865285329123,0.0,0.0,0.0,0.0,0.00124268304979
1543475396095416000,1120,1543475396095416000,/base_link,0.0741539322615,0.0,0.0,0.0,0.0,-0.00139242741026
1543475396195591000,1121,1543475396195591000,/base_link,0.0527708105152,0.0,0.0,0.0,0.0,0.00127791969263
1543475396295788000,1122,1543475396295788000,/base_link,0.0531767449157,0.0,0.0,0.0,0.0,-0.00265144055681
1543475396395950000,1123,1543475396395950000,/base_link,0.0571090110548,0.0,0.0,0.0,0.0,0.00280745167687
1543475396496109000,1124,1543475396496109000,/base_link,0.0797808836329,0.0,0.0,0.0,0.0,-0.000896640513246
1543475396596339000,1125,1543475396596339000,/base_link,0.0566542622616,0.0,0.0,0.0,0.0,-0.000699914066687
1543475396696514000,1126,1543475396696514000,/base_link,0.0696621890519,0.0,0.0,0.0,0.0,0.00112070595227
1543475396796677000,1127,1543475396796677000,/base_link,0.106268858401,0.0,0.0,0.0,0.0,-0.000758744164192
1543475396896877000,1128,1543475396896877000,/base_link,0.049874213755,0.0,0.0,0.0,0.0,-0.00124287248633
1543475396997050000,1129,1543475396997050000,/base_link,0.0598983406148,0.0,0.0,0.0,0.0,0.00105433187074
1543475397097198000,1130,1543475397097198000,/base_link,0.0588213837781,0.0,0.0,0.0,0.0,0.000522588205276
1543475397197382000,1131,1543475397197382000,/base_link,0.0505223729234,0.0,0.0,0.0,0.0,-0.00116567367292
1543475397297583000,1132,1543475397297583000,/base_link,0.0701366709925,0.0,0.0,0.0,0.0,0.00127263193107
1543475397397759000,1133,1543475397397759000,/base_link,0.0527115675106,0.0,0.0,0.0,0.0,-0.00081638404687
1543475397497934000,1134,1543475397497934000,/base_link,0.0569909247528,0.0,0.0,0.0,0.0,-0.000567460567467
1543475397598107000,1135,1543475397598107000,/base_link,0.0868473750641,0.0,0.0,0.0,0.0,0.000599348835175
1543475397698309000,1136,1543475397698309000,/base_link,0.0497357514132,0.0,0.0,0.0,0.0,0.00064939010807
1543475397798485000,1137,1543475397798485000,/base_link,0.0658038691576,0.0,0.0,0.0,0.0,0.0010233379006
1543475397898657000,1138,1543475397898657000,/base_link,0.0554583329951,0.0,0.0,0.0,0.0,-0.00177128023037
1543475397998831000,1139,1543475397998831000,/base_link,0.0763036142743,0.0,0.0,0.0,0.0,0.0024719112668
1543475398099009000,1140,1543475398099009000,/base_link,0.0804615581106,0.0,0.0,0.0,0.0,-0.00213762363427
1543475398199198000,1141,1543475398199198000,/base_link,0.0358273374699,0.0,0.0,0.0,0.0,0.000727199233261
1543475398299401000,1142,1543475398299401000,/base_link,0.0945021968902,0.0,0.0,0.0,0.0,-0.00072007529823
1543475398399568000,1143,1543475398399568000,/base_link,0.0975696727717,0.0,0.0,0.0,0.0,0.000320722833159
1543475398499723000,1144,1543475398499723000,/base_link,0.0863232887016,0.0,0.0,0.0,0.0,-0.000553373676591
1543475398599922000,1145,1543475398599922000,/base_link,0.0763941635364,0.0,0.0,0.0,0.0,-0.000555359237124
