%time,field.header.seq,field.header.stamp,field.header.frame_id,field.pose.position.x,field.pose.position.y,field.pose.position.z,field.pose.orientation.x,field.pose.orientation.y,field.pose.orientation.z,field.pose.orientation.w
1543475341850859000,578,1543475341850859000,/map,1.34279259044,18.5305093126,0.290709420894,0.00186121130957,-0.00885329601758,0.716026159625,0.698014823464
1543475341951127000,579,1543475341951127000,/map,1.32522077862,18.5257985885,0.281277800616,0.00173319481449,-0.00880107452028,0.715797533439,0.698250261902
1543475342051381000,580,1543475342051381000,/map,1.34169605831,18.5382226432,0.288115034803,0.00185663423481,-0.00880507859424,0.716059193697,0.697981557509
1543475342151608000,581,1543475342151608000,/map,1.33260104258,18.5251876929,0.292986828101,0.00180211238644,-0.00888081472643,0.715864099015,0.69818083278
1543475342251848000,582,1543475342251848000,/map,1.33673728736,18.5411003024,0.279745884702,0.00182173005865,-0.00877317110578,0.716033375413,0.698008537242
1543475342352111000,583,1543475342352111000,/map,1.33464574369,18.5273123178,0.285359453636,0.00192755652581,-0.00873892045311,0.715845610398,0.698201244535
1543475342452365000,584,1543475342452365000,/map,1.3489914896,18.5373723165,0.280857274364,0.00187873857063,-0.0088017543673,0.716062669466,0.69797797448
1543475342552612000,585,1543475342552612000,/map,1.32882402953,18.5327492314,0.287873811603,0.00171396887345,-0.00881583673301,0.715878187217,0.698167432927
1543475342652849000,586,1543475342652849000,/map,1.33921449511,18.5355795798,0.280464657639,0.00188775398494,-0.00876783069861,0.715950400333,0.698093536564
1543475342753101000,587,1543475342753101000,/map,1.34899035869,18.5322416478,0.296302722355,0.00164532139262,-0.00882469799436,0.715770509914,0.698277877897
1543475342853360000,588,1543475342853360000,/map,1.33126110013,18.5354653125,0.274776655789,0.00188589042842,-0.00871230618193,0.715993574291,0.698049955742
1543475342953552000,589,1543475342953552000,/map,1.33807332335,18.5296627731,0.289456683381,0.00188043310991,-0.00879293628072,0.715865019006,0.698180795215
1543475343053827000,590,1543475343053827000,/map,1.34716082307,18.5391073848,0.278429901828,0.00162742060098,-0.00904171101755,0.716410455999,0.697618561608
1543475343154103000,591,1543475343154103000,/map,1.3293561285,18.5315589704,0.291156575384,0.00173782166677,-0.00883713013829,0.715652805184,0.698398129678
1543475343254353000,592,1543475343254353000,/map,1.34256598065,18.5366950748,0.283020012543,0.00186122923291,-0.00879798745971,0.715983944116,0.698058824892
1543475343354558000,593,1543475343354558000,/map,1.33146674694,18.5230263228,0.291379531542,0.00170651994923,-0.00880789403073,0.715864214645,0.698181878154
1543475343454818000,594,1543475343454818000,/map,1.34694906591,18.5397730608,0.280262106229,0.00181983637741,-0.00889320379865,0.71605751897,0.697982255253
1543475343555096000,595,1543475343555096000,/map,1.32803870818,18.5329207025,0.287772381413,0.00179014461703,-0.00882580981268,0.71582836969,0.698218193411
1543475343655289000,596,1543475343655289000,/map,1.34415173522,18.53160183,0.284141961669,0.0018260551028,-0.0088359521485,0.716026532786,0.698014753296
1543475343755589000,597,1543475343755589000,/map,1.33088350163,18.5419609241,0.285678001288,0.00187110265365,-0.00877845583004,0.715854576446,0.698191709396
1543475343855821000,598,1543475343855821000,/map,1.33397105928,18.5239570075,0.286591711206,0.00180985846291,-0.0087729796192,0.715901605895,0.698143717237
1543475343956071000,599,1543475343956071000,/map,1.34184354455,18.5392654548,0.2802135535,0.00184311299536,-0.00886555403792,0.715931001757,0.698112315899
1543475344056295000,600,1543475344056295000,/map,1.33057109075,18.5315918502,0.28964124686,0.00177029931603,-0.00876196567146,0.715824148252,0.698223375989
1543475344156547000,601,1543475344156547000,/map,1.3481538455,18.5248515772,0.282300738425,0.00188490868263,-0.00884599526077,0.716012056472,0.698029319208
1543475344256839000,602,1543475344256839000,/map,1.33087606585,18.5346500102,0.288033150054,0.00169691430243,-0.00880331472891,0.715809176734,0.698238386681
1543475344357040000,603,1543475344357040000,/map,1.34751396644,18.5272523788,0.282440573294,0.00182562182508,-0.00885509494351,0.716069564014,0.697970367488
1543475344457324000,604,1543475344457324000,/map,1.3307042694,18.5440390479,0.2898850866,0.00175680261107,-0.00878742050619,0.715891096454,0.698154447743
1543475344557556000,605,1543475344557556000,/map,1.33985116139,18.5317281506,0.280828075145,0.00181800658167,-0.00887286957776,0.715956963489,0.698085663418
1543475344657778000,606,1543475344657778000,/map,1.33874603625,18.5370062412,0.27536339739,0.00184576346312,-0.00878511626954,0.715936067849,0.698108130337
1543475344758061000,607,1543475344758061000,/map,1.3372162558,18.524284725,0.288064174901,0.00192962122511,-0.00874203250933,0.715882306689,0.698163574242
1543475344858272000,608,1543475344858272000,/map,1.34846018677,18.5382775004,0.287970140503,0.00179934253245,-0.00886906021519,0.715979556346,0.698062588191
1543475344958529000,609,1543475344958529000,/map,1.33262428836,18.5303431426,0.286724514334,0.00180191473292,-0.00884281744188,0.715928815653,0.698114953715
1543475345058802000,610,1543475345058802000,/map,1.32787290826,18.5281006377,0.285342734518,0.00181390878771,-0.00882548315796,0.715913846986,0.698130492298
1543475345159055000,611,1543475345159055000,/map,1.33945625971,18.537570215,0.285808565539,0.00177042506201,-0.00879118667586,0.715894416677,0.698150961327
1543475345259326000,612,1543475345259326000,/map,1.34130273665,18.5381492642,0.284327969122,0.00169798307166,-0.0087478299787,0.715857790869,0.698189240518
1543475345359559000,613,1543475345359559000,/map,1.33077664995,18.523750721,0.28509795214,0.00181719389088,-0.00882284351087,0.716044723095,0.697996282058
1543475345459809000,614,1543475345459809000,/map,1.34584473232,18.5405950097,0.285219799894,0.00186540973744,-0.00881813449591,0.715886865189,0.698158117478
1543475345560047000,615,1543475345560047000,/map,1.33510120034,18.5259252399,0.279271001012,0.00187280223783,-0.0087691777852,0.716015966573,0.698026310209
1543475345660276000,616,1543475345660276000,/map,1.33593209575,18.5441678623,0.285790759579,0.00183020914277,-0.00880607286339,0.715985550225,0.698057157606
1543475345760509000,617,1543475345760509000,/map,1.34626145137,18.5243088976,0.289001326194,0.00183893070478,-0.00881218999189,0.7158804967,0.698164792929
1543475345860783000,618,1543475345860783000,/map,1.32937969488,18.5353975075,0.282275647126,0.00179010200882,-0.00876516870542,0.715897786404,0.698147782904
1543475345960969000,619,1543475345960969000,/map,1.33583052601,18.5215809929,0.291238281373,0.00184893970145,-0.00885594026731,0.715916353622,0.698127444211
1543475346060909000,620,1543475346060909000,/map,1.33687333343,18.5402978019,0.279633327272,0.00186349614943,-0.00883368580125,0.716019668321,0.698021724558
1543475346160694000,621,1543475346160694000,/map,1.33283582843,18.5228528341,0.286139159876,0.00182446923182,-0.00878720574566,0.715887924166,0.69815752976
1543475346260464000,622,1543475346260464000,/map,1.34673444212,18.5389262823,0.284799943218,0.00181335855264,-0.00888120553429,0.715942632978,0.698100266583
1543475346360261000,623,1543475346360261000,/map,1.33104218317,18.5328310836,0.281304473766,0.00180407098359,-0.00873694550532,0.715982485899,0.698061237283
1543475346460020000,624,1543475346460020000,/map,1.35055321467,18.5309738644,0.290070991598,0.00182872896698,-0.0088988787047,0.715899714287,0.698144014364
1543475346559852000,625,1543475346559852000,/map,1.32950031405,18.5359415744,0.278629972043,0.00179108630746,-0.0087630683939,0.715912657436,0.698132557302
1543475346659629000,626,1543475346659629000,/map,1.34223716231,18.5351197077,0.293595981285,0.00182024762635,-0.0088199359223,0.715906233347,0.698138353396
1543475346759360000,627,1543475346759360000,/map,1.32964535531,18.5314586185,0.273485692823,0.00186465684305,-0.00866895097607,0.716081033209,0.697960834304
1543475346859237000,628,1543475346859237000,/map,1.34449762473,18.526474938,0.291969487624,0.00183363176588,-0.00889671155243,0.715809411553,0.698236616521
1543475346958952000,629,1543475346958952000,/map,1.33237854839,18.5398820631,0.278238822099,0.0018769099053,-0.00876707601611,0.71600162363,0.698041037867
1543475347058767000,630,1543475347058767000,/map,1.33766022799,18.5238153625,0.288592628997,0.00182059489805,-0.00891075553498,0.715926869437,0.698116037266
1543475347158557000,631,1543475347158557000,/map,1.33337766983,18.5388781974,0.279054131112,0.00190615254278,-0.00875602853717,0.716044738306,0.697996870545
1543475347258381000,632,1543475347258381000,/map,1.34669346647,18.5273693065,0.287514868059,0.00187616301052,-0.00879330569522,0.715811764735,0.698235401032
1543475347358162000,633,1543475347358162000,/map,1.33152281338,18.5315359298,0.290356172042,0.00173742081378,-0.00887943793528,0.716024822606,0.698016182021
1543475347457982000,634,1543475347457982000,/map,1.33915863537,18.5338178153,0.278949354752,0.00193924050966,-0.00882943374081,0.71573886009,0.698309504878
1543475347557789000,635,1543475347557789000,/map,1.33025193912,18.5380417061,0.292844626664,0.00182732723577,-0.00881061829896,0.716295395914,0.697739163064
1543475347657596000,636,1543475347657596000,/map,1.3411501646,18.5357475281,0.279553294182,0.00184491824643,-0.0088645366904,0.715758616489,0.698289065636
1543475347757432000,637,1543475347757432000,/map,1.32649928622,18.5307724756,0.289357156776,0.00182897965175,-0.00881691115939,0.71613218459,0.697906591963
1543475347857209000,638,1543475347857209000,/map,1.35068508921,18.5279823284,0.281718857277,0.00183780641009,-0.0088340827358,0.715869798422,0.698175488797
1543475347957020000,639,1543475347957020000,/map,1.33456996642,18.5369540617,0.283190325313,0.00185560442086,-0.00875106399439,0.71594694489,0.698097376957
1543475348056869000,640,1543475348056869000,/map,1.33197658518,18.5316425115,0.287304258559,0.00181033728973,-0.00881252027055,0.716081598197,0.697958599695
1543475348156677000,641,1543475348156677000,/map,1.3430521584,18.5266812286,0.278438108259,0.00185259606906,-0.0088267478826,0.715335369969,0.698723095998
1543475348256489000,642,1543475348256489000,/map,1.33228705757,18.539734088,0.294091586937,0.00182636257415,-0.00880312880544,0.716168848555,0.697869149399
1543475348356323000,643,1543475348356323000,/map,1.33758208585,18.5221906216,0.2859678384,0.00180667582835,-0.00883268895343,0.715959996935,0.69808309127
1543475348456199000,644,1543475348456199000,/map,1.33063893981,18.535083258,0.282482389798,0.00182778628671,-0.00872036064107,0.715881795944,0.698164643006
1543475348555976000,645,1543475348555976000,/map,1.3511050109,18.5327582212,0.27886622355,0.00189956928408,-0.00880508378452,0.715987503831,0.698054980996
1543475348655857000,646,1543475348655857000,/map,1.32300357505,18.5363581055,0.28374284284,0.00180225145345,-0.00879419588308,0.715899149929,0.698145988415
1543475348755674000,647,1543475348755674000,/map,1.33934415781,18.5332378007,0.289268318979,0.00183253983116,-0.008788159068,0.715919776213,0.69812483417
1543475348855479000,648,1543475348855479000,/map,1.33420597486,18.5312902036,0.274182912069,0.00184017383441,-0.00869238075758,0.715856491349,0.698190905176
1543475348955353000,649,1543475348955353000,/map,1.34687400975,18.5335277184,0.291086774207,0.00186520273456,-0.00880774648588,0.715995470345,0.698046868818
1543475349055165000,650,1543475349055165000,/map,1.33612640748,18.5303028943,0.282572015113,0.00179842607189,-0.00882813160003,0.715883060395,0.698162068287
1543475349155075000,651,1543475349155075000,/map,1.32962038651,18.5439895065,0.290218503469,0.00184326753745,-0.00891846070576,0.715897495224,0.698146001747
1543475349254937000,652,1543475349254937000,/map,1.34104108721,18.5274892845,0.274351453001,0.00184934794362,-0.00869145998213,0.71597538383,0.698068970937
1543475349354753000,653,1543475349354753000,/map,1.33956696215,18.5273888324,0.293455415246,0.00192189994711,-0.00879594640686,0.71583605797,0.698210337747
1543475349454636000,654,1543475349454636000,/map,1.32798578969,18.5307199914,0.279463827491,0.00174405771261,-0.00882967757934,0.715990259065,0.69805225018
1543475349554496000,655,1543475349554496000,/map,1.34631710117,18.5447085083,0.289086150693,0.00181947835236,-0.00889003779986,0.715860662508,0.698184193892
1543475349654311000,656,1543475349654311000,/map,1.33452438958,18.5293139878,0.279800304407,0.00182026833692,-0.00872888498991,0.715985371349,0.698058336534
1543475349754175000,657,1543475349754175000,/map,1.32931922173,18.5418244943,0.284972438337,0.00180080290321,-0.00876871288634,0.715662593351,0.69838880236
1543475349854040000,658,1543475349854040000,/map,1.34585148449,18.5240973749,0.280437332525,0.00186900645077,-0.00878582553341,0.716089144063,0.697951039715
1543475349953863000,659,1543475349953863000,/map,1.33300680373,18.5294726431,0.288124628548,0.00182196664916,-0.00894316496057,0.715963675508,0.698077872154
1543475350053766000,660,1543475350053766000,/map,1.33065570786,18.5309336874,0.286907535261,0.00179608399611,-0.00899784968555,0.715905030375,0.698137379222
1543475350153640000,661,1543475350153640000,/map,1.34217362377,18.5383918823,0.278744444917,0.00180117004,-0.00876363137768,0.715845852963,0.698201023594
1543475350253489000,662,1543475350253489000,/map,1.33530850864,18.5313934364,0.294440906829,0.00185798409001,-0.00882067695866,0.715936868161,0.69810682876
1543475350353404000,663,1543475350353404000,/map,1.32746992042,18.5192406241,0.275333373581,0.00181735632386,-0.00881142245928,0.715959925039,0.69808340604
1543475350453254000,664,1543475350453254000,/map,1.33684585385,18.5397790232,0.289708688674,0.00176433074882,-0.00878701616838,0.715926248358,0.698118387092
1543475350553158000,665,1543475350553158000,/map,1.33786318046,18.5312991485,0.282318963921,0.00188724257046,-0.00880077254262,0.715950627284,0.698092890674
1543475350653011000,666,1543475350653011000,/map,1.33894217193,18.5292117863,0.281323534763,0.00188471288746,-0.00879678892983,0.715945714547,0.698097986091
1543475350752890000,667,1543475350752890000,/map,1.33618325146,18.5435865057,0.291458436853,0.00176604127263,-0.00884785128087,0.715887438887,0.69815741167
1543475350852768000,668,1543475350852768000,/map,1.33875214109,18.5249825132,0.279134551691,0.00181602077932,-0.008785616776,0.715861261815,0.698184910206
1543475350952618000,669,1543475350952618000,/map,1.34042929621,18.5374842212,0.286245978486,0.00180307108609,-0.00885718039019,0.716020594769,0.698020635194
1543475351052519000,670,1543475351052519000,/map,1.33364561527,18.5224293043,0.281549967099,0.00182682014645,-0.00866270485414,0.715894860035,0.698151967446
1543475351152462000,671,1543475351152462000,/map,1.34186108801,18.5347723151,0.287344629799,0.00184107539278,-0.00888469749391,0.715874077236,0.698170450631
1543475351252313000,672,1543475351252313000,/map,1.33182515904,18.5401056997,0.273557434294,0.00182564481195,-0.00865459814852,0.715982764686,0.698061921053
1543475351352226000,673,1543475351352226000,/map,1.34418304927,18.5251011912,0.292557392273,0.00187823151669,-0.0087932729966,0.715924990229,0.698119301382
1543475351452112000,674,1543475351452112000,/map,1.3332107662,18.5383080381,0.278807535335,0.00185401449082,-0.00886518045778,0.716005689891,0.698035689094
1543475351552000000,675,1543475351552000000,/map,1.34403486625,18.5291594935,0.288758818499,0.00189169590842,-0.00878555272554,0.715836957394,0.698209628964
1543475351651882000,676,1543475351651882000,/map,1.33059089663,18.540658684,0.282006847707,0.00179128761133,-0.00882385265371,0.716005645166,0.698036422404
1543475351751811000,677,1543475351751811000,/map,1.33974677455,18.5281162281,0.285774936195,0.00182308141984,-0.00870176871312,0.715891682843,0.698154749344
1543475351851700000,678,1543475351851700000,/map,1.32866716183,18.5384718672,0.281868802628,0.00185456239365,-0.00876375291726,0.716028963091,0.698013095327
1543475351951641000,679,1543475351951641000,/map,1.34606793494,18.5316228782,0.287322249995,0.00182113272083,-0.0088658030529,0.71576993475,0.698277510392
1543475352051507000,680,1543475352051507000,/map,1.33534543325,18.5289533411,0.272116015737,0.0017851053869,-0.00872123154453,0.716147917204,0.69789176396
1543475352151391000,681,1543475352151391000,/map,1.3371895299,18.5360836604,0.2984084946,0.00183092728217,-0.00886296327198,0.715719929965,0.698328774602
1543475352251339000,682,1543475352251339000,/map,1.33686945002,18.5320105078,0.277368656158,0.00187568773199,-0.0087644421029,0.715951163274,0.698092829183
1543475352351252000,683,1543475352351252000,/map,1.33535785184,18.5328025865,0.293870923754,0.00175971540471,-0.00887332441274,0.716038501432,0.698002171904
1543475352451168000,684,1543475352451168000,/map,1.3415721265,18.5295810214,0.280287143681,0.00184104807439,-0.00881135789501,0.715734599103,0.698314366286
1543475352551093000,685,1543475352551093000,/map,1.33075105206,18.5415482414,0.28432333333,0.00188856530117,-0.00886458313291,0.716142277827,0.6978954724
1543475352651008000,686,1543475352651008000,/map,1.33498632105,18.5234648488,0.283569851237,0.00184422765089,-0.00870973941035,0.715855794974,0.698191392146
1543475352750929000,687,1543475352750929000,/map,1.33777102489,18.5379679236,0.285992683582,0.00181300585351,-0.00882315403451,0.715872300136,0.69817312671
1543475352850830000,688,1543475352850830000,/map,1.33017124869,18.5279928441,0.276079591191,0.00187315373161,-0.00878019630255,0.715916370862,0.698128318706
1543475352950729000,689,1543475352950729000,/map,1.34001558212,18.529830944,0.291485080691,0.00179378785084,-0.0088043616572,0.715842134863,0.69820434222
1543475353050665000,690,1543475353050665000,/map,1.33510227433,18.5360575662,0.271420281701,0.00179104299034,-0.00875021214693,0.715964327011,0.698079729258
1543475353150616000,691,1543475353150616000,/map,1.33908248222,18.5317782268,0.294264410593,0.00190588370523,-0.00881691287694,0.715820648425,0.698225915405
1543475353250566000,692,1543475353250566000,/map,1.33402349292,18.5298824441,0.270668108928,0.00175905246502,-0.00875439037066,0.716014829046,0.698027958588
1543475353350455000,693,1543475353350455000,/map,1.34985814972,18.5380418852,0.290949740662,0.00185116822111,-0.00880156890638,0.715848298373,0.698197908388
1543475353450370000,694,1543475353450370000,/map,1.3267711993,18.5292236938,0.283345276022,0.00185385675622,-0.00878088938352,0.716012560317,0.698029707581
1543475353550328000,695,1543475353550328000,/map,1.33575162126,18.5384764469,0.274572001074,0.00182845499859,-0.00866089329738,0.715844655029,0.698203462858
1543475353650263000,696,1543475353650263000,/map,1.34169373516,18.5287444865,0.290799130836,0.00182964793111,-0.00890515565003,0.716055016118,0.697984644877
1543475353750181000,697,1543475353750181000,/map,1.33169100834,18.536372764,0.274072985433,0.0019193338143,-0.00877560763555,0.715853973828,0.698192232142
1543475353850202000,698,1543475353850202000,/map,1.34708963288,18.5241609499,0.290647016884,0.0018176034783,-0.00885837417149,0.715915907272,0.698127953343
1543475353950047000,699,1543475353950047000,/map,1.32835746015,18.5338799002,0.279429663315,0.00187776143267,-0.00878394853101,0.715952436338,0.698091272802
1543475354049970000,700,1543475354049970000,/map,1.33634559379,18.5284507186,0.27827428969,0.00186151546694,-0.00880330344818,0.715785979948,0.69826174714
1543475354149975000,701,1543475354149975000,/map,1.33399852871,18.5364921538,0.293384924324,0.00183065632562,-0.00876149855656,0.716071321749,0.697969732158
1543475354249894000,702,1543475354249894000,/map,1.33364487182,18.5313824059,0.269128543867,0.0019022913578,-0.00875069708557,0.715813123725,0.698234472431
1543475354349835000,703,1543475354349835000,/map,1.34049520597,18.539963611,0.291666226912,0.00185428917699,-0.00879580506278,0.715922185245,0.698122210002
1543475354449795000,704,1543475354449795000,/map,1.33551377491,18.5205444775,0.279641016926,0.00184405825614,-0.00882150959385,0.715936629859,0.698107099551
1543475354549762000,705,1543475354549762000,/map,1.33595846426,18.5385078175,0.275640733795,0.00190620794251,-0.00873258302515,0.715974363462,0.698069351304
1543475354649684000,706,1543475354649684000,/map,1.34335535502,18.5278866837,0.289771859145,0.00182891132121,-0.0087823310491,0.715941222302,0.698102923611
1543475354749629000,707,1543475354749629000,/map,1.32936715507,18.5420240134,0.284523983383,0.00181584792866,-0.00880635620471,0.715834458365,0.698212130376
1543475354849602000,708,1543475354849602000,/map,1.33684917393,18.5226879074,0.279475589756,0.00180268591711,-0.00878731762292,0.716005547612,0.698036954008
1543475354949552000,709,1543475354949552000,/map,1.3418414692,18.5401103227,0.287106636896,0.00186251815539,-0.00878837499229,0.715935707725,0.698108414142
1543475355049516000,710,1543475355049516000,/map,1.33128328301,18.5308644391,0.28344957397,0.00176056988608,-0.00878490979141,0.715819694047,0.698227678747
1543475355149432000,711,1543475355149432000,/map,1.34988046697,18.5256803537,0.28685500988,0.00178701501152,-0.0088855053292,0.715989400565,0.698052313692
1543475355249406000,712,1543475355249406000,/map,1.33360725156,18.5434382574,0.28595570274,0.00173432048267,-0.00886072377612,0.715924032131,0.698119803418
1543475355349417000,713,1543475355349417000,/map,1.32938725722,18.5307912085,0.274551595916,0.00185566238931,-0.0087524682542,0.715900966869,0.69814450972
1543475355449326000,714,1543475355449326000,/map,1.34999755571,18.5296727034,0.288606129515,0.00179298962849,-0.00882889502968,0.715903840225,0.698140764712
1543475355549359000,715,1543475355549359000,/map,1.332093978,18.5371738545,0.279538140686,0.00177723612205,-0.00872822631937,0.715964922925,0.698079428602
1543475355649257000,716,1543475355649257000,/map,1.344948037,18.5212967626,0.283387646321,0.00186746639212,-0.00880278667965,0.715925672341,0.698118510855
1543475355749234000,717,1543475355749234000,/map,1.32972761836,18.5439879339,0.27660070338,0.00187058736663,-0.00866357508191,0.715927052637,0.698118828476
1543475355849176000,718,1543475355849176000,/map,1.33964785182,18.5312012336,0.28810734279,0.0018367198166,-0.00881146720055,0.715966179361,0.698076940257
1543475355949191000,719,1543475355949191000,/map,1.32610119516,18.534254329,0.269835711827,0.00194525752142,-0.008682657857,0.715904745437,0.698141262845
1543475356049149000,720,1543475356049149000,/map,1.34239228703,18.5268002734,0.291951883643,0.00185394681759,-0.00877422802731,0.715928140069,0.698116375729
1543475356149128000,721,1543475356149128000,/map,1.32867593513,18.5394468324,0.275311587644,0.00178731984028,-0.00874213572965,0.715937677246,0.698107171465
1543475356249112000,722,1543475356249112000,/map,1.34734011071,18.5334949142,0.2898922091,0.00180853541353,-0.00879166051031,0.715940046116,0.698104065503
1543475356349070000,723,1543475356349070000,/map,1.33326512226,18.5275868428,0.283555560125,0.00184288098966,-0.00881849415659,0.715862906285,0.698182739228
1543475356449055000,724,1543475356449055000,/map,1.33003788778,18.52768664,0.28199797725,0.00180276462532,-0.00893438088484,0.715918077611,0.698124797603
1543475356549026000,725,1543475356549026000,/map,1.34424193036,18.5434712971,0.28104498518,0.00180591719669,-0.00878921729159,0.715924636629,0.698119905883
1543475356649005000,726,1543475356649005000,/map,1.33286094732,18.5304868247,0.286492524427,0.00182844053455,-0.00878267436826,0.715889895206,0.698155555287
1543475356749038000,727,1543475356749038000,/map,1.34469235734,18.5287596481,0.276466404741,0.00189114136128,-0.00872568902067,0.715775918343,0.698272955696
1543475356848988000,728,1543475356848988000,/map,1.33012703448,18.5389638677,0.286046893298,0.00178059729846,-0.00883737419816,0.716056898767,0.697983701829
1543475356948943000,729,1543475356948943000,/map,1.34661560021,18.5328654701,0.28051691465,0.00186751862937,-0.00876122702961,0.715934373933,0.698110109866
1543475357048948000,730,1543475357048948000,/map,1.33525552185,18.518728265,0.284607380937,0.00181062004177,-0.00878243318757,0.715852923511,0.698193513593
1543475357148962000,731,1543475357148962000,/map,1.34132125656,18.5313990008,0.281945408934,0.00179428035299,-0.00880275543188,0.716002257495,0.698040155949
1543475357248889000,732,1543475357248889000,/map,1.33398376316,18.5247591738,0.278563344487,0.00181627174621,-0.00875407868344,0.715886425378,0.698159504141
1543475357348890000,733,1543475357348890000,/map,1.33317227471,18.5363079881,0.291203498484,0.001757931414,-0.00882119825165,0.7159847193,0.698058004658
1543475357448964000,734,1543475357448964000,/map,1.34147582032,18.5405687781,0.277634589593,0.00186478976932,-0.0087517843058,0.715922488208,0.698122424585
1543475357548911000,735,1543475357548911000,/map,1.33898806783,18.5198371909,0.290570746258,0.00179106886783,-0.0088738301334,0.715884345721,0.698160189901
1543475357648884000,736,1543475357648884000,/map,1.33082264656,18.5332629445,0.27806963484,0.00185031069483,-0.0087110786784,0.715986352741,0.698057473384
1543475357748912000,737,1543475357748912000,/map,1.34468698437,18.5246088709,0.289970768731,0.00180608846265,-0.00883525977871,0.715823213507,0.698223319027
1543475357848870000,738,1543475357848870000,/map,1.33833074871,18.5434095383,0.282787509301,0.00187656429833,-0.0087639071952,0.716038165127,0.698003594918
1543475357948859000,739,1543475357948859000,/map,1.3247205505,18.5278041335,0.281572020293,0.00175667389957,-0.00879058386974,0.71585850707,0.698187824004
1543475358048902000,740,1543475358048902000,/map,1.34802515337,18.5329898615,0.286437606628,0.00183912659977,-0.00878728933716,0.715995771089,0.698046887353
1543475358148862000,741,1543475358148862000,/map,1.33703876942,18.5287471356,0.282358074904,0.00187774365523,-0.00879026464531,0.715801810102,0.698245640144
1543475358248870000,742,1543475358248870000,/map,1.3450131574,18.5427904937,0.288760485598,0.00173287597473,-0.00882011248043,0.716081634332,0.697958663338
1543475358348934000,743,1543475358348934000,/map,1.33971407608,18.5260266102,0.283293282735,0.00176718585361,-0.0088391897616,0.715855246231,0.698190527164
1543475358448902000,744,1543475358448902000,/map,1.33948028606,18.5244822061,0.280381854594,0.00175539630531,-0.00900129611241,0.715846225093,0.698197735081
1543475358548907000,745,1543475358548907000,/map,1.3305642831,18.5489159346,0.294562416551,0.00179992948883,-0.00881030565663,0.71600258331,0.698039711951
1543475358648926000,746,1543475358648926000,/map,1.34645587548,18.5301488815,0.278176654146,0.00180211080741,-0.00876989494292,0.715976148258,0.698067329464
1543475358748882000,747,1543475358748882000,/map,1.33453879351,18.5243809417,0.292011994329,0.0017554699838,-0.00888649371162,0.715821170538,0.698224892398
1543475358848901000,748,1543475358848901000,/map,1.33407084539,18.5453408139,0.282232830135,0.0018691762036,-0.00878114181785,0.715982885833,0.698060101226
1543475358948944000,749,1543475358948944000,/map,1.3321786238,18.5299616554,0.27821114134,0.00178632221645,-0.00875079368376,0.715932428174,0.698112448644
1543475359048921000,750,1543475359048921000,/map,1.34333732794,18.5358097571,0.289953451471,0.0018332132501,-0.00881213419459,0.715969958775,0.698073064766
1543475359148918000,751,1543475359148918000,/map,1.32520290446,18.5378230328,0.282872506099,0.00180228195705,-0.00883569696387,0.715907794449,0.698136599876
1543475359248970000,752,1543475359248970000,/map,1.34211295214,18.524702705,0.281269187771,0.00183644260261,-0.00879378922117,0.715958255937,0.69808529028
1543475359348980000,753,1543475359348980000,/map,1.33399049636,18.5436450046,0.277467892573,0.00183822183596,-0.00869373952003,0.715900204899,0.698146071005
1543475359448969000,754,1543475359448969000,/map,1.33507637752,18.5289486829,0.291886645071,0.00181492057088,-0.00887729059149,0.715932751008,0.698110446712
1543475359549014000,755,1543475359549014000,/map,1.33770807651,18.542941013,0.282319824067,0.00185631291847,-0.00878775122926,0.715953018513,0.698090685236
1543475359649016000,756,1543475359649016000,/map,1.34404199134,18.5224127838,0.283215846052,0.00179329666211,-0.00877451306718,0.715852903237,0.69819367867
1543475359749078000,757,1543475359749078000,/map,1.32944891118,18.5371324375,0.291132059267,0.0018045300146,-0.00877706693461,0.716033804057,0.69800809323
1543475359849071000,758,1543475359849071000,/map,1.34821026084,18.5263811424,0.276248847565,0.00182172323581,-0.00878426402242,0.715811495062,0.69823593546
1543475359949103000,759,1543475359949103000,/map,1.33074907699,18.5346669675,0.293397179002,0.00179897116605,-0.00883883886389,0.715974053968,0.698068616022
1543475360049127000,760,1543475360049127000,/map,1.34985809325,18.5220779709,0.277535126214,0.00184266034936,-0.00875261011142,0.715964166621,0.698079729354
1543475360149151000,761,1543475360149151000,/map,1.33117878437,18.5415878296,0.291925191879,0.0017555484573,-0.00885055275141,0.715961410502,0.698081545694
1543475360249160000,762,1543475360249160000,/map,1.34033250338,18.5240276485,0.276058559336,0.0019121299966,-0.00875955752406,0.715864513867,0.698181646634
1543475360349184000,763,1543475360349184000,/map,1.34369219936,18.5431719757,0.284674871043,0.00187496462071,-0.00877547557836,0.716031173655,0.698010625915
1543475360449207000,764,1543475360449207000,/map,1.3272356493,18.5316295852,0.27714613108,0.00181553137901,-0.00874475138873,0.715845968529,0.698201104632
1543475360549213000,765,1543475360549213000,/map,1.348655785,18.5251682082,0.281241205413,0.00190215432708,-0.00868683341501,0.715971263288,0.698073112847
1543475360649248000,766,1543475360649248000,/map,1.32995748982,18.5340792562,0.291823927165,0.00180219150226,-0.00877289658079,0.715929491176,0.698115142406
1543475360749319000,767,1543475360749319000,/map,1.34123460708,18.5249182702,0.282239548226,0.00182650269316,-0.00880206295337,0.715761029459,0.698287430994
1543475360849325000,768,1543475360849325000,/map,1.34067141888,18.5475916386,0.277884882359,0.00180125763372,-0.00877873207635,0.715991909401,0.698051054728
1543475360949360000,769,1543475360949360000,/map,1.34210981009,18.5207093949,0.286956329652,0.0018317622987,-0.00875226676505,0.715881376153,0.69816466378
1543475361049370000,770,1543475361049370000,/map,1.3313544921,18.5378140358,0.285800590981,0.00177974874424,-0.00886267065321,0.715966149637,0.698076470122
1543475361149418000,771,1543475361149418000,/map,1.33970257594,18.5251563283,0.285386415198,0.00183720835948,-0.00876788625341,0.715876217826,0.698169742675
1543475361249464000,772,1543475361249464000,/map,1.33439389395,18.5393485026,0.287967057642,0.00176242723358,-0.00892157392245,0.716076089351,0.697962988724
1543475361349519000,773,1543475361349519000,/map,1.34035236679,18.5345878704,0.27315186768,0.00186442606924,-0.00870049411921,0.715950741677,0.698094091659
1543475361449565000,774,1543475361449565000,/map,1.33715336484,18.5336418526,0.293289057159,0.00183418256251,-0.00879331142605,0.715803048795,0.698244447729
1543475361549557000,775,1543475361549557000,/map,1.33195674521,18.5420853878,0.292743089894,0.00173085505986,-0.00887759292357,0.716269378377,0.697765268614
1543475361649594000,776,1543475361649594000,/map,1.34965407595,18.5252866591,0.273093192422,0.00183555404142,-0.00876818441581,0.715855769106,0.698190709994
1543475361749636000,777,1543475361749636000,/map,1.33061296495,18.5416224103,0.285138820226,0.0018301838385,-0.00883598803612,0.715897058666,0.6981475325
1543475361849717000,778,1543475361849717000,/map,1.34058496932,18.5271359019,0.285132296529,0.00185238994172,-0.00881592443721,0.715945857212,0.698097684904
1543475361949731000,779,1543475361949731000,/map,1.32414678702,18.5237454045,0.282040959663,0.00183652714124,-0.00871656952729,0.715770962811,0.698278295081
1543475362049791000,780,1543475362049791000,/map,1.34283473505,18.5269868846,0.281948893768,0.00186201544878,-0.00877173440729,0.715982239405,0.698060901663
1543475362149848000,781,1543475362149848000,/map,1.33719396417,18.5468460983,0.27692803203,0.00180691043109,-0.00875378908395,0.715964597256,0.698079366352
1543475362249889000,782,1543475362249889000,/map,1.32784619703,18.5280997817,0.281904642795,0.00187044009246,-0.00876990041698,0.715953225979,0.698090659235
1543475362349919000,783,1543475362349919000,/map,1.34345661907,18.5388943079,0.289272797161,0.00182902992,-0.00882829170242,0.715931485328,0.698112329236
1543475362449956000,784,1543475362449956000,/map,1.33454012777,18.5313204168,0.273434828786,0.00186440235599,-0.00874831991379,0.715935813346,0.698108803892
1543475362550010000,785,1543475362550010000,/map,1.33413618665,18.5469810464,0.285549938306,0.00180491774867,-0.00879272605776,0.716004041051,0.698038425475
1543475362650064000,786,1543475362650064000,/map,1.33827424049,18.517698288,0.288285493851,0.00177128263958,-0.00878166028041,0.715798868873,0.698249041762
1543475362750134000,787,1543475362750134000,/map,1.33750325619,18.5436928116,0.278206374114,0.0018254654023,-0.00876809597272,0.715962066589,0.698081734021
1543475362850195000,788,1543475362850195000,/map,1.33818025586,18.5245404779,0.282219389894,0.00188453699962,-0.00868015741389,0.715919913336,0.698125906321
1543475362950217000,789,1543475362950217000,/map,1.33946717125,18.5377907725,0.289393890441,0.00179799264109,-0.00881916728893,0.715892104566,0.698152908846
1543475363050314000,790,1543475363050314000,/map,1.3315303211,18.5443535076,0.275147418624,0.00179600041693,-0.00874756642421,0.715985111426,0.698058432139
1543475363150315000,791,1543475363150315000,/map,1.33338125933,18.5293988675,0.290902355646,0.00186834551918,-0.00879021386626,0.71595606357,0.698087499145
1543475363250386000,792,1543475363250386000,/map,1.34804053101,18.5277534422,0.277031738788,0.0018522258224,-0.00875978438903,0.715945428207,0.698098832019
1543475363350432000,793,1543475363350432000,/map,1.33483857957,18.531042098,0.285780830001,0.00183317084286,-0.00879027955805,0.715877731708,0.698167919425
1543475363450478000,794,1543475363450478000,/map,1.35207283497,18.5247974396,0.287566661835,0.00177209082423,-0.00882579238653,0.715969954234,0.698073054713
1543475363550592000,795,1543475363550592000,/map,1.33621536353,18.5385072444,0.28814868446,0.00175463974261,-0.00885995695084,0.71591121018,0.698132911085
1543475363650588000,796,1543475363650588000,/map,1.34265994102,18.5297147385,0.276051813189,0.00185973341493,-0.00879238758396,0.715899227687,0.6981457807
1543475363750650000,797,1543475363750650000,/map,1.33870051621,18.5365407534,0.293066280359,0.0017998007476,-0.00881698707869,0.715913159687,0.698131340969
1543475363850700000,798,1543475363850700000,/map,1.34225701702,18.5236860738,0.278407508316,0.00189913033436,-0.00876271947154,0.715874520176,0.698171382552
1543475363950791000,799,1543475363950791000,/map,1.32870203233,18.5408158988,0.2867430116,0.00176921257718,-0.00882237282765,0.715893838081,0.698151164307
1543475364050853000,800,1543475364050853000,/map,1.34676881394,18.5270320744,0.281961254422,0.00184389400633,-0.00875324560447,0.715966597527,0.698077224934
1543475364150914000,801,1543475364150914000,/map,1.33506813562,18.5314369176,0.286980730154,0.00179462321431,-0.00887842986536,0.715919848844,0.698123716001
1543475364250987000,802,1543475364250987000,/map,1.3488090579,18.5266244062,0.276877501648,0.00189946609576,-0.00879172683823,0.716041968996,0.697999280949
1543475364351050000,803,1543475364351050000,/map,1.33217259653,18.5387606464,0.293566673319,0.00180088795686,-0.00881438007399,0.715910687265,0.698133906473
1543475364451156000,804,1543475364451156000,/map,1.33983680091,18.5238931285,0.279124888509,0.00179835200556,-0.00878248637445,0.715862803237,0.698183414873
1543475364551177000,805,1543475364551177000,/map,1.33234107985,18.5428159583,0.279099661358,0.0018395902783,-0.00879765943448,0.715942272191,0.698101625829
1543475364651248000,806,1543475364651248000,/map,1.34159834741,18.5282306723,0.292076336526,0.00179419498089,-0.00886619692771,0.715917734941,0.698126040349
1543475364751320000,807,1543475364751320000,/map,1.33576379797,18.5400219363,0.287479285747,0.00173919244636,-0.00885461424075,0.715894354507,0.698150302014
1543475364851398000,808,1543475364851398000,/map,1.3415683633,18.5270955268,0.281152906164,0.00181806593006,-0.00877953905147,0.715978225282,0.698065036549
1543475364951462000,809,1543475364951462000,/map,1.32907593741,18.5396989853,0.286421732617,0.00180289900582,-0.00882019182101,0.715854640858,0.698191296805
1543475365051543000,810,1543475365051543000,/map,1.33964441569,18.5265476141,0.285571601554,0.00181221840442,-0.00881972729255,0.715869565016,0.698175976498
1543475365151615000,811,1543475365151615000,/map,1.33617929036,18.536620845,0.267029516155,0.00190990501318,-0.00867446976671,0.716041239173,0.698001468223
1543475365251688000,812,1543475365251688000,/map,1.33186814827,18.5300864985,0.293687907699,0.00179207008431,-0.0088125162952,0.715839460665,0.698206985496
1543475365351755000,813,1543475365351755000,/map,1.33588881235,18.5428005787,0.276092675776,0.00182769703101,-0.00873404061665,0.715912624666,0.698132859778
1543475365451875000,814,1543475365451875000,/map,1.34163172437,18.5204632779,0.292602160566,0.00182273757009,-0.00881257351167,0.715945324005,0.698098352105
1543475365551917000,815,1543475365551917000,/map,1.3330434936,18.5434780638,0.282360164328,0.00184386368925,-0.00883454230604,0.715956119609,0.69808694718
1543475365651971000,816,1543475365651971000,/map,1.34619597016,18.5227157132,0.27927832523,0.00185464167787,-0.0087528628653,0.715917338017,0.698127719563
1543475365752015000,817,1543475365752015000,/map,1.3289319319,18.5293579153,0.286243339335,0.00186277335839,-0.00882671265044,0.715838799587,0.698207298891
1543475365852104000,818,1543475365852104000,/map,1.34402586733,18.5400013898,0.282714780499,0.00181705472266,-0.00884726715228,0.716056436621,0.697983956656
1543475365952204000,819,1543475365952204000,/map,1.32937030075,18.5380956606,0.282461115575,0.00181843585617,-0.00880084854281,0.715807263689,0.698240073045
1543475366052269000,820,1543475366052269000,/map,1.33983636661,18.5165745115,0.289030199368,0.00182323530097,-0.00880572453832,0.715907344838,0.698137385215
1543475366152367000,821,1543475366152367000,/map,1.33436538869,18.543684934,0.280803065775,0.00182199177362,-0.00883535205435,0.715944133205,0.698099287372
1543475366252437000,822,1543475366252437000,/map,1.34359631436,18.5331957597,0.29208288197,0.00177297007532,-0.00882687435457,0.715929562447,0.698114463739
1543475366352521000,823,1543475366352521000,/map,1.33062680866,18.5405945524,0.274256955428,0.00188179189421,-0.00876201326072,0.71604606983,0.69799549559
1543475366452567000,824,1543475366452567000,/map,1.34377554198,18.5205815715,0.28165697453,0.00184753390838,-0.00876237176489,0.71581368432,0.698233898346
1543475366552711000,825,1543475366552711000,/map,1.32815117179,18.5400330329,0.290850175091,0.00181736358852,-0.00882286656393,0.715978183195,0.698064535271
1543475366652754000,826,1543475366652754000,/map,1.3417762858,18.5280298452,0.269012839845,0.00188844361358,-0.00871111557226,0.715905147562,0.698140651975
1543475366752823000,827,1543475366752823000,/map,1.33028600402,18.5317478809,0.299025823089,0.00179040605532,-0.00887829444602,0.715940198513,0.698102859532
1543475366852962000,828,1543475366852962000,/map,1.34127726833,18.5253121656,0.282890460541,0.00180318670297,-0.00883336662836,0.715892886968,0.698151913655
1543475366953008000,829,1543475366953008000,/map,1.33504345284,18.5445882025,0.281173372896,0.00178935153064,-0.00883350401705,0.715974420983,0.698068331846
1543475367053107000,830,1543475367053107000,/map,1.34150319659,18.5239300813,0.28418753079,0.00182193078089,-0.00880451819391,0.715809253809,0.698237977476
1543475367153164000,831,1543475367153164000,/map,1.33797987286,18.5429756098,0.282521393502,0.00177701577959,-0.00885043243653,0.715948650598,0.698094579385
1543475367253254000,832,1543475367253254000,/map,1.33610090578,18.5161137185,0.284810101134,0.00182737541593,-0.00877430897029,0.715865441908,0.698180736832
1543475367353369000,833,1543475367353369000,/map,1.33381430778,18.5421105029,0.282473137429,0.00180171668719,-0.00886186435256,0.715940311138,0.698102923691
1543475367453416000,834,1543475367453416000,/map,1.34112752597,18.5311938121,0.286023382116,0.001825193705,-0.00883059717515,0.715870232834,0.698175120557
1543475367553522000,835,1543475367553522000,/map,1.34119547208,18.5205290165,0.288530547086,0.00183021961596,-0.00882802442644,0.716081488272,0.697958464692
1543475367653633000,836,1543475367653633000,/map,1.33588912342,18.5405391354,0.28142069813,0.00180272224668,-0.00884866126221,0.715847864853,0.698197884393
1543475367753708000,837,1543475367753708000,/map,1.32801113233,18.5321962939,0.290960252158,0.00176595674332,-0.00884797726577,0.715953386471,0.698089781544
1543475367853802000,838,1543475367853802000,/map,1.34604757475,18.5368637044,0.281978561786,0.00172378008356,-0.00883696884684,0.716008072113,0.698033937021
1543475367953879000,839,1543475367953879000,/map,1.3293516895,18.535787505,0.275473188706,0.00191515899904,-0.00876308702995,0.715816719279,0.698230595773
1543475368053972000,840,1543475368053972000,/map,1.33914723062,18.5189157716,0.282432742528,0.00189154471569,-0.00874288848278,0.715958885033,0.698085137288
1543475368154075000,841,1543475368154075000,/map,1.3340033097,18.5393129715,0.286271702903,0.00184685786168,-0.00884852473055,0.715970905166,0.698071597819
1543475368254175000,842,1543475368254175000,/map,1.34404467492,18.5235253833,0.276948077371,0.00186412937775,-0.00875121907365,0.71593692613,0.698107627082
1543475368354311000,843,1543475368354311000,/map,1.33327022488,18.5463537121,0.290279741625,0.00180888065947,-0.00890261306302,0.715947317186,0.698095201563
1543475368454390000,844,1543475368454390000,/map,1.33840637629,18.5252834372,0.281126857977,0.00185102758381,-0.00877781190527,0.715920980929,0.698123680146
1543475368554502000,845,1543475368554502000,/map,1.33720155419,18.5363377258,0.291726083696,0.0017343769776,-0.00895706611172,0.715914327597,0.698128525735
1543475368654608000,846,1543475368654608000,/map,1.33122963102,18.5322380543,0.27444365924,0.00180644469738,-0.00870750956169,0.715960511265,0.69808413701
1543475368754672000,847,1543475368754672000,/map,1.34619558138,18.5256572941,0.291822657288,0.00179069477593,-0.00883660128573,0.715810877943,0.698235987979
1543475368854722000,848,1543475368854722000,/map,1.32953921303,18.5362524922,0.271830981394,0.00185694114225,-0.00873641301008,0.715984999832,0.698058526825
1543475368954814000,849,1543475368954814000,/map,1.34349288312,18.5338823685,0.293899420891,0.00180624417641,-0.00884872419844,0.715955722852,0.698087272823
1543475369054917000,850,1543475369054917000,/map,1.33810073115,18.514948788,0.286272751524,0.00177461246391,-0.00882685604178,0.715861124169,0.698184637661
1543475369155015000,851,1543475369155015000,/map,1.3356538566,18.547189137,0.279262720682,0.00183071361146,-0.00884050724825,0.715961727954,0.698081154325
1543475369255177000,852,1543475369255177000,/map,1.34241713546,18.5257536677,0.280725165567,0.00186468021783,-0.00875141652995,0.715947001405,0.698097290394
1543475369355222000,853,1543475369355222000,/map,1.33547224163,18.5374296986,0.292901808784,0.00175225686785,-0.00882979526517,0.715794466632,0.69825299559
1543475369455365000,854,1543475369455365000,/map,1.33170779898,18.5325004509,0.27213508512,0.0018181900471,-0.00877376160685,0.715982721115,0.698060497634
1543475369555454000,855,1543475369555454000,/map,1.34142407377,18.5206561774,0.290895553572,0.00185352336865,-0.00881526774724,0.715802323747,0.698244863084
1543475369655566000,856,1543475369655566000,/map,1.33304455029,18.5434207742,0.278613869759,0.00183151006472,-0.00876733844948,0.715972018641,0.698071520599
1543475369755661000,857,1543475369755661000,/map,1.33549797944,18.5327036112,0.292213166008,0.00179254454091,-0.00891008175955,0.715938386267,0.698104307605
1543475369855776000,858,1543475369855776000,/map,1.34371684397,18.5376724148,0.276683721433,0.00192060636533,-0.00874486793005,0.715872193698,0.698173933089
1543475369955886000,859,1543475369955886000,/map,1.33045207504,18.5365085427,0.290929091695,0.00179298762694,-0.00887085061758,0.715922427196,0.698121172464
1543475370055959000,860,1543475370055959000,/map,1.34348105255,18.5253468471,0.280923307504,0.001876862855,-0.00879441043212,0.71601311661,0.698028905257
1543475370156051000,861,1543475370156051000,/map,1.33317448558,18.5324422533,0.280568067277,0.00181211481554,-0.00875165430728,0.715687733869,0.698363223814
1543475370256190000,862,1543475370256190000,/map,1.33625949425,18.5502401243,0.286734472781,0.00183562392883,-0.00888402237047,0.716536890647,0.697490207081
1543475370356317000,863,1543475370356317000,/map,1.33823347057,18.5335888485,0.282808758315,0.00181825917273,-0.00878230759721,0.715722312202,0.698327385131
1543475370456388000,864,1543475370456388000,/map,1.34520617699,18.5274323276,0.283576857324,0.00187504110295,-0.00879057300452,0.716111062996,0.697928474489
1543475370556523000,865,1543475370556523000,/map,1.33411597539,18.5360500748,0.278954333138,0.00181399547124,-0.00874181350933,0.715719223621,0.698331069806
1543475370656612000,866,1543475370656612000,/map,1.34024906516,18.5238060977,0.273617239093,0.00197358963151,-0.00869183635674,0.716517506557,0.697512164569
1543475370756713000,867,1543475370756713000,/map,1.3367909085,18.5321886067,0.299955882893,0.00173515323891,-0.00885926184611,0.715533108872,0.698520488483
1543475370856831000,868,1543475370856831000,/map,1.33723861532,18.5411767408,0.278635720198,0.00180819938137,-0.00885565315254,0.716202573631,0.697833921034
1543475370956936000,869,1543475370956936000,/map,1.3434623222,18.5229500586,0.278039463259,0.00180702522344,-0.00876597909329,0.715864351011,0.698182012961
1543475371057065000,870,1543475371057065000,/map,1.33071305152,18.5384589542,0.29341466778,0.0018159491825,-0.00882419421309,0.715948141434,0.698095333534
1543475371157154000,871,1543475371157154000,/map,1.34271026899,18.5198258936,0.283542873554,0.00176945124922,-0.00881906567783,0.715857370364,0.69818859803
1543475371257277000,872,1543475371257277000,/map,1.32955387985,18.5413480532,0.278332831984,0.00188995895405,-0.00871857160494,0.71594340465,0.698101322089
1543475371357410000,873,1543475371357410000,/map,1.33590396014,18.5252013525,0.289088969024,0.00180380377712,-0.00882532642522,0.715861788809,0.698183900723
1543475371457499000,874,1543475371457499000,/map,1.3384848616,18.5434215816,0.274906928325,0.0018938394516,-0.00874538769291,0.716027921772,0.698014288399
1543475371557610000,875,1543475371557610000,/map,1.33847064164,18.5291854405,0.290716732724,0.00181585378503,-0.00882232652375,0.715882769212,0.698162395131
1543475371657756000,876,1543475371657756000,/map,1.34120133187,18.5391971213,0.2765177375,0.00183517044125,-0.008724980614,0.715989052504,0.698054570615
1543475371757828000,877,1543475371757828000,/map,1.33092026149,18.5264508365,0.283712332524,0.00189022043849,-0.00875469100239,0.715926869561,0.698117826654
1543475371857917000,878,1543475371857917000,/map,1.34846156486,18.5313034113,0.28551223919,0.00182683227328,-0.00884108182923,0.71587693947,0.698168106899
1543475371958066000,879,1543475371958066000,/map,1.33209247145,18.5353157719,0.286878634763,0.00181886997718,-0.00877548952548,0.71606513536,0.697975933982
1543475372058198000,880,1543475372058198000,/map,1.33082358429,18.5343340944,0.289269953654,0.00184916772106,-0.00875482326221,0.715988470546,0.698054756945
1543475372158291000,881,1543475372158291000,/map,1.34608078949,18.5207964503,0.279745269386,0.00189310069626,-0.00878425477622,0.715846293253,0.698200069803
1543475372258424000,882,1543475372258424000,/map,1.33229817347,18.5443626151,0.288483891999,0.00182722703766,-0.00884765294473,0.715996939643,0.698044957507
1543475372358533000,883,1543475372358533000,/map,1.33366268797,18.5269862286,0.284143910158,0.00183960072035,-0.00878541545158,0.715826926184,0.698220054205
1543475372458677000,884,1543475372458677000,/map,1.34433183964,18.5369482186,0.279006254477,0.00184967764431,-0.00880798596299,0.716104431208,0.697935127128
1543475372558770000,885,1543475372558770000,/map,1.32535046102,18.541957781,0.289759339391,0.001875469334,-0.00880669402893,0.715816299216,0.698230585503
1543475372658892000,886,1543475372658892000,/map,1.34595470075,18.5311288318,0.281487183086,0.00178708210314,-0.00879631330251,0.715865972943,0.69818001976
1543475372758996000,887,1543475372758996000,/map,1.33161470094,18.527558006,0.275698784593,0.00188611129691,-0.00869035529248,0.715977551757,0.698066662783
1543475372859121000,888,1543475372859121000,/map,1.34303625877,18.5368543961,0.296902315336,0.00181231423905,-0.0088339556712,0.715754810259,0.698293439992
1543475372959253000,889,1543475372959253000,/map,1.33053916132,18.5295713796,0.280344804261,0.00177559527283,-0.00884120582561,0.716090913039,0.697948769326
1543475373059367000,890,1543475373059367000,/map,1.33945471672,18.5374331151,0.276186243842,0.00187196243112,-0.00871558734872,0.715698384566,0.698352601931
1543475373159514000,891,1543475373159514000,/map,1.34211419059,18.5300075591,0.293969984092,0.00180331909528,-0.00883637302459,0.716153596694,0.697884440645
1543475373259636000,892,1543475373259636000,/map,1.32660551672,18.5415923922,0.276199868376,0.00189484716998,-0.00875019881415,0.715886243023,0.698159530927
1543475373359712000,893,1543475373359712000,/map,1.3403756642,18.5214650446,0.286466684918,0.00180637793238,-0.00879007415648,0.715936054496,0.698108184645
1543475373459881000,894,1543475373459881000,/map,1.33577766564,18.5340140742,0.280147642264,0.00178730859282,-0.00877901337892,0.715871716551,0.698174347778
1543475373559962000,895,1543475373559962000,/map,1.32974708365,18.5437416164,0.280880631768,0.00189444763275,-0.00879825118824,0.716244614432,0.697791268318
1543475373660103000,896,1543475373660103000,/map,1.33734010455,18.5209681983,0.286134918874,0.00180912317772,-0.00877698727171,0.715739486533,0.698309873183
1543475373760231000,897,1543475373760231000,/map,1.33074336186,18.5475356679,0.284063442194,0.00187989081764,-0.00880968081474,0.716016009967,0.698025736635
1543475373860378000,898,1543475373860378000,/map,1.34141430024,18.5296450863,0.275618836783,0.00191457291696,-0.00873520140658,0.71595682376,0.698087284785
1543475373960482000,899,1543475373960482000,/map,1.34237607122,18.5302589903,0.292449852948,0.00168837512773,-0.00884882445092,0.71590534017,0.698139235118
1543475374060614000,900,1543475374060614000,/map,1.33724272516,18.5330754623,0.274737555161,0.00188569880658,-0.00877360665867,0.715883866886,0.69816169839
1543475374160709000,901,1543475374160709000,/map,1.33106941429,18.527504911,0.287929102355,0.00178287441495,-0.00872624456459,0.715997428757,0.698046098784
1543475374260870000,902,1543475374260870000,/map,1.34069315435,18.5438067927,0.287703722105,0.00179628821964,-0.00887483239137,0.715772377741,0.698274955846
1543475374360987000,903,1543475374360987000,/map,1.33072220499,18.526819543,0.278956397976,0.0018127988966,-0.00875156695751,0.715987717696,0.698055665362
1543475374461079000,904,1543475374461079000,/map,1.34473121177,18.5339638961,0.288883597688,0.00174799700681,-0.00881716045174,0.71593152659,0.698112635198
1543475374561242000,905,1543475374561242000,/map,1.34155179943,18.5232337945,0.278621679391,0.00185695694164,-0.00880800620436,0.715903526425,0.698141183135
1543475374661338000,906,1543475374661338000,/map,1.33295693586,18.5409560034,0.285431120127,0.00182209489623,-0.00877930252419,0.715982765296,0.698060372473
1543475374761492000,907,1543475374761492000,/map,1.34785461616,18.5304744449,0.281297677482,0.00178690203041,-0.00878109469468,0.71587694705,0.698168959522
1543475374861621000,908,1543475374861621000,/map,1.3313093783,18.5255631519,0.284904066122,0.00189612300946,-0.00876693585494,0.715994211982,0.698048589972
1543475374961710000,909,1543475374961710000,/map,1.33660523028,18.5364899037,0.275790964943,0.00184965228577,-0.00870076298957,0.715825383432,0.698222669314
1543475375061856000,910,1543475375061856000,/map,1.3332601522,18.5277848384,0.293798271491,0.001756777363,-0.00883982889917,0.715865111303,0.698180430532
1543475375161976000,911,1543475375161976000,/map,1.34029331394,18.5387066383,0.279106301339,0.00180398966992,-0.00878660657913,0.716047654598,0.697993766098
1543475375262111000,912,1543475375262111000,/map,1.34227537082,18.5196083365,0.288903921503,0.00176979529242,-0.00884589138238,0.715842284629,0.698203724974
1543475375362321000,913,1543475375362321000,/map,1.32849979667,18.5405705522,0.281558191359,0.00191117773156,-0.00875894609528,0.715998096962,0.698044664337
1543475375462386000,914,1543475375462386000,/map,1.33606027197,18.5240758783,0.290520647027,0.00174923817299,-0.00879061752726,0.715844846119,0.698201848676
1543475375562516000,915,1543475375562516000,/map,1.33920539099,18.5399434536,0.276089658892,0.00184951255422,-0.00875941453334,0.71596032049,0.69808357053
1543475375662672000,916,1543475375662672000,/map,1.33735766398,18.5235314515,0.289630380913,0.00176620236971,-0.00883964276033,0.715887231241,0.698157728161
1543475375762800000,917,1543475375762800000,/map,1.33258730021,18.5359277557,0.272292689201,0.00190020355592,-0.00877801529645,0.715980508935,0.698062494695
1543475375862957000,918,1543475375862957000,/map,1.3419198387,18.5277913013,0.295170628369,0.00178957000421,-0.00885386126894,0.715800870465,0.698246031439
1543475375963085000,919,1543475375963085000,/map,1.33329334618,18.5316541365,0.270930718605,0.00185664626205,-0.00875124418194,0.716006523424,0.69803626482
1543475376063198000,920,1543475376063198000,/map,1.34061873057,18.536820921,0.297711162466,0.00180913619243,-0.00884625208794,0.715910260452,0.698133919695
1543475376163367000,921,1543475376163367000,/map,1.33931726582,18.52262946,0.276367650767,0.00182139477914,-0.00874963212899,0.715949201332,0.698095170854
1543475376263474000,922,1543475376263474000,/map,1.34076164339,18.5378960293,0.293001457662,0.00177207102583,-0.00884317467735,0.715876407454,0.698168767045
1543475376363577000,923,1543475376363577000,/map,1.33451937198,18.5311260612,0.279249002171,0.00189613326998,-0.00883357322131,0.716112182044,0.697926726377
1543475376463731000,924,1543475376463731000,/map,1.3409807915,18.5299352858,0.290896996825,0.00163844201759,-0.00882190709929,0.715266737597,0.69879394928
1543475376563868000,925,1543475376563868000,/map,1.32526109533,18.5423841365,0.278217361192,0.00191776791713,-0.00886556152232,0.716518488017,0.697509125614
1543475376663993000,926,1543475376663993000,/map,1.34836087907,18.5292477306,0.285623613564,0.00180147044329,-0.00885613174984,0.715881061498,0.698163755449
1543475376764149000,927,1543475376764149000,/map,1.33466943971,18.5343897149,0.289986916084,0.00183779426204,-0.00889985803233,0.715926252944,0.698116763432
1543475376864287000,928,1543475376864287000,/map,1.33191480455,18.5336971269,0.26769311551,0.0018568627875,-0.00863103800911,0.715913062496,0.698133614856
1543475376964394000,929,1543475376964394000,/map,1.33537734836,18.5251382715,0.296009637115,0.00179521314677,-0.00883509539421,0.715874525602,0.698170739786
1543475377064535000,930,1543475377064535000,/map,1.32989378919,18.5347432603,0.277258820117,0.00187522038272,-0.00875202422981,0.716027962063,0.698014214157
1543475377164715000,931,1543475377164715000,/map,1.3506416901,18.524202721,0.280969780903,0.0017798463316,-0.00881698244137,0.715884998336,0.698160269655
1543475377264860000,932,1543475377264860000,/map,1.32963686728,18.5341137941,0.289405271581,0.0018479916544,-0.00884020508739,0.715895373615,0.698149160093
1543475377365014000,933,1543475377365014000,/map,1.33614375682,18.5380824353,0.279017994306,0.00183996031478,-0.00871138493063,0.716124806258,0.697915459193
1543475377465127000,934,1543475377465127000,/map,1.35084918408,18.522839094,0.281718835458,0.00179219271552,-0.00879973554379,0.715795031057,0.698252695099
1543475377565285000,935,1543475377565285000,/map,1.33188931686,18.5344174787,0.287698124547,0.00185698212472,-0.00884865435517,0.715940532425,0.698102719494
1543475377665405000,936,1543475377665405000,/map,1.34180359256,18.5275829248,0.274142506021,0.00182703258225,-0.00873921352625,0.716046171425,0.697995822686
1543475377765557000,937,1543475377765557000,/map,1.33523917204,18.5352563399,0.2950835113,0.00181091833676,-0.00880124262734,0.715825302313,0.698221594676
1543475377865710000,938,1543475377865710000,/map,1.33548699816,18.525449718,0.278158976773,0.00178210948652,-0.00870360057491,0.715957467939,0.69808736955
1543475377965843000,939,1543475377965843000,/map,1.33772193928,18.5395058564,0.286085508145,0.00183508202494,-0.00881215537469,0.715879304366,0.69816602608
1543475378065967000,940,1543475378065967000,/map,1.33312958451,18.526487698,0.284878471023,0.00189838952918,-0.00884350530325,0.716080597266,0.697959000766
1543475378166117000,941,1543475378166117000,/map,1.34172465768,18.5387088179,0.28512329162,0.00181554903794,-0.00877280837989,0.715760170439,0.69828870822
1543475378266268000,942,1543475378266268000,/map,1.32944519808,18.5288924889,0.275578810021,0.00182945128689,-0.00880796766267,0.716070190705,0.697970310828
1543475378366397000,943,1543475378366397000,/map,1.33793679598,18.5384552224,0.295916979981,0.00181651274993,-0.00886938678131,0.715837962249,0.698207738472
1543475378466568000,944,1543475378466568000,/map,1.33318151914,18.5225040761,0.274700340637,0.00181936837097,-0.00877124298162,0.71589924977,0.698146130387
1543475378566688000,945,1543475378566688000,/map,1.33918119978,18.534927714,0.291826332299,0.00179727911938,-0.00879099020914,0.715882599874,0.698163012109
1543475378666809000,946,1543475378666809000,/map,1.3347370518,18.5278568068,0.289778248402,0.00179872317178,-0.00904121632525,0.716473485209,0.697553414438
1543475378766960000,947,1543475378766960000,/map,1.33522191869,18.5446513399,0.276226516056,0.00174408274829,-0.00877351345203,0.715457182503,0.698599315518
1543475378867125000,948,1543475378867125000,/map,1.3363848342,18.5350149497,0.293450545014,0.00185502487207,-0.00877514438897,0.716391261117,0.697641108822
1543475378967243000,949,1543475378967243000,/map,1.33439112501,18.5270426152,0.275120379932,0.00181748326906,-0.00875716678501,0.715515035511,0.698540079553
1543475379067373000,950,1543475379067373000,/map,1.34357621978,18.5355131594,0.283889438425,0.00181446198374,-0.00878398010387,0.716202611003,0.697834772288
1543475379167541000,951,1543475379167541000,/map,1.32898693935,18.5290938506,0.285618743227,0.00185184945498,-0.00876304884273,0.715615560235,0.698436933143
1543475379267703000,952,1543475379267703000,/map,1.33680598026,18.5381467683,0.278873601631,0.00180528056241,-0.00877511822117,0.716250519309,0.697785734916
1543475379367846000,953,1543475379367846000,/map,1.33823380703,18.5280138669,0.295124550839,0.00172846216151,-0.00892557376316,0.715683333999,0.69836574371
1543475379467978000,954,1543475379467978000,/map,1.32726793542,18.5421346476,0.277271758293,0.00183694927284,-0.00879376345684,0.716023109789,0.698018768795
1543475379568094000,955,1543475379568094000,/map,1.3336280528,18.5267685286,0.287321444283,0.00183608520135,-0.00877253218393,0.715982285989,0.698060912543
1543475379668259000,956,1543475379668259000,/map,1.3442184136,18.5364963672,0.275875825216,0.00182076765247,-0.00881491415058,0.715893706411,0.698151260985
1543475379768449000,957,1543475379768449000,/map,1.32772716178,18.5267649046,0.294230509428,0.0017629816489,-0.0088424740133,0.715881297373,0.698163784953
1543475379868556000,958,1543475379868556000,/map,1.33920537006,18.5275719159,0.281140515765,0.00182299745753,-0.00883854694562,0.716057996318,0.697982451554
1543475379968707000,959,1543475379968707000,/map,1.33853237107,18.5435269783,0.277007778195,0.00182919995394,-0.00876792142127,0.715771735082,0.698276879783
