%time,field.header.seq,field.header.stamp,field.header.frame_id,field.pose.position.x,field.pose.position.y,field.pose.position.z,field.pose.orientation.x,field.pose.orientation.y,field.pose.orientation.z,field.pose.orientation.w
1543475342953552000,0,1543475342953552000,/map,1.09224116802,-1.05261361599,1.97990632057,0.00783265338066,-0.00458713404207,-3.479295955e-06,0.999958803017
1543475343053827000,1,1543475343053827000,/map,1.15323376656,-0.712608575821,1.99747264385,0.00739515824498,-0.00461908532532,-0.000590669354834,0.999961812668
1543475343254353000,2,1543475343254353000,/map,1.04493820667,-0.1746173352,1.99339795113,0.00764470002665,-0.00444970745216,-0.00147529726156,0.999959790273
1543475343454818000,3,1543475343454818000,/map,0.947654128075,0.338311910629,1.99340593815,0.00771335549961,-0.0043146268881,-0.00189625506634,0.999959145345
1543475343555096000,4,1543475343555096000,/map,0.9613904953,0.609532773495,2.00353288651,0.00795241045136,-0.00440404129611,-0.000583585331851,0.999958510648
1543475343655289000,5,1543475343655289000,/map,1.21084308624,1.25372087955,2.00711965561,0.00772582422627,-0.00435785216438,0.00805259982262,0.999928235625
1543475343855821000,6,1543475343855821000,/map,1.48218631744,2.56829571724,2.02108836174,0.00801069190229,-0.0043134041166,0.0242288593324,0.999665036768
1543475343956071000,7,1543475343956071000,/map,1.63013708591,3.22145342827,2.01487255096,0.00811943090189,-0.00399055661669,0.0314455693775,0.999464519864
1543475344056295000,8,1543475344056295000,/map,1.78465795517,3.89905405045,2.05782628059,0.00787770835967,-0.00461846467975,0.0381642999237,0.999229752212
1543475344156547000,9,1543475344156547000,/map,1.9541118145,4.60650873184,2.07465481758,0.00804396587637,-0.00474586948227,0.0445623181457,0.99896294783
1543475344256839000,10,1543475344256839000,/map,2.07926225662,5.32628393173,2.09945034981,0.00773884265517,-0.00495277836219,0.0504217406005,0.998685750562
1543475344357040000,11,1543475344357040000,/map,1.52815997601,5.91808652878,2.12816667557,0.00751524080028,-0.00534597973197,0.053483363496,0.998526149625
1543475344457324000,12,1543475344457324000,/map,1.23282623291,6.30628395081,2.14319443703,0.00781193324593,-0.00558242326913,0.0602410083991,0.998137681463
1543475344657778000,13,1543475344657778000,/map,1.33339679241,7.24904203415,2.15360045433,0.0080177028149,-0.00554263397845,0.0718597271515,0.997367121608
1543475344958529000,14,1543475344958529000,/map,1.48092198372,8.69641971588,2.18272137642,0.00741260195082,-0.00568687731901,0.0890909488959,0.99597967629
1543475345058802000,15,1543475345058802000,/map,1.24289572239,9.20623683929,2.1996281147,0.007427953652,-0.00598833882473,0.0964376126157,0.995293299573
1543475345159055000,16,1543475345159055000,/map,1.35506272316,9.84164905548,2.19987344742,0.00793277102027,-0.00589888769455,0.101575253188,0.994778740328
1543475345359559000,17,1543475345359559000,/map,1.70071530342,10.9222278595,2.22544336319,0.00730918306879,-0.00599072811067,0.109711288496,0.993918568192
1543475345459809000,18,1543475345459809000,/map,1.86706566811,11.1143293381,2.21932864189,0.00715019356997,-0.00586899465912,0.108394133155,0.994064958406
1543475345760509000,19,1543475345760509000,/map,1.74268174171,11.6543951035,2.22810459137,0.00728849607258,-0.00578611364796,0.0942806521925,0.995502163401
1543475345960969000,20,1543475345960969000,/map,1.49517250061,11.934343338,2.24103832245,0.00723152122976,-0.00583262674614,0.0809284568817,0.996676612765
1543475346160694000,21,1543475346160694000,/map,1.2620344162,12.2151527405,2.23784661293,0.00745400513361,-0.00569035298214,0.0670786464166,0.997703619762
1543475346260464000,22,1543475346260464000,/map,1.14827036858,12.3749170303,2.23521995544,0.00729047064521,-0.00540883865216,0.0598153940396,0.998168178284
1543475346360261000,23,1543475346360261000,/map,0.995081663132,12.7790212631,2.24174571037,0.00702985316631,-0.00549380390776,0.052859008351,0.998562128522
1543475346460020000,24,1543475346460020000,/map,1.32574856281,13.2809286118,2.23350524902,0.00665910862444,-0.00522453602653,0.0424133334721,0.99906429705
1543475346659629000,25,1543475346659629000,/map,1.30344867706,15.1406240463,2.25051403046,0.00727841391594,-0.00487616633393,0.0131003468865,0.99987580659
1543475347058767000,26,1543475347058767000,/map,1.44434571266,19.205280304,2.27340126038,0.00687533292796,-0.00418564499404,-0.0359159839118,0.999322396563
1543475347258381000,27,1543475347258381000,/map,1.6284160614,20.9186248779,2.31144475937,0.00754368311818,-0.00413948892584,-0.0576964182199,0.99829709045
1543475347457982000,28,1543475347457982000,/map,1.82493042946,22.6340942383,2.33364439011,0.00781958185289,-0.00404465429518,-0.0793811673706,0.996805460046
1543475347557789000,29,1543475347557789000,/map,2.42552876472,23.2995853424,2.34822821617,0.00805491575835,-0.00403186936508,-0.0905933869278,0.995847227544
1543475347757432000,30,1543475347757432000,/map,3.34094309807,24.52435112,2.37776088715,0.00838054034885,-0.00337991267213,-0.115614189703,0.993253090543
1543475347857209000,31,1543475347857209000,/map,4.33056116104,25.3831443787,2.40635824203,0.00829251085022,-0.00334628646378,-0.122079325889,0.992480062682
1543475348156677000,32,1543475348156677000,/map,7.31084680557,27.5948696136,2.45979857445,0.00890747208665,-0.00295602323621,-0.143850906698,0.989554867357
1543475348356323000,33,1543475348356323000,/map,8.59829521179,29.1259288788,2.48691964149,0.00894303738048,-0.00280101562881,-0.152638014615,0.988237730958
1543475348655857000,34,1543475348655857000,/map,10.3800725937,31.415807724,2.50625538826,0.00904018354282,-0.00218630609989,-0.161752002709,0.986787608742
1543475348755674000,35,1543475348755674000,/map,10.9365968704,31.6328296661,2.4960205555,0.00902968119112,-0.00190281800883,-0.164570069785,0.986322227404
1543475348855479000,36,1543475348855479000,/map,11.8702249527,31.3334770203,2.50107216835,0.0090544266134,-0.00193770252591,-0.16197882774,0.986750790236
1543475349155075000,37,1543475349155075000,/map,13.9591083527,30.1172389984,2.505671978,0.0085129203212,-0.00232238069477,-0.153475613795,0.988113036401
1543475349354753000,38,1543475349354753000,/map,15.2821321487,29.2764053345,2.54618787766,0.0083841174774,-0.00287933156454,-0.148059976625,0.988938652974
1543475349454636000,39,1543475349454636000,/map,14.920293808,29.1785926819,2.54422497749,0.00837005943683,-0.00281848722635,-0.144214734793,0.989507002756
1543475349654311000,40,1543475349654311000,/map,14.1576147079,29.0794811249,2.54433202744,0.0082698182763,-0.00322175171322,-0.136728953145,0.990568737541
1543475349754175000,41,1543475349754175000,/map,13.768456459,29.0275936127,2.54921221733,0.00837090222134,-0.00325063280617,-0.132910444268,0.991087370108
1543475349854040000,42,1543475349854040000,/map,12.7545051575,29.2938671112,2.53427219391,0.00844406291827,-0.00339609663445,-0.129942196092,0.991479798082
1543475349953863000,43,1543475349953863000,/map,11.0067501068,29.5695800781,2.53650212288,0.00880872314644,-0.00335659126808,-0.121032738994,0.992603755677
1543475350253489000,44,1543475350253489000,/map,5.33031225204,30.8461017609,2.4467830658,0.00800382420584,-0.00292539199176,-0.0925102082259,0.99567526948
1543475350553158000,45,1543475350553158000,/map,-0.338604658842,32.1155586243,2.3721306324,0.00777273059424,-0.00273073572209,-0.0637201457206,0.997933800796
1543475350653011000,46,1543475350653011000,/map,-2.11554408073,32.5445327759,2.42411375046,0.00811228724545,-0.00391579669069,-0.0543333873836,0.998482218343
1543475350752890000,47,1543475350752890000,/map,-3.78916192055,32.7021064758,2.42634010315,0.00842396706777,-0.00417262072882,-0.0449637322953,0.998944387237
1543475350852768000,48,1543475350852768000,/map,-4.98665046692,32.18227005,2.44430732727,0.00881325737458,-0.00475168800842,-0.0354468057876,0.999321405712
1543475351152462000,49,1543475351152462000,/map,-8.0336894989,31.3786296844,2.41656303406,0.00804409796336,-0.00544013176277,-0.00397005971143,0.999944966526
1543475351452112000,50,1543475351452112000,/map,-10.8262910843,30.5583667755,2.3690943718,0.00798436289306,-0.00575883962497,0.02806805755,0.999557537044
1543475351552000000,51,1543475351552000000,/map,-12.090338707,30.3256835938,2.35875320435,0.00774988567266,-0.00599378504664,0.0364449230127,0.999287636969
1543475351651882000,52,1543475351651882000,/map,-13.1730451584,30.1884975433,2.35241770744,0.00756432531049,-0.0063395575617,0.0454068858431,0.99891981946
1543475351851700000,53,1543475351851700000,/map,-15.3756437302,29.5964069366,2.31430363655,0.00719037192961,-0.00667815376558,0.0637259407893,0.997919187752
1543475351951641000,54,1543475351951641000,/map,-16.5045604706,29.5211753845,2.36798214912,0.0069896353866,-0.00843492759242,0.0770174576584,0.996969562329
1543475352151391000,55,1543475352151391000,/map,-18.7493629456,29.3587036133,2.34763717651,0.00717468053725,-0.00858316633036,0.103325077916,0.99458472816
1543475352251339000,56,1543475352251339000,/map,-19.9058628082,29.1174144745,2.28746724129,0.00572018584827,-0.00802386527833,0.115144451399,0.993299880385
1543475352351252000,57,1543475352351252000,/map,-21.2283000946,28.9126873016,2.28051352501,0.00596607561576,-0.00845742652674,0.126380458464,0.991927848987
1543475352451168000,58,1543475352451168000,/map,-22.2078857422,28.9605426788,2.26931619644,0.00575099013605,-0.008551323938,0.139928501404,0.99010798172
1543475352651008000,59,1543475352651008000,/map,-24.3338794708,29.0404281616,2.25777935982,0.00649823139542,-0.00902412466903,0.165096379607,0.986214745176
1543475352750929000,60,1543475352750929000,/map,-25.4963817596,28.7018871307,2.2227435112,0.00513008186607,-0.00920384918276,0.174684195915,0.984568130257
1543475352850830000,61,1543475352850830000,/map,-26.8093624115,28.6026210785,2.2206735611,0.00569391642314,-0.00955258938627,0.186340090248,0.982422362387
1543475353050665000,62,1543475353050665000,/map,-29.4076862335,28.2329597473,2.21058058739,0.00603100571607,-0.0101091305546,0.208499663028,0.977951595411
1543475353150616000,63,1543475353150616000,/map,-31.0338230133,28.7091426849,2.18501663208,0.0050054367406,-0.0106453249289,0.221662573208,0.975052473613
1543475353450370000,64,1543475353450370000,/map,-36.0064125061,30.1419467926,2.16252589226,0.00640268226291,-0.0107894563332,0.260386886865,0.965422841267
1543475353550328000,65,1543475353550328000,/map,-37.4289398193,30.9856548309,2.13523697853,0.00533039989177,-0.010990700073,0.271056123988,0.962486035741
1543475353750181000,66,1543475353750181000,/map,-40.2709960938,32.6556396484,2.11713647842,0.00543218471268,-0.0110747115095,0.292497742236,0.956186651717
1543475353850202000,67,1543475353850202000,/map,-41.2924690247,33.9874916077,2.11417174339,0.00517166832538,-0.0112023770737,0.307397220743,0.951501292314
1543475354049970000,68,1543475354049970000,/map,-43.3204193115,36.6558609009,2.13561344147,0.00511893701846,-0.011525597613,0.336391934025,0.941637628712
1543475354149975000,69,1543475354149975000,/map,-43.9405670166,38.2480354309,2.09096503258,0.00409444324084,-0.0112179235526,0.356202538509,0.93433245972
1543475354349835000,70,1543475354349835000,/map,-45.0185165405,41.4973754883,2.1395304203,0.00401335231827,-0.0115108652434,0.397182386803,0.91765872992
1543475354549762000,71,1543475354549762000,/map,-46.1137046814,44.718536377,2.09478235245,0.0024453396863,-0.0107576038646,0.436257800226,0.899754091969
1543475354649684000,72,1543475354649684000,/map,-46.6799087524,45.9571762085,2.08141231537,0.00206310651697,-0.010540868894,0.450954568398,0.892482274846
1543475354849602000,73,1543475354849602000,/map,-47.9182319641,48.1117591858,2.22003340721,0.00430671681953,-0.0115886856774,0.478956252503,0.877751709051
1543475354949552000,74,1543475354949552000,/map,-48.9806518555,49.6469650269,2.2285695076,0.00395401268817,-0.0116172339116,0.496216902366,0.868111854237
1543475355249406000,75,1543475355249406000,/map,-52.1396903992,54.2722167969,2.19171309471,0.00292931396572,-0.0108856713241,0.54636071031,0.837474116322
1543475355349417000,76,1543475355349417000,/map,-53.1788063049,55.8167610168,2.21809744835,0.00271450758999,-0.0111895271381,0.563175745584,0.826256924641
1543475355449326000,77,1543475355449326000,/map,-53.6465034485,57.4832572937,2.22002601624,0.00231544803159,-0.0113258372781,0.580974754361,0.813839479815
1543475355649257000,78,1543475355649257000,/map,-53.7692680359,60.6999130249,2.23503375053,0.00244831545984,-0.0102818453881,0.6158955673,0.787756903865
1543475355949191000,79,1543475355949191000,/map,-53.9102210999,65.5204620361,2.29519295692,0.000559753071783,-0.0102119543754,0.664601722119,0.747127802736
1543475356049149000,80,1543475356049149000,/map,-53.9273071289,67.4401779175,2.32153153419,0.000162183460434,-0.0102922614012,0.681992671355,0.731286564399
1543475356149128000,81,1543475356149128000,/map,-54.3490333557,69.6136550903,2.37401986122,-0.000324759826602,-0.0106326557753,0.700306158198,0.713763354307
1543475356349070000,82,1543475356349070000,/map,-54.7662620544,73.0480117798,2.58625817299,0.000957261060238,-0.0112956720215,0.733312907873,0.679796786247
1543475356549026000,83,1543475356549026000,/map,-55.524143219,76.8521957397,2.91232156754,0.00142375039138,-0.0161798152545,0.76761122091,0.640709918798
1543475356749038000,84,1543475356749038000,/map,-55.9538917542,81.0417022705,2.95752024651,0.00377317139528,-0.0106399890609,0.804827096999,0.593401969786
1543475356948943000,85,1543475356948943000,/map,-56.531829834,85.2964859009,3.06904411316,0.00344194672832,-0.00977496178251,0.838588059445,0.544667485427
1543475357048948000,86,1543475357048948000,/map,-56.9992752075,87.6296005249,2.99213886261,0.00146257816183,-0.0092739299348,0.854513000626,0.519345151946
1543475357248889000,87,1543475357248889000,/map,-58.1761703491,92.6466903687,3.1482219696,-0.000372904130213,-0.0106629992381,0.884250080903,0.466891803111
1543475357348890000,88,1543475357348890000,/map,-59.0580940247,94.5102233887,3.17891979218,-0.00163910018575,-0.011973002082,0.900321309769,0.435058041814
1543475357548911000,89,1543475357548911000,/map,-60.8494911194,98.2196273804,3.1673374176,-0.00145446417853,-0.0113485015574,0.929248931801,0.36927702175
1543475357648884000,90,1543475357648884000,/map,-61.7828483582,100.038589478,3.16148543358,-0.00263808088826,-0.0113530581092,0.941657465649,0.336370875653
1543475357748912000,91,1543475357748912000,/map,-63.0282516479,102.235321045,3.09673762321,-0.00287631722248,-0.00799962308408,0.953500160238,0.301272596258
1543475357848870000,92,1543475357848870000,/map,-64.6431121826,104.87071991,3.29252910614,-0.00415475844093,-0.0112013396554,0.965811523267,0.258969823525
1543475357948859000,93,1543475357948859000,/map,-66.2251586914,107.530174255,3.31454706192,-0.0031346311485,-0.0101446576665,0.976571323823,0.214931871755
1543475358048902000,94,1543475358048902000,/map,-67.9227676392,110.842330933,3.3354279995,-0.00264649948795,-0.00663882479049,0.985503855476,0.169502427379
1543475358248870000,95,1543475358248870000,/map,-71.3014831543,117.435447693,3.40733718872,-0.00300904676338,-0.00660210171584,0.996956993672,0.0776151445185
1543475358348934000,96,1543475358348934000,/map,-73.6969680786,120.503410339,3.3748884201,-0.00286660622446,-0.00385282211132,0.999402527778,0.0342275590842
1543475358448902000,97,1543475358448902000,/map,-76.3030395508,123.026161194,3.21580982208,0.0077126532878,0.00199353519007,-0.999929365686,0.0088206822355
1543475358648926000,98,1543475358648926000,/map,-81.7472991943,128.19934082,3.14718461037,0.00838263056592,0.00228316342806,-0.995247928022,0.0969849495426
1543475358748882000,99,1543475358748882000,/map,-85.1151809692,130.743789673,3.13703322411,0.00726808190045,-9.31168128369e-05,-0.990674490899,0.136055942161
1543475358948944000,100,1543475358948944000,/map,-91.9116439819,135.776077271,2.96483945847,0.00812652549364,0.00159896896022,-0.977322336913,0.211595020386
1543475359048921000,101,1543475359048921000,/map,-95.2725906372,138.317489624,2.85364294052,0.00773367670276,0.00511747417873,-0.969158366607,0.246264212054
1543475359148918000,102,1543475359148918000,/map,-98.6119842529,141.269943237,2.87310862541,0.00671593481212,0.00487079879895,-0.959776802701,0.280641516059
1543475359248970000,103,1543475359248970000,/map,-101.96269989,144.209594727,2.85577630997,0.00773930716408,0.00470453581982,-0.948739416837,0.315929563996
1543475359348980000,104,1543475359348980000,/map,-105.954925537,146.48928833,2.82084226608,0.00727974550519,0.00391185302647,-0.93773222515,0.347260675325
1543475359549014000,105,1543475359549014000,/map,-113.647499084,151.139251709,2.73349189758,0.00809607267914,0.00107304912758,-0.912205722673,0.409651097514
1543475359649016000,106,1543475359649016000,/map,-117.131355286,153.332290649,2.61534786224,0.0101376923059,-0.000555813426225,-0.896156198086,0.443622572575
1543475359849071000,107,1543475359849071000,/map,-123.887695312,157.898712158,2.4825334549,0.0113261018173,-0.00142934614905,-0.862723396434,0.505547245698
1543475359949103000,108,1543475359949103000,/map,-127.074798584,159.847869873,2.39006400108,0.0128280183776,-0.0013424925301,-0.840903852705,0.541030821825
1543475360049127000,109,1543475360049127000,/map,-130.087844849,161.727676392,2.58048176765,0.00959922019703,0.000256670757297,-0.814742222191,0.579743823142
1543475360149151000,110,1543475360149151000,/map,-132.995834351,163.85496521,2.56516933441,0.00901819683498,-0.00222776404698,-0.788376459977,0.615122968639
1543475360249160000,111,1543475360249160000,/map,-135.583099365,166.069534302,2.53635120392,0.00747536238699,-0.00412461877927,-0.762004578416,0.647515350358
1543475360349184000,112,1543475360349184000,/map,-138.216690063,166.756210327,2.29946088791,0.00683553859678,-0.00916645952098,-0.728148682376,0.685323826951
1543475360549213000,113,1543475360549213000,/map,-143.990921021,167.732925415,2.2146062851,0.00742265689727,-0.0114577660507,-0.65256325758,0.757611258244
1543475360649248000,114,1543475360649248000,/map,-147.21270752,167.852630615,2.36055350304,0.00840122582996,-0.00833870438387,-0.611862444189,0.790875612726
1543475360749319000,115,1543475360749319000,/map,-151.065322876,167.475799561,2.28687214851,0.00718181787665,-0.00862455007414,-0.56604071346,0.824300885195
1543475360949360000,116,1543475360949360000,/map,-158.801116943,166.681686401,2.30269360542,0.00980238774467,-0.00624652540632,-0.468308382903,0.883488626196
1543475361049370000,117,1543475361049370000,/map,-162.378585815,166.12008667,2.35078334808,0.0126408187328,-0.00670228766118,-0.414191279244,0.910077399588
1543475361149418000,118,1543475361149418000,/map,-166.921737671,164.249893188,2.27331638336,0.0166854457121,-0.00643055209521,-0.352179538692,0.93576162372
1543475361249464000,119,1543475361249464000,/map,-171.490158081,162.481292725,2.27456259727,0.0188989210077,-0.00356991623235,-0.286727701807,0.957819039015
1543475361349519000,120,1543475361349519000,/map,-176.044815063,160.648574829,2.08812618256,0.0196285115469,-0.00864267747044,-0.221086439863,0.975018364837
1543475361449565000,121,1543475361449565000,/map,-180.293716431,158.930145264,1.92326915264,0.0222836545225,-0.00838452429623,-0.150853476388,0.988269379853
1543475361549557000,122,1543475361549557000,/map,-185.615936279,157.027359009,1.06806409359,0.0226000063086,-0.0211289660991,-0.0785985929579,0.996426147635
1543475361649594000,123,1543475361649594000,/map,-190.41104126,154.967163086,0.278771460056,0.0134826871311,-0.0165091366725,-6.08652584013e-05,0.999772805116
1543475361849717000,124,1543475361849717000,/map,-201.04258728,149.539901733,0.532902121544,0.0217355147342,-0.00140402812682,0.164723366299,0.986099289473
1543475361949731000,125,1543475361949731000,/map,-205.950698853,146.515625,0.920634329319,0.0193994619614,0.00451250476051,0.249902615572,0.968066103583
1543475362049791000,126,1543475362049791000,/map,-211.278823853,143.117431641,3.02628779411,0.0153231268898,0.0256240681086,0.33978070066,0.940030682677
1543475362249889000,127,1543475362249889000,/map,-221.885040283,136.604522705,5.13458967209,0.0152837929709,0.0104136536182,0.504782602312,0.863048368224
1543475362449956000,128,1543475362449956000,/map,-232.447814941,130.956665039,4.22698020935,0.000148381640609,0.000222603575615,0.650354793172,0.759630549299
1543475362650064000,129,1543475362650064000,/map,-242.746170044,125.004257202,0.36296749115,-0.0218378357274,0.0103089674669,0.775816187402,0.630496691098
1543475362750134000,130,1543475362750134000,/map,-247.27130127,123.407722473,-1.47566258907,-0.0197734368603,0.00398252544537,0.826795202126,0.562141302901
1543475362950217000,131,1543475362950217000,/map,-256.396606445,119.7578125,-2.01033902168,-0.00860722212985,0.00812704790968,0.911087982206,0.41204193415
1543475363150315000,132,1543475363150315000,/map,-265.853973389,116.127929688,-1.23241662979,-0.00156261555491,0.0110658816044,0.968203851297,0.249912798455
1543475363350432000,133,1543475363350432000,/map,-275.080932617,113.028831482,-0.695051312447,-0.00504182487706,0.00956796947842,0.99647341967,0.0832091212119
1543475363550592000,134,1543475363550592000,/map,-284.875427246,108.333023071,1.53983771801,-0.000277794867035,-0.00493842447507,-0.995762691238,0.0918269978382
1543475363750650000,135,1543475363750650000,/map,-294.466125488,103.216949463,3.64493823051,0.000234561660087,-0.00938979325561,-0.964100765494,0.26537047827
1543475363850700000,136,1543475363850700000,/map,-299.263549805,100.64780426,4.69783687592,0.00106214119897,-0.00933247563503,-0.936926045396,0.349401434189
1543475363950791000,137,1543475363950791000,/map,-304.06237793,98.0765609741,5.75116729736,0.00188176876485,-0.00920229274261,-0.902427360845,0.430739637313
1543475364050853000,138,1543475364050853000,/map,-308.859100342,95.5051345825,6.80419254303,0.00268647546134,-0.00900033860478,-0.860896670976,0.50869312818
1543475364150914000,139,1543475364150914000,/map,-313.654907227,92.9329376221,7.85720729828,0.00347021381404,-0.00872816484089,-0.812649587539,0.582676947054
1543475364250987000,140,1543475364250987000,/map,-318.450317383,90.3597946167,8.91034889221,0.00422696620826,-0.00838784847736,-0.758055238901,0.652122712018
1543475364351050000,141,1543475364351050000,/map,-323.244140625,87.7864761353,9.9633846283,0.00495066108,-0.00798211753083,-0.697551397185,0.716473185151
1543475364451156000,142,1543475364451156000,/map,-328.038879395,85.2117843628,11.0168733597,0.00563601432925,-0.00751389299135,-0.631575549321,0.775257442567
1543475364551177000,143,1543475364551177000,/map,-332.828399658,82.6392440796,12.0694675446,0.00627683110454,-0.00698746282209,-0.560729802391,0.827945569144
1543475364651248000,144,1543475364651248000,/map,-337.619110107,80.0655670166,13.1225881577,0.00686899719786,-0.00640625654347,-0.485474139495,0.874200570028
1543475364751320000,145,1543475364751320000,/map,-342.408782959,77.4922332764,14.1757192612,0.00740756579251,-0.00577505103308,-0.406429130466,0.913634028845
1543475364851398000,146,1543475364851398000,/map,-347.197692871,74.9192962646,15.2289133072,0.00788835407756,-0.00509873664274,-0.324207448759,0.945939378038
1543475364951462000,147,1543475364951462000,/map,-351.985015869,72.3474502563,16.2819595337,0.00830752169453,-0.0043827307355,-0.239467422592,0.970858965181
1543475365051543000,148,1543475365051543000,/map,-356.772399902,69.7760314941,17.3351860046,0.00866192409627,-0.00363239815486,-0.152844085117,0.988205678186
1543475365151615000,149,1543475365151615000,/map,-361.558746338,67.2058486938,18.3883171082,0.00894869563535,-0.00285378552642,-0.0650357467745,0.997838728651
1543475365251688000,150,1543475365251688000,/map,-366.344696045,64.6367263794,19.4414596558,0.00916563532668,-0.0020528941676,0.0232810320735,0.999684835486
1543475365351755000,151,1543475365351755000,/map,-371.130157471,62.0689048767,20.4945392609,0.00931103988801,-0.00123603134389,0.111410853926,0.993730043015
1543475365451875000,152,1543475365451875000,/map,-375.918121338,59.5009002686,21.5481758118,0.00938380929036,-0.000409085048597,0.198717186814,0.980011865457
1543475365551917000,153,1543475365551917000,/map,-380.702545166,56.936050415,22.6009922028,0.00938330870341,0.000420410693734,0.284405277526,0.958658132437
1543475365651971000,154,1543475365651971000,/map,-385.487945557,54.3719978333,23.6539344788,0.00930961336263,0.00124672627834,0.367885113153,0.929823811425
1543475365752015000,155,1543475365752015000,/map,-390.2734375,51.809223175,24.7067718506,0.0091633118933,0.00206323593439,0.44848725575,0.893739871664
1543475365852104000,156,1543475365852104000,/map,-395.061798096,49.2461967468,25.7600822449,0.00894542813589,0.00286400817743,0.525625175525,0.850664417751
1543475365952204000,157,1543475365952204000,/map,-399.851593018,46.6836509705,26.8135089874,0.00865767682298,0.00364250618091,0.598667559463,0.800942526045
1543475366052269000,158,1543475366052269000,/map,-404.640716553,44.122592926,27.8665676117,0.0083024602587,0.00439230632717,0.667012471397,0.74498734204
1543475366152367000,159,1543475366152367000,/map,-409.432525635,41.5610961914,28.9199733734,0.00788231405638,0.00510806386326,0.730172757243,0.683198010381
1543475366252437000,160,1543475366252437000,/map,-414.224151611,39.0005226135,29.9730854034,0.00740076771753,0.00578375557106,0.787616718867,0.616093889735
1543475366352521000,161,1543475366352521000,/map,-419.017608643,36.4395866394,31.0263442993,0.00686138992827,0.00641439875913,0.838921284932,0.544171714172
1543475366452567000,162,1543475366452567000,/map,-423.810394287,33.8794250488,32.0792007446,0.00626868953001,0.00699476267366,0.883661817418,0.468031590028
1543475366552711000,163,1543475366552711000,/map,-428.608978271,31.3163471222,33.1330871582,0.00562644403801,0.00752105715784,0.9215436544,0.38816113904
1543475366652754000,164,1543475366652754000,/map,-433.403747559,28.7552642822,34.1859092712,0.00494093976573,0.00798813366126,0.952196394422,0.305342108601
1543475366752823000,165,1543475366752823000,/map,-438.200653076,26.1927528381,35.2390060425,0.00421670676946,0.00839300537797,0.975427765753,0.22011917373
1543475366852962000,166,1543475366852962000,/map,-443.001647949,23.6275463104,36.2928314209,0.00345903019803,0.00873259785765,0.991055772764,0.133117362188
1543475366953008000,167,1543475366953008000,/map,-447.79876709,21.0637016296,37.3456726074,0.00267506339872,0.00900373206327,0.998935727609,0.0451573798148
1543475367053107000,168,1543475367053107000,/map,-452.598815918,18.4973907471,38.3990707397,-0.00186980105583,-0.0092047270066,-0.999022222623,0.0432015688381
1543475367153164000,169,1543475367153164000,/map,-457.397033691,15.9310026169,39.4520263672,-0.00105028529634,-0.00933381251422,-0.991313215543,0.131186453322
1543475367253254000,170,1543475367253254000,/map,-462.196807861,13.3625965118,40.5053253174,-0.000222302066715,-0.00939008716922,-0.975864161802,0.218176338211
1543475367353369000,171,1543475367353369000,/map,-466.997558594,10.7924003601,41.558883667,0.000607623295355,-0.00937304375245,-0.952790232231,0.303484019694
1543475367453416000,172,1543475367453416000,/map,-471.794586182,8.2228603363,42.6117248535,0.00143224519604,-0.00928287826877,-0.922297749302,0.386365938557
1543475367553522000,173,1543475367553522000,/map,-476.59387207,5.650806427,43.665184021,0.00224617084936,-0.00912019033627,-0.884587154197,0.466280327136
1543475367653633000,174,1543475367653633000,/map,-481.392608643,3.07774877548,44.7186965942,0.00304259531241,-0.00888626856556,-0.839966337876,0.542557211804
1543475367753708000,175,1543475367753708000,/map,-486.188720703,0.504891872406,45.7718276978,0.00381498478371,-0.00858306742106,-0.788805022195,0.614571732026
1543475367853802000,176,1543475367853802000,/map,-490.984710693,-2.06900525093,46.8251571655,0.0045577389637,-0.00821280529375,-0.731476224128,0.681802251669
1543475367953879000,177,1543475367953879000,/map,-495.778778076,-4.64282655716,47.8783035278,0.00526479301275,-0.00777850305568,-0.668447800264,0.743699747994
1543475368053972000,178,1543475368053972000,/map,-500.572418213,-7.21721935272,48.9316177368,0.00593086053933,-0.00728340912742,-0.600191125732,0.799801468764
1543475368154075000,179,1543475368154075000,/map,-505.365386963,-9.79182243347,49.9850387573,0.00655068486751,-0.00673139532497,-0.527241219864,0.849663741089
1543475368254175000,180,1543475368254175000,/map,-510.157073975,-12.3660974503,51.0384292603,0.00711934114845,-0.00612683742778,-0.450176648422,0.892890117574
1543475368354311000,181,1543475368354311000,/map,-514.949401855,-14.9408483505,52.0921936035,0.00763258235409,-0.00547419782821,-0.369567518839,0.929156405491
1543475368454390000,182,1543475368454390000,/map,-519.738037109,-17.513502121,53.1453552246,0.00808594414216,-0.00477919057835,-0.286118837014,0.958148103349
1543475368554502000,183,1543475368554502000,/map,-524.52734375,-20.0862083435,54.1988601685,0.00847631396751,-0.00404663524161,-0.20040847791,0.979667402146
1543475368654608000,184,1543475368654608000,/map,-529.315673828,-22.65782547,55.2522964478,0.00880046597614,-0.00328252248387,-0.113138221086,0.993534860875
1543475368754672000,185,1543475368754672000,/map,-534.10144043,-25.2273197174,56.3052902222,0.00905580193058,-0.00249311184035,-0.0250215072431,0.999642786709
1543475368854722000,186,1543475368854722000,/map,-538.886230469,-27.7953338623,57.3581314087,0.00924045875607,-0.00168436255948,0.0632781271222,0.997951730031
1543475368954814000,187,1543475368954814000,/map,-543.672851562,-30.3632659912,58.4114151001,0.00935306850938,-0.000862128014346,0.151120799553,0.988470677758
1543475369054917000,188,1543475369054917000,/map,-548.460144043,-32.9303092957,59.4648132324,0.00939265998228,-3.307131226e-05,0.237793156738,0.971270400791
1543475369155015000,189,1543475369155015000,/map,-553.247436523,-35.4960861206,60.518157959,0.0093589111438,0.000796201894539,0.322604452771,0.946487265576
1543475369255177000,190,1543475369255177000,/map,-558.038208008,-38.0624275208,61.5721740723,0.00925199774939,0.00161978174443,0.404948612215,0.914291199952
1543475369355222000,191,1543475369355222000,/map,-562.82409668,-40.624797821,62.6249542236,0.00907300462143,0.00242976012563,0.484036461922,0.874997417358
1543475369455365000,192,1543475369455365000,/map,-567.615478516,-43.188835144,63.6787643433,0.00882296692584,0.00322155115586,0.559420813409,0.828830580027
1543475369555454000,193,1543475369555454000,/map,-572.405212402,-45.7508049011,64.7320022583,0.00850416966219,0.00398776072263,0.63039633283,0.776216619519
1543475369655566000,194,1543475369655566000,/map,-577.19708252,-48.3128509521,65.7854766846,0.00811888935906,0.00472300463683,0.696465244268,0.717529051948
1543475369755661000,195,1543475369755661000,/map,-581.989318848,-50.8741493225,66.8387756348,0.00767028183526,0.00542124651644,0.757084930611,0.65324894543
1543475369855776000,196,1543475369855776000,/map,-586.783691406,-53.4358444214,67.892288208,0.00716168198456,0.00607728955837,0.811804116271,0.583854308598
1543475369955886000,197,1543475369955886000,/map,-591.579040527,-55.997505188,68.9457473755,0.00659717536501,0.00668583624552,0.860180430196,0.509903328463
1543475370055959000,198,1543475370055959000,/map,-596.373657227,-58.5585136414,69.9988174438,0.00598138364642,0.0072419727194,0.901824869893,0.431999630698
1543475370156051000,199,1543475370156051000,/map,-601.170349121,-61.1205024719,71.0520858765,0.00531878344384,0.00774168340038,0.936437437035,0.350708858457
1543475370256190000,200,1543475370256190000,/map,-605.970214844,-63.6843681335,72.1058502197,0.00461432053239,0.00818114644123,0.963750376862,0.266640184496
1543475370356317000,201,1543475370356317000,/map,-610.770324707,-66.2487487793,73.1594848633,0.00387389105338,0.00855663890032,0.983530441879,0.180498329068
1543475370456388000,202,1543475370456388000,/map,-615.56842041,-68.8126678467,74.2125320435,0.003103635373,0.00886513059744,0.995622218578,0.0929955632265
1543475370556523000,203,1543475370556523000,/map,-620.370117188,-71.3792877197,75.2662506104,0.00230864584649,0.00910457233973,0.999944792126,0.00471058570594
1543475370656612000,204,1543475370656612000,/map,-625.16986084,-73.945854187,76.3194885254,-0.00149599456551,-0.00927281421111,-0.99645758481,0.083570680212
1543475370756713000,205,1543475370756713000,/map,-629.970275879,-76.5139007568,77.3728561401,-0.000671565347369,-0.00936867563309,-0.985189780532,0.171210026729
1543475370856831000,206,1543475370856831000,/map,-634.771362305,-79.0835418701,78.426399231,0.000158248743163,-0.00939138118006,-0.966225443017,0.257527028064
1543475370956936000,207,1543475370956936000,/map,-639.571472168,-81.6539764404,79.4798049927,0.000986719103838,-0.0093407423979,-0.939717896967,0.341821665547
1543475371057065000,208,1543475371057065000,/map,-644.372253418,-84.2260818481,80.5334625244,0.00180767984223,-0.00921712410255,-0.905863178503,0.423466266366
1543475371157154000,209,1543475371157154000,/map,-649.170471191,-86.7981109619,81.5867004395,0.0026141995573,-0.00902158765454,-0.864948947447,0.501771955402
1543475371257277000,210,1543475371257277000,/map,-653.969482422,-89.3718185425,82.640296936,0.003400574395,-0.00875552265247,-0.817265251931,0.576185113399
1543475371357410000,211,1543475371357410000,/map,-658.768005371,-91.946434021,83.6940002441,0.0041604590011,-0.00842102511777,-0.763191599749,0.646103984657
1543475371457499000,212,1543475371457499000,/map,-663.563293457,-94.5203857422,84.7472381592,0.00488752511183,-0.00802092148167,-0.703182523557,0.710947336644
1543475371557610000,213,1543475371557610000,/map,-668.358520508,-97.0951690674,85.8007049561,0.0055765839223,-0.00755809466013,-0.637669129737,0.770253112877
1543475371657756000,214,1543475371657756000,/map,-673.154174805,-99.6709289551,86.8545379639,0.0062223078236,-0.00703604778852,-0.567150168474,0.823560843725
1543475371757828000,215,1543475371757828000,/map,-677.945129395,-102.244636536,87.9075927734,0.00681898017797,-0.00645945759847,-0.492255632934,0.870400005033
1543475371857917000,216,1543475371857917000,/map,-682.735839844,-104.818435669,88.9608230591,0.00736252643213,-0.0058323483838,-0.413505938484,0.910452972841
1543475371958066000,217,1543475371958066000,/map,-687.528259277,-107.393249512,90.0146865845,0.00784887061601,-0.00515929386516,-0.331478302009,0.943416086472
1543475372058198000,218,1543475372058198000,/map,-692.319030762,-109.966911316,91.0683746338,0.00827380325782,-0.00444603899946,-0.246874377437,0.969001970422
1543475372158291000,219,1543475372158291000,/map,-697.107116699,-112.538711548,92.1216506958,0.00863396385326,-0.00369834440183,-0.160375634375,0.987011364076
1543475372258424000,220,1543475372258424000,/map,-701.89642334,-115.110542297,93.1753463745,0.00892682174021,-0.00292146140696,-0.0725896141715,0.997317664955
1543475372358533000,221,1543475372358533000,/map,-706.684204102,-117.680679321,94.2287902832,0.00914988671351,-0.0021219463386,0.015742353222,0.999831963498
1543475372458677000,222,1543475372458677000,/map,-711.473327637,-120.250564575,95.2826004028,0.00930153561494,-0.00130557203475,0.103982151632,0.994534810381
1543475372558770000,223,1543475372558770000,/map,-716.25994873,-122.817977905,96.3358764648,0.00938047134052,-0.000479416899622,0.191365150994,0.981473971077
1543475372658892000,224,1543475372658892000,/map,-721.048156738,-125.384979248,97.3894577026,0.00938616417665,0.000350720947353,0.277278703553,0.960743616931
1543475372758996000,225,1543475372758996000,/map,-725.8359375,-127.950401306,98.4428482056,0.00931855505105,0.0011779706679,0.361011417857,0.932514092705
1543475372859121000,226,1543475372859121000,/map,-730.625183105,-130.515335083,99.4964599609,0.00917814249466,0.00199619224563,0.44194172842,0.896994585044
1543475372959253000,227,1543475372959253000,/map,-735.415466309,-133.079528809,100.55014801,0.00896601207815,0.00279887520669,0.519424882672,0.854464492057
1543475373059367000,228,1543475373059367000,/map,-740.205810547,-135.642501831,101.603645325,0.00868388573297,0.00357955216201,0.592836934581,0.805267747977
1543475373159514000,229,1543475373159514000,/map,-744.998718262,-138.205703735,102.657493591,0.00833380888021,0.00433251503474,0.661640612223,0.749762280459
1543475373259636000,230,1543475373259636000,/map,-749.791503906,-140.767837524,103.711082458,0.00791871061177,0.00505144230104,0.725258071146,0.688413035314
1543475373359712000,231,1543475373359712000,/map,-754.583251953,-143.328567505,104.764190674,0.00744198776606,0.00573060774818,0.783184846938,0.621718000769
1543475373459881000,232,1543475373459881000,/map,-759.380615234,-145.891677856,105.818275452,0.00690666136822,0.00636561604973,0.835044487903,0.550102245209
1543475373559962000,233,1543475373559962000,/map,-764.174865723,-148.452697754,106.871437073,0.00631787279151,0.0069503605974,0.880338109304,0.474253719309
1543475373660103000,234,1543475373660103000,/map,-768.973205566,-151.015670776,107.925231934,0.00567937604017,0.00748115745309,0.918781419348,0.394654887758
1543475373760231000,235,1543475373760231000,/map,-773.771850586,-153.578872681,108.978889465,0.00499658896519,0.00795343496588,0.950041277406,0.311982929333
1543475373860378000,236,1543475373860378000,/map,-778.572387695,-156.143310547,110.032745361,0.00427462484504,0.00836364821581,0.97388274546,0.226857168868
1543475373960482000,237,1543475373960482000,/map,-783.371582031,-158.707550049,111.086151123,0.00351958350287,0.00870836155714,0.990107510547,0.139996051833
1543475374060614000,238,1543475374060614000,/map,-788.172668457,-161.273513794,112.139854431,0.00273683609511,0.00898514091331,0.998602026187,0.0520170190069
1543475374160709000,239,1543475374160709000,/map,-792.972412109,-163.839645386,113.19316864,-0.00193300546914,-0.00919165485099,-0.999295495004,0.0363358037843
1543475374260870000,240,1543475374260870000,/map,-797.77557373,-166.408615112,114.247177124,-0.00111353950599,-0.00932647086588,-0.992179820336,0.12446276989
1543475374360987000,241,1543475374360987000,/map,-802.576538086,-168.977630615,115.300720215,-0.000285732942108,-0.00938836437988,-0.977315816399,0.211578760718
1543475374461079000,242,1543475374461079000,/map,-807.376098633,-171.547149658,116.354003906,0.000544098044213,-0.0093769390721,-0.954824740422,0.297021029642
1543475374561242000,243,1543475374561242000,/map,-812.178649902,-174.119598389,117.408035278,0.0013702636249,-0.00929222291176,-0.924855600912,0.380202438751
1543475374661338000,244,1543475374661338000,/map,-816.977355957,-176.691314697,118.461364746,0.00218517684932,-0.00913498939139,-0.887683151088,0.46035899062
1543475374761492000,245,1543475374761492000,/map,-821.778076172,-179.265411377,119.515304565,0.00298348516333,-0.00890628122865,-0.843552578829,0.536964452941
1543475374861621000,246,1543475374861621000,/map,-826.576721191,-181.839614868,120.568984985,0.00375828268799,-0.00860803928202,-0.79284175574,0.609355173381
1543475374961710000,247,1543475374961710000,/map,-831.372436523,-184.413360596,121.622245789,0.00450342699631,-0.00824270430941,-0.73596059557,0.676959214974
1543475375061856000,248,1543475375061856000,/map,-836.169799805,-186.988952637,122.676109314,0.00521380869216,-0.00781276058542,-0.673296979119,0.739312487978
1543475375161976000,249,1543475375161976000,/map,-840.96472168,-189.564025879,123.729698181,0.0058832745463,-0.00732189249146,-0.605389585039,0.795873876502
1543475375262111000,250,1543475375262111000,/map,-845.759277344,-192.139465332,124.783447266,0.00650687407168,-0.00677374481796,-0.532742114291,0.846225511688
1543475375362321000,251,1543475375362321000,/map,-850.556274414,-194.716598511,125.837982178,0.00708003999058,-0.00617220080484,-0.455873062642,0.889995240284
1543475375462386000,252,1543475375462386000,/map,-855.345153809,-197.28956604,126.890991211,0.00759709525319,-0.00552332986137,-0.375555294132,0.926752393048
1543475375562516000,253,1543475375562516000,/map,-860.136230469,-199.863571167,127.94468689,0.00805514973735,-0.00483089968354,-0.292252296333,0.956295128221
1543475375662672000,254,1543475375662672000,/map,-864.927612305,-202.437469482,128.998657227,0.00845036474266,-0.00410053225321,-0.206643496294,0.978371219124
1543475375762800000,255,1543475375762800000,/map,-869.71697998,-205.009719849,130.052337646,0.00877944144698,-0.00333832846237,-0.119443936188,0.992796516452
1543475375862957000,256,1543475375862957000,/map,-874.507202148,-207.581695557,131.106323242,0.00903999382739,-0.00254981188411,-0.0312855699805,0.999466352651
1543475375963085000,257,1543475375963085000,/map,-879.295593262,-210.151794434,132.160003662,0.00922983488008,-0.00174159955334,0.0570917746382,0.998324749892
1543475376063198000,258,1543475376063198000,/map,-884.083190918,-212.720336914,133.213531494,0.00934755507699,-0.000919904938581,0.145009991838,0.989385606958
1543475376163367000,259,1543475376163367000,/map,-888.873474121,-215.289154053,134.267654419,0.00939227393926,-9.05608270606e-05,0.231843789198,0.972707681886
1543475376263474000,260,1543475376263474000,/map,-893.661071777,-217.855255127,135.321121216,0.00936359553878,0.000738978754505,0.316812888101,0.9484415485
1543475376363577000,261,1543475376363577000,/map,-898.448913574,-220.420150757,136.374542236,0.00926179977473,0.00156271428808,0.399304624066,0.916770197044
1543475376463731000,262,1543475376463731000,/map,-903.239807129,-222.98538208,137.428497314,0.00908757483298,0.00237465674751,0.478717901693,0.877918531293
1543475376563868000,263,1543475376563868000,/map,-908.030761719,-225.549331665,138.482269287,0.00884236336097,0.00316790486063,0.554376750127,0.832212830896
1543475376663993000,264,1543475376663993000,/map,-912.82208252,-228.112258911,139.535919189,0.00852809990134,0.00393630830681,0.625695416826,0.780010911688
1543475376764149000,265,1543475376764149000,/map,-917.615905762,-230.675460815,140.589889526,0.00814708559077,0.00467418434214,0.692145893995,0.721696500216
1543475376864287000,266,1543475376864287000,/map,-922.41003418,-233.237884521,141.643676758,0.00770247146347,0.00537540010956,0.753175485506,0.657752586494
1543475376964394000,267,1543475376964394000,/map,-927.203857422,-235.799377441,142.697143555,0.00719783473077,0.00603441531317,0.808303566681,0.588691023457
1543475377064535000,268,1543475377064535000,/map,-932.000488281,-238.361831665,143.750961304,0.00663678882723,0.00664650487445,0.857134800804,0.515006514773
1543475377164715000,269,1543475377164715000,/map,-936.800109863,-240.925567627,144.80519104,0.00602363066448,0.00720686246583,0.899282960002,0.437266434633
1543475377264860000,270,1543475377264860000,/map,-941.599243164,-243.488876343,145.859054565,0.00536360205878,0.00771069166407,0.934387105518,0.356135527641
1543475377365014000,271,1543475377365014000,/map,-946.399719238,-246.053085327,146.913009644,0.00466159024971,0.00815429759864,0.962191001991,0.272213615925
1543475377465127000,272,1543475377465127000,/map,-951.199035645,-248.61706543,147.966537476,0.00392344910057,0.00853402250633,0.982467071471,0.186199437385
1543475377565285000,273,1543475377565285000,/map,-956.001220703,-251.183151245,149.02053833,0.00315431395298,0.00884721970279,0.995073745549,0.0986915291546
1543475377665405000,274,1543475377665405000,/map,-960.802062988,-253.749328613,150.074142456,0.00236082579357,0.00909117674208,0.999901327562,0.0104456759823
1543475377765557000,275,1543475377765557000,/map,-965.604736328,-256.317443848,151.128082275,-0.00154863467852,-0.00926416340615,-0.996916153941,0.077909941716
1543475377865710000,276,1543475377865710000,/map,-970.407592773,-258.886749268,152.182037354,-0.000724330470558,-0.00936473909689,-0.986138618701,0.16565748312
1543475377965843000,277,1543475377965843000,/map,-975.209350586,-261.456695557,153.235778809,0.00010546967644,-0.00939211739336,-0.967657404373,0.252093087508
1543475378065967000,278,1543475378065967000,/map,-980.010375977,-264.027557373,154.289428711,0.000934371300136,-0.00934611915486,-0.941618217017,0.33655149738
1543475378166117000,279,1543475378166117000,/map,-984.812133789,-266.600128174,155.343353271,0.00175618532453,-0.00922706920367,-0.908213556201,0.418401617276
1543475378266268000,280,1543475378266268000,/map,-989.613220215,-269.173675537,156.397293091,0.00256428150517,-0.00903589803758,-0.867709827626,0.496982325691
1543475378366397000,281,1543475378366397000,/map,-994.412475586,-271.747528076,157.451004028,0.00335216445361,-0.00877416585547,-0.820435032652,0.571662605217
1543475378466568000,282,1543475378466568000,/map,-999.212768555,-274.3230896,158.505157471,0.00411417087589,-0.00844373086896,-0.766726593668,0.64190506118
1543475378566688000,283,1543475378566688000,/map,-1004.00952148,-276.897796631,159.558776855,0.0048436450022,-0.00804749004821,-0.707054742022,0.707096435284
1543475378666809000,284,1543475378666809000,/map,-1008.80523682,-279.472839355,160.612411499,0.00553529043061,-0.00758838275472,-0.641859179276,0.766765003757
1543475378766960000,285,1543475378766960000,/map,-1013.60125732,-282.048706055,161.666366577,0.00618388431678,-0.00706983505748,-0.571628003164,0.820459141582
1543475378867125000,286,1543475378867125000,/map,-1018.39672852,-284.624847412,162.720474243,0.00678422402449,-0.00649594468641,-0.496918186495,0.867746560314
1543475378967243000,287,1543475378967243000,/map,-1023.18884277,-287.199401855,163.774093628,0.00733127895268,-0.00587157065029,-0.418360937187,0.90823229586
1543475379067373000,288,1543475379067373000,/map,-1027.98059082,-289.773742676,164.827835083,0.00782112416438,-0.0052012507908,-0.336525886871,0.941627370286
1543475379167541000,289,1543475379167541000,/map,-1032.77319336,-292.348358154,165.881973267,0.00825001434767,-0.00449001739936,-0.252029139375,0.967674061817
1543475379267703000,290,1543475379267703000,/map,-1037.56469727,-294.921966553,166.936050415,0.0086143792593,-0.0037437231415,-0.165567061277,0.986153804042
1543475379367846000,291,1543475379367846000,/map,-1042.35473633,-297.494110107,167.989929199,0.00891134834544,-0.00296830989784,-0.0778272680704,0.996922611516
1543475379467978000,292,1543475379467978000,/map,-1047.14379883,-300.064910889,169.043685913,0.00913865437558,-0.00216978825266,0.0105110066462,0.999900642941
1543475379568094000,293,1543475379568094000,/map,-1051.93188477,-302.634155273,170.09727478,0.00929453890804,-0.00135444506725,0.0987531156072,0.995067635482
1543475379668259000,294,1543475379668259000,/map,-1056.72229004,-305.203491211,171.151382446,0.00937784940101,-0.000528116880432,0.186266389639,0.982454380175
1543475379768449000,295,1543475379768449000,/map,-1061.51403809,-307.772277832,172.205749512,0.00938783373189,0.000302547096374,0.272344594706,0.962153937152
1543475379868556000,296,1543475379868556000,/map,-1066.30212402,-310.33782959,173.259246826,0.00932446701197,0.00113016093548,0.356223939862,0.934353403012
1543475379968707000,297,1543475379968707000,/map,-1071.09277344,-312.9034729,174.313201904,0.00918820641052,0.0019493059598,0.43735639014,0.899239214599
1543475380068863000,298,1543475380068863000,/map,-1075.88439941,-315.468322754,175.367202759,0.00898011715617,0.00275325418345,0.515074155803,0.857094155336
1543475380169015000,299,1543475380169015000,/map,-1080.67663574,-318.032287598,176.421157837,0.00870184394552,0.00353564913145,0.588762724423,0.808251341742
1543475380269180000,300,1543475380269180000,/map,-1085.47058105,-320.595977783,177.475250244,0.00835550567927,0.00429050436155,0.657857968031,0.753083442253
1543475380369333000,301,1543475380369333000,/map,-1090.26489258,-323.158905029,178.529220581,0.00794389448185,0.00501173056878,0.721802501884,0.692035349799
1543475380469465000,302,1543475380469465000,/map,-1095.05944824,-325.721069336,179.582977295,0.00747029575887,0.00569364418522,0.780093487764,0.625592461148
1543475380569623000,303,1543475380569623000,/map,-1099.85644531,-328.283874512,180.637008667,0.00693818482994,0.0063312316415,0.8323021869,0.554242588384
1543475380669759000,304,1543475380669759000,/map,-1104.65344238,-330.846313477,181.690811157,0.00635197040328,0.00691920275054,0.87799528496,0.478577116767
1543475380769900000,305,1543475380769900000,/map,-1109.45178223,-333.409240723,182.744659424,0.00571609044703,0.00745313322061,0.916829639716,0.39916812104
1543475380870054000,306,1543475380870054000,/map,-1114.25170898,-335.973083496,183.79864502,0.00503545119132,0.00792887861571,0.948502972609,0.316628943823
1543475380970180000,307,1543475380970180000,/map,-1119.05126953,-338.53692627,184.852340698,0.00431565716339,0.008342540863,0.972756530285,0.231638748708
1543475381070331000,308,1543475381070331000,/map,-1123.8527832,-341.102325439,185.906295776,0.00356195600569,0.00869110776692,0.989413864648,0.144817062387
1543475381170497000,309,1543475381170497000,/map,-1128.65563965,-343.6690979,186.960403442,0.00278029564403,0.00897178025447,0.9983385306,0.056850289666
1543475381270636000,310,1543475381270636000,/map,-1133.4576416,-346.23626709,188.014221191,-0.00197711636738,-0.00918225983474,-0.999458445989,0.0315371504116
1543475381370793000,311,1543475381370793000,/map,-1138.26062012,-348.805053711,189.068222046,-0.00115833887926,-0.00932100508763,-0.992766403709,0.119693963009
1543475381470957000,312,1543475381470957000,/map,-1143.06396484,-351.375183105,190.122299194,-0.00033044841807,-0.00938688918896,-0.978312529176,0.206921174296
1543475381571129000,313,1543475381571129000,/map,-1147.86755371,-353.946716309,191.176467896,0.000500091633547,-0.00937938127814,-0.956207959778,0.292537373293
1543475381671243000,314,1543475381671243000,/map,-1152.66784668,-356.517822266,192.230026245,0.00132624495207,-0.00929859984782,-0.926645635746,0.375818630284
1543475381771436000,315,1543475381771436000,/map,-1157.47131348,-359.09197998,193.284408569,0.00214267806323,-0.00914504322134,-0.88981400992,0.456226703367
1543475381871543000,316,1543475381871543000,/map,-1162.26989746,-361.664794922,194.337890625,0.00294167249069,-0.00892017083695,-0.846062083357,0.533001621218
1543475381971704000,317,1543475381971704000,/map,-1167.07019043,-364.239776611,195.391937256,0.00371810535983,-0.00862546099266,-0.795674148705,0.605652066948
1543475382071855000,318,1543475382071855000,/map,-1171.86901855,-366.815063477,196.445877075,0.00446539821539,-0.00826335909789,-0.739071798149,0.673561173388
1543475382172006000,319,1543475382172006000,/map,-1176.66662598,-369.39074707,197.499816895,0.00517778879538,-0.00783666944519,-0.676692742211,0.736205616492
1543475382272179000,320,1543475382272179000,/map,-1181.4642334,-371.967163086,198.553985596,0.00584985175372,-0.00734861342447,-0.609009132465,0.793107592758
1543475382372364000,321,1543475382372364000,/map,-1186.26123047,-374.54385376,199.608276367,0.00647624324263,-0.00680302566988,-0.536554386179,0.843813467413
1543475382472505000,322,1543475382472505000,/map,-1191.05505371,-377.11920166,200.662109375,0.00705173994736,-0.00620450227799,-0.45993749735,0.88790161372
1543475382572650000,323,1543475382572650000,/map,-1195.84802246,-379.694213867,201.715988159,0.00757214994926,-0.00555746614462,-0.379723078369,0.925052517898
1543475382672799000,324,1543475382672799000,/map,-1200.64013672,-382.268676758,202.76991272,0.00803339908109,-0.00486696866712,-0.296537652654,0.954974972276
1543475382772980000,325,1543475382772980000,/map,-1205.43310547,-384.843231201,203.824172974,0.00843197712303,-0.00413819363968,-0.211006939905,0.977439434659
1543475382873116000,326,1543475382873116000,/map,-1210.22302246,-387.415679932,204.877960205,0.00876447566073,-0.00337740302529,-0.123865438675,0.99225456926
1543475382973286000,327,1543475382973286000,/map,-1215.01403809,-389.987976074,205.932098389,0.00902856800672,-0.00258995068502,-0.0357260455116,0.999317480477
1543475383073434000,328,1543475383073434000,/map,-1219.80358887,-392.558624268,206.98600769,0.00922202980556,-0.00178242613938,0.0526732945737,0.998567624732
1543475383173590000,329,1543475383173590000,/map,-1224.59338379,-395.128326416,208.040008545,0.00934342170657,-0.000960904566445,0.140667997278,0.990012268447
1543475383273766000,330,1543475383273766000,/map,-1229.38415527,-397.697387695,209.094223022,0.00939177940704,-0.000131705513053,0.227580326685,0.973714009368
1543475383373920000,331,1543475383373920000,/map,-1234.17407227,-400.264709473,210.148208618,0.00936670587669,0.000698340652248,0.312694410574,0.9498073398
1543475383474041000,332,1543475383474041000,/map,-1238.96289062,-402.83013916,211.201843262,0.0092684605371,0.00152265820681,0.395337563508,0.918487881265
1543475383574227000,333,1543475383574227000,/map,-1243.75537109,-405.396240234,212.256164551,0.00909768121262,0.00233560383974,0.474943045225,0.879966408986
1543475383674386000,334,1543475383674386000,/map,-1248.54736328,-407.960784912,213.310195923,0.00885581783846,0.00313007015172,0.550813805742,0.834575298314
1543475383774522000,335,1543475383774522000,/map,-1253.33911133,-410.524017334,214.363983154,0.00854480445149,0.00389989302782,0.6223626538,0.782672667407
1543475383874688000,336,1543475383874688000,/map,-1258.13330078,-413.087524414,215.41809082,0.00816690082305,0.00463945898667,0.68906765313,0.724636147705
1543475383974849000,337,1543475383974849000,/map,-1262.9284668,-415.650543213,216.47215271,0.00772516794166,0.00534271738124,0.750382276597,0.660937376852
1543475384075064000,338,1543475384075064000,/map,-1267.72741699,-418.214782715,217.526779175,0.00722275533811,0.00600455277838,0.80585889453,0.592033123447
1543475384175162000,339,1543475384175162000,/map,-1272.52185059,-420.776123047,218.580169678,0.00666449979397,0.0066187070575,0.854975179953,0.518583859009
1543475384275334000,340,1543475384275334000,/map,-1277.32092285,-423.339630127,219.634338379,0.00605373924418,0.00718157808216,0.897444721605,0.441026925301
1543475384375485000,341,1543475384375485000,/map,-1282.12011719,-425.903076172,220.688293457,0.00539578377888,0.00768819367395,0.932890119594,0.360038611762
1543475384475672000,342,1543475384475672000,/map,-1286.92211914,-428.468048096,221.742630005,0.00469539607387,0.00813486633951,0.961052659029,0.276205654864
1543475384575796000,343,1543475384575796000,/map,-1291.72180176,-431.03225708,222.796310425,0.00395875543477,0.00851768994119,0.981687476489,0.190266853967
1543475384675977000,344,1543475384675977000,/map,-1296.52478027,-433.598846436,223.850585938,0.00319074430961,0.0088341337576,0.994658565673,0.102791609405
1543475384776107000,345,1543475384776107000,/map,-1301.32592773,-436.16519165,224.904327393,0.00239818819103,0.00908137941023,0.999849917353,0.0145574726964
1543475384876261000,346,1543475384876261000,/map,-1306.12854004,-438.733306885,225.958328247,-0.00158669924569,-0.00925770728074,-0.997227976257,0.073811520862
1543475384976428000,347,1543475384976428000,/map,-1310.9317627,-441.302886963,227.012466431,-0.000762699988266,-0.00936167972749,-0.986809201529,0.161614903458
1543475385076592000,348,1543475385076592000,/map,-1315.73486328,-443.873565674,228.066574097,6.72374575978e-05,-0.00939245642611,-0.968675550255,0.248152081552
1543475385176802000,349,1543475385176802000,/map,-1320.53979492,-446.446563721,229.121170044,0.000897029183821,-0.00934976455508,-0.942955074585,0.332787476561
1543475385276946000,350,1543475385276946000,/map,-1325.34106445,-449.018920898,230.175064087,0.00171926338128,-0.00923400736506,-0.909879778038,0.41476567693
1543475385377093000,351,1543475385377093000,/map,-1330.14172363,-451.592346191,231.228988647,0.00252808486866,-0.00904607901187,-0.869692407718,0.493504704333
1543475385477255000,352,1543475385477255000,/map,-1334.94238281,-454.167022705,232.283065796,0.00331726516699,-0.00878740635251,-0.822700334478,0.568397692545
1543475385577426000,353,1543475385577426000,/map,-1339.74255371,-456.742584229,233.337234497,0.00408057813236,-0.00846000240531,-0.769271429755,0.638853069653
1543475385677551000,354,1543475385677551000,/map,-1344.53942871,-459.317443848,234.390914917,0.00481165631714,-0.008066642553,-0.709855959119,0.704284242721
1543475385777728000,355,1543475385777728000,/map,-1349.33764648,-461.893920898,235.445144653,0.00550549462532,-0.0076100123208,-0.644859918107,0.764243065563
1543475385877895000,356,1543475385877895000,/map,-1354.13415527,-464.470275879,236.499267578,0.00615621584943,-0.00709392451379,-0.574828166127,0.818220237264
1543475385978099000,357,1543475385978099000,/map,-1358.93139648,-467.047424316,237.553787231,0.00675901687838,-0.00652215067519,-0.500273715928,0.865816369904
1543475386078222000,358,1543475386078222000,/map,-1363.72351074,-469.622192383,238.607452393,0.00730851024478,-0.00589986750648,-0.421869763974,0.90660778702
1543475386178416000,359,1543475386178416000,/map,-1368.51806641,-472.198272705,239.661865234,0.00780123888401,-0.00523100663991,-0.340111295487,0.940338281643
1543475386278561000,360,1543475386278561000,/map,-1373.30932617,-474.77243042,240.715759277,0.00823274358402,-0.00452158066078,-0.255734029814,0.966701548171
1543475386378741000,361,1543475386378741000,/map,-1378.1015625,-477.346588135,241.770019531,0.00860002432007,-0.00377655137479,-0.169327649681,0.985515055337
1543475386478909000,362,1543475386478909000,/map,-1382.89245605,-479.919464111,242.824157715,0.00890001487578,-0.00300208157834,-0.0816076206567,0.996620275477
1543475386579031000,363,1543475386579031000,/map,-1387.68066406,-482.490112305,243.877807617,0.00913032838367,-0.00220450951425,0.00670991124629,0.999933374947
1543475386679210000,364,1543475386679210000,/map,-1392.47131348,-485.061035156,244.932052612,0.00928938843998,-0.00138924903365,0.0950251092279,0.995430563056
1543475386779388000,365,1543475386779388000,/map,-1397.26196289,-487.63079834,245.986282349,0.00937579982108,-0.000563132557379,0.182596283829,0.983143109822
1543475386879575000,366,1543475386879575000,/map,-1402.05322266,-490.199615479,247.040603638,0.00938888728258,0.000267462440365,0.268747134326,0.963164967724
1543475386979747000,367,1543475386979747000,/map,-1406.84411621,-492.766906738,248.094772339,0.0093285514613,0.00109584131882,0.352783456637,0.93565784878
1543475387079914000,368,1543475387079914000,/map,-1411.63525391,-495.333068848,249.148895264,0.00919528014599,0.0019156105029,0.434057211229,0.900836341762
1543475387180041000,369,1543475387180041000,/map,-1416.4251709,-497.897247314,250.202590942,0.00899021029745,0.00272008444164,0.511906863658,0.858989604244
1543475387280185000,370,1543475387280185000,/map,-1421.21679688,-500.46105957,251.256469727,0.00871485278918,0.00350343851452,0.58576943077,0.810423316073
1543475387380389000,371,1543475387380389000,/map,-1426.0123291,-503.025756836,252.310974121,0.00837116191948,0.00425985687015,0.655094242412,0.755488789345
1543475387480504000,372,1543475387480504000,/map,-1430.8046875,-505.587738037,253.364547729,0.00796236294808,0.00498231861837,0.719238761753,0.694699489614
1543475387580729000,373,1543475387580729000,/map,-1435.60339355,-508.152282715,254.419281006,0.00749082289167,0.00566659393391,0.777826706549,0.628408618547
1543475387680908000,374,1543475387680908000,/map,-1440.40112305,-510.715606689,255.473526001,0.0069609025526,0.006306230265,0.830303456987,0.557232399104
1543475387781033000,375,1543475387781033000,/map,-1445.19750977,-513.277709961,256.527191162,0.00637687370148,0.00689624436178,0.876263775903,0.481740150222
1543475387881170000,376,1543475387881170000,/map,-1449.99560547,-515.840576172,257.580963135,0.00574294867975,0.00743244542285,0.915382909857,0.402474726707
1543475387981348000,377,1543475387981348000,/map,-1454.79663086,-518.404968262,258.635162354,0.00506386282207,0.00791075203892,0.947360785922,0.320030183877
1543475388081549000,378,1543475388081549000,/map,-1459.59960938,-520.97076416,259.689605713,0.00434500553273,0.00832728235515,0.971934745593,0.235063029002
1543475388181707000,379,1543475388181707000,/map,-1464.40136719,-523.536254883,260.743591309,0.00359248274772,0.00867852361922,0.988898666081,0.14829432059
1543475388281877000,380,1543475388281877000,/map,-1469.2043457,-526.103149414,261.797698975,0.00281178199372,0.0089619521602,0.998132732531,0.0603558244576
