%time,field.header.seq,field.header.stamp,field.header.frame_id,field.pose.position.x,field.pose.position.y,field.pose.position.z,field.pose.orientation.x,field.pose.orientation.y,field.pose.orientation.z,field.pose.orientation.w
1543475342953552000,0,1543475342953552000,/map,1.1817086935,-1.200704813,-0.0152261257172,0.0,0.0,0.707106796641,0.707106765732
1543475343053827000,1,1543475343053827000,/map,1.1105890274,-1.02128434181,-0.0197643041611,0.00229492878607,-0.00878211574866,0.707075205743,0.707080095299
1543475343254353000,2,1543475343254353000,/map,1.29398778092,-0.0066321621337,0.0328539350662,0.00195297246462,-0.00849765922444,0.705828300928,0.70832929157
1543475343454818000,3,1543475343454818000,/map,0.953869224589,0.394743965704,-0.010353758926,0.0022516350211,-0.00855403244296,0.705408509458,0.708745789019
1543475343555096000,4,1543475343555096000,/map,0.916042687842,0.625846526723,-0.00627815555665,0.00240146997333,-0.0085055746311,0.705587588581,0.708567599444
1543475343655289000,5,1543475343655289000,/map,0.993066617001,0.913299591794,0.0139996842135,0.00252054948397,-0.00873402773936,0.70759341075,0.70656134104
1543475343855821000,6,1543475343855821000,/map,1.72638699041,2.5725630716,0.014581161744,0.00252883361628,-0.00850201362243,0.724765237713,0.688938800597
1543475343956071000,7,1543475343956071000,/map,1.63395295892,3.2586323263,0.02841074939,0.00268478336385,-0.0086930187549,0.729557967077,0.683858461992
1543475344056295000,8,1543475344056295000,/map,1.79144316518,3.90791629267,0.00898188723947,0.00298127121076,-0.0085417632102,0.733883954333,0.679214614004
1543475344156547000,9,1543475344156547000,/map,1.95880443777,4.60826446911,0.101131639385,0.00236403815062,-0.00882042082227,0.738104561657,0.674624538214
1543475344256839000,10,1543475344256839000,/map,2.14143622838,5.34803158339,0.0918540211119,0.00239001543691,-0.00902864821207,0.74219349255,0.670120579414
1543475344357040000,11,1543475344357040000,/map,2.22321702773,6.07624598479,0.124549669788,0.00202260832056,-0.00896263046277,0.745748151111,0.666164600849
1543475344457324000,12,1543475344457324000,/map,0.997867487359,6.54078566449,0.157249516946,0.00156181055657,-0.00908950383912,0.745931064294,0.665959299799
1543475344657778000,13,1543475344657778000,/map,0.66422176095,7.11751902955,0.173658064097,0.00170457352389,-0.00944903013666,0.757296105947,0.653001085892
1543475344958529000,14,1543475344958529000,/map,1.50319783156,8.69865521684,0.169609906218,0.00191740681923,-0.00955656267768,0.767376671749,0.641122483864
1543475345058802000,15,1543475345058802000,/map,1.5501916885,9.20987214104,0.19276917673,0.00127363215995,-0.00925554386745,0.770943676019,0.636834798967
1543475345159055000,16,1543475345159055000,/map,1.02685268487,9.74815874755,0.216910444175,0.00108794061821,-0.00947898052022,0.776639613162,0.629872905101
1543475345359559000,17,1543475345359559000,/map,1.59819177991,11.1505829473,0.200808162031,0.00153915965028,-0.00976507596498,0.781724326513,0.623545789511
1543475345459809000,18,1543475345459809000,/map,1.89432794419,11.4930569855,0.238568289667,0.000970733225373,-0.00940056629807,0.782934059854,0.622032913077
1543475345760509000,19,1543475345760509000,/map,2.38515109742,11.7193764756,0.201284962343,0.000869289477115,-0.00920948924053,0.777057081497,0.629362154676
1543475345960969000,20,1543475345960969000,/map,1.68009036254,12.0457853694,0.234303915552,0.000974862508912,-0.00925477817237,0.764531569568,0.644519105891
1543475346160694000,21,1543475346160694000,/map,1.27010091043,12.2434974326,0.2542684351,0.000865709349519,-0.00925013358953,0.75326610636,0.65765025552
1543475346260464000,22,1543475346260464000,/map,1.16618115267,12.386980399,0.236607059783,0.00118257961594,-0.00930289228821,0.748331399721,0.663258753348
1543475346360261000,23,1543475346360261000,/map,1.05346903705,12.5642538914,0.232899783465,0.00126507687356,-0.00898921961645,0.74325492518,0.668946716642
1543475346460020000,24,1543475346460020000,/map,0.863014146496,13.2110510991,0.248575948658,0.00102443404955,-0.00886291389695,0.738790540537,0.67387605426
1543475346659629000,25,1543475346659629000,/map,2.00571523507,14.309213078,0.217239463307,0.00083827830291,-0.00842239784937,0.722114716872,0.691721545263
1543475347058767000,26,1543475347058767000,/map,1.27672291802,18.89236896,0.284872620973,0.00119202797932,-0.00867936479598,0.674158200425,0.738535015077
1543475347258381000,27,1543475347258381000,/map,1.53182809693,21.2637069018,0.285082411817,0.00170954498782,-0.00786557580445,0.663076998951,0.748507918218
1543475347457982000,28,1543475347457982000,/map,1.83129681807,22.6633098993,0.349818610682,0.00222644967583,-0.00831176553989,0.648667872872,0.761022961663
1543475347557789000,29,1543475347557789000,/map,1.94197348063,23.5221420314,0.345061548728,0.00257793111002,-0.00841780045199,0.640407061939,0.767985214653
1543475347757432000,30,1543475347757432000,/map,3.64661822309,24.6628465472,0.377753446349,0.00265162811013,-0.00860851386983,0.622657033454,0.782443020959
1543475347857209000,31,1543475347857209000,/map,3.8149132118,25.1687474081,0.392848107304,0.00343111961893,-0.0083597060311,0.610674881452,0.791829862974
1543475348156677000,32,1543475348156677000,/map,7.31819758911,27.9906499991,0.492488778628,0.00333599051808,-0.00829665827172,0.599945304259,0.799991042778
1543475348356323000,33,1543475348356323000,/map,9.31419813384,29.1044271801,0.495799422095,0.00408497607189,-0.00844950285734,0.586199041978,0.810112709477
1543475348655857000,34,1543475348655857000,/map,10.545979904,31.4567868422,0.527959533724,0.00423194664366,-0.00836147313392,0.580048611783,0.814527951861
1543475348755674000,35,1543475348755674000,/map,10.9876279476,32.2133676136,0.513042929452,0.00482196847047,-0.00795320498339,0.580886025331,0.813931766628
1543475348855479000,36,1543475348855479000,/map,11.5054788343,31.8843008321,0.486121812718,0.00501733203825,-0.00774482032682,0.57873757436,0.815461626419
1543475349155075000,37,1543475349155075000,/map,14.6865058284,30.4696912309,0.516586051785,0.00509342162763,-0.00773268307038,0.589589286863,0.807650131854
1543475349354753000,38,1543475349354753000,/map,15.3663289915,29.3373406169,0.509027989303,0.00442130007889,-0.00763644992502,0.594803815756,0.803822466407
1543475349454636000,39,1543475349454636000,/map,15.9612666577,28.8868823454,0.566770302976,0.00391430388303,-0.00795375385316,0.596794168581,0.802345397178
1543475349654311000,40,1543475349654311000,/map,14.2121868395,29.0146478659,0.540608289113,0.00398690992222,-0.00788075560792,0.603922983461,0.796993744196
1543475349754175000,41,1543475349754175000,/map,13.7941146329,29.060669077,0.544701888859,0.00360024074237,-0.00811220355403,0.606767532097,0.794829788327
1543475349854040000,42,1543475349854040000,/map,13.3966797965,29.007615528,0.554422308274,0.00365222355362,-0.00820365039489,0.60988157451,0.792441686471
1543475349953863000,43,1543475349953863000,/map,11.7593583299,29.5920166561,0.519678434962,0.00359450612041,-0.00836153055748,0.611570937792,0.791137252556
1543475350253489000,44,1543475350253489000,/map,5.77752894652,30.4353860706,0.543622939372,0.00408570607321,-0.00849513460566,0.637295473092,0.770561885685
1543475350553158000,45,1543475350553158000,/map,-0.335306795573,32.1510445698,0.357276429163,0.00381121198685,-0.00762192770909,0.660444865406,0.750826185372
1543475350653011000,46,1543475350653011000,/map,-2.21524535914,32.5687318043,0.347520467839,0.00363653549185,-0.00739241982105,0.667782325816,0.744311019042
1543475350752890000,47,1543475350752890000,/map,-3.87102167645,33.0063833766,0.476487953687,0.00304732485967,-0.00847682001511,0.674594673327,0.738133378227
1543475350852768000,48,1543475350852768000,/map,-5.44378942283,32.8939498247,0.428948737452,0.00308961678104,-0.00887852738096,0.68146408359,0.731791178409
1543475351152462000,49,1543475351152462000,/map,-8.55342366222,30.6619354089,0.498762939161,0.0031450978686,-0.00950580888681,0.702208504668,0.711900950926
1543475351452112000,50,1543475351452112000,/map,-11.0567514104,30.6047287928,0.38917615398,0.00214052216572,-0.00947210142668,0.726258266513,0.687353350018
1543475351552000000,51,1543475351552000000,/map,-11.7349919636,30.3176637772,0.353661632533,0.0016774043732,-0.00970054616774,0.733937864653,0.679145269104
1543475351651882000,52,1543475351651882000,/map,-13.3307832984,30.1241461762,0.348792697499,0.00132316021947,-0.00970749314285,0.738054191405,0.674670307908
1543475351851700000,53,1543475351851700000,/map,-15.3128272497,29.9444770431,0.340144192363,0.00104234313363,-0.00981440352767,0.750431726764,0.660874280381
1543475351951641000,54,1543475351951641000,/map,-16.4520380266,29.33018342,0.295623158393,0.000452166051739,-0.0098027914469,0.75672653588,0.653657900374
1543475352151391000,55,1543475352151391000,/map,-18.7161061719,29.4014206847,0.475937750054,-0.000730961384082,-0.0109301728515,0.776488848578,0.630035764898
1543475352251339000,56,1543475352251339000,/map,-19.841554971,29.3103097533,0.33796783588,-0.000848570492737,-0.0111546710195,0.784602426622,0.619898286319
1543475352351252000,57,1543475352351252000,/map,-21.0346475897,28.8969656764,0.227594623659,-0.0015134896417,-0.00973715932889,0.791102975146,0.611603613293
1543475352451168000,58,1543475352451168000,/map,-22.5189414937,28.7374244711,0.274027736017,-0.00164604961022,-0.0102182491121,0.797643071248,0.60304096776
1543475352651008000,59,1543475352651008000,/map,-24.1362745607,29.0830535751,0.247338113413,-0.00170296376759,-0.0101636077593,0.815189958023,0.57910200598
1543475352750929000,60,1543475352750929000,/map,-25.3652497785,29.1139797595,0.25254029258,-0.00164611809389,-0.0109978229481,0.821429848475,0.570201141897
1543475352850830000,61,1543475352850830000,/map,-26.6246321654,28.3850899641,0.18810783767,-0.00278201547077,-0.0101631165293,0.825238306672,0.564686380793
1543475353050665000,62,1543475353050665000,/map,-29.4011998771,28.439274414,0.217128801893,-0.00247202621451,-0.0108425876841,0.83955850684,0.543155448258
1543475353150616000,63,1543475353150616000,/map,-30.6721577861,28.0813536307,0.206116305656,-0.00275442092101,-0.0114446794883,0.84504699296,0.534562449266
1543475353450370000,64,1543475353450370000,/map,-35.8658483125,30.1570001757,0.108901311345,-0.00353793886327,-0.0112187480127,0.867023836329,0.498127784729
1543475353550328000,65,1543475353550328000,/map,-37.6303050492,30.6580373109,0.155680764797,-0.00293981341032,-0.0121968919081,0.873338058461,0.486953004888
1543475353750181000,66,1543475353750181000,/map,-40.2334908442,32.6979300874,0.0812074483632,-0.00374646068507,-0.011626377486,0.882835890811,0.469522716463
1543475353850202000,67,1543475353850202000,/map,-41.6576303497,33.5258032306,0.108691841377,-0.00385907450038,-0.0117160301621,0.88814674581,0.459394384041
1543475354049970000,68,1543475354049970000,/map,-43.2957903033,36.6804571637,0.108860149209,-0.00390125948951,-0.0117055352074,0.903944316745,0.427472142771
1543475354149975000,69,1543475354149975000,/map,-44.2989729356,38.0271182959,0.146996865679,-0.00434923622941,-0.0118375263322,0.910157960827,0.414069370344
1543475354349835000,70,1543475354349835000,/map,-45.1447104996,41.4542745256,0.00217385373946,-0.00457608289452,-0.011030217794,0.928970111653,0.369962059429
1543475354549762000,71,1543475354549762000,/map,-46.0611638974,44.7825611257,0.18873019703,-0.00481070958523,-0.0112010734768,0.945104758198,0.326540026731
1543475354649684000,72,1543475354649684000,/map,-46.6273339385,46.3532982551,0.0728504783843,-0.00567580883927,-0.00945996294598,0.951523642953,0.307377701202
1543475354849602000,73,1543475354849602000,/map,-47.7799111438,48.4593629274,0.0550727584398,-0.00569916181129,-0.00910416700284,0.959681659999,0.280883864184
1543475354949552000,74,1543475354949552000,/map,-48.505637622,49.231748367,0.290023874544,-0.00497062966282,-0.0113198170866,0.963679453128,0.266775310328
1543475355249406000,75,1543475355249406000,/map,-52.1352887926,54.2878307352,0.254753096417,-0.00475667908368,-0.0113123078975,0.978614794403,0.205335067317
1543475355349417000,76,1543475355349417000,/map,-53.1640786924,55.847429023,0.179897148051,-0.00543345644789,-0.00987705720128,0.982365478788,0.186630617471
1543475355449326000,77,1543475355449326000,/map,-54.1851898186,57.3944850943,0.245006928755,-0.00579305613174,-0.00995060562712,0.986032295196,0.166155766616
1543475355649257000,78,1543475355649257000,/map,-54.5496920942,60.8513527248,0.224428336442,-0.00594659647492,-0.00991331769029,0.992500517038,0.121692595513
1543475355949191000,79,1543475355949191000,/map,-53.9347564244,65.557327727,0.257863220599,-0.00493894420242,-0.00934437856542,0.998352791578,0.056391426362
1543475356049149000,80,1543475356049149000,/map,-53.927278834,67.1544067767,0.315650705306,-0.00666260627881,-0.00775931728515,0.999253998655,0.037240419498
1543475356149128000,81,1543475356149128000,/map,-53.9141002888,69.388571587,0.348304561042,-0.00698714282564,-0.00755888671364,0.999882775174,0.0113348567225
1543475356349070000,82,1543475356349070000,/map,-55.1579489709,73.9897262795,0.479498207311,-0.00736883548844,-0.00767196771923,0.999096136849,-0.0411552002517
1543475356549026000,83,1543475356549026000,/map,-55.1589688111,76.5252272237,0.799086534869,0.00689193628489,0.00900054218995,-0.996307085173,0.0851098319175
1543475356749038000,84,1543475356749038000,/map,-56.2359541572,80.7283728844,1.24007264388,0.00977355895868,0.0129727021436,-0.989829153169,0.141330938158
1543475356948943000,85,1543475356948943000,/map,-56.3942770721,85.2620692753,1.00265903625,0.00423311609446,0.0104655100492,-0.977901891158,0.208759299428
1543475357048948000,86,1543475357048948000,/map,-56.8128796369,87.4638241636,1.12522447307,0.00419891528541,0.00947449066028,-0.971513768477,0.236756416589
1543475357248889000,87,1543475357248889000,/map,-57.9105463788,92.3178520714,0.838580079209,0.00505963823379,0.00790853740612,-0.955555374008,0.294662149421
1543475357348890000,88,1543475357348890000,/map,-58.7400809632,95.1941593872,1.22679368991,0.00758057530585,0.0075082278495,-0.946066771162,0.323795963371
1543475357548911000,89,1543475357548911000,/map,-60.7843614642,98.2844123024,1.24116291191,0.00907987846636,0.00797466189342,-0.918403793248,0.395459774341
1543475357648884000,90,1543475357648884000,/map,-61.7249650348,100.113547158,1.16204164155,0.00879588246166,0.00731685674948,-0.90337887252,0.428690691226
1543475357748912000,91,1543475357748912000,/map,-62.6884657615,101.896950568,1.15619350494,0.0096701795332,0.00650684257922,-0.888076730837,0.45954746085
1543475357848870000,92,1543475357848870000,/map,-64.2567698956,104.445401166,1.03206963401,0.00755102579286,0.00390501971247,-0.86957157657,0.493733740038
1543475357948859000,93,1543475357948859000,/map,-66.2237690483,107.55783548,1.48923433987,0.0106282446691,0.00545641046885,-0.84318115163,0.53749680328
1543475358048902000,94,1543475358048902000,/map,-67.7937886157,110.225960615,1.33690741117,0.00915544785573,0.00537752413555,-0.817232216688,0.576210694118
1543475358248870000,95,1543475358248870000,/map,-71.3131150761,117.462012383,1.37687633491,0.00627669280321,0.00341775971972,-0.759887020703,0.650015875047
1543475358348934000,96,1543475358348934000,/map,-72.978589758,120.760542127,1.44353393872,0.00667107063772,0.0028528805663,-0.728896125914,0.684585856936
1543475358448902000,97,1543475358448902000,/map,-76.0802269897,123.573063,1.34244443149,0.00471661175438,0.000902908252755,-0.70057902837,0.713558661455
1543475358648926000,98,1543475358648926000,/map,-81.4491006556,128.068605772,0.898089945841,0.00718584562321,-0.0034384320274,-0.636840494035,0.770954425349
1543475358748882000,99,1543475358748882000,/map,-84.4345648307,130.798874023,1.11321676442,0.00772479800917,-0.00397602834883,-0.600474437906,0.799596753442
1543475358948944000,100,1543475358948944000,/map,-91.8344128287,135.822561313,1.11674524197,0.00546699259863,-0.00479016354572,-0.539797672951,0.841763410111
1543475359048921000,101,1543475359048921000,/map,-95.2768410252,138.308751129,0.879094748756,0.00704886561395,-0.00434863171623,-0.508821837156,0.860832005056
1543475359148918000,102,1543475359148918000,/map,-98.6147481468,140.901191808,0.742837371458,0.00914730589124,-0.00152481674785,-0.480201052065,0.877109429504
1543475359248970000,103,1543475359248970000,/map,-101.937523469,144.249059759,0.892791568748,0.00823435664421,-0.00101183957167,-0.448651697759,0.89366818543
1543475359348980000,104,1543475359348980000,/map,-105.285482857,147.177033838,0.838832240982,0.00887240701437,-0.00181931843808,-0.414116186697,0.91017896833
1543475359549014000,105,1543475359549014000,/map,-113.921159964,151.068067749,0.751131762572,0.00805424597695,-0.00185105061937,-0.356308522428,0.934331814496
1543475359649016000,106,1543475359649016000,/map,-117.462466811,153.477267238,0.690086656896,0.00664716025189,-0.0047447944403,-0.323670601679,0.946134580171
1543475359849071000,107,1543475359849071000,/map,-124.044443071,157.733097191,0.379702829142,0.00732377723622,-0.00703164332364,-0.247988923128,0.968709663565
1543475359949103000,108,1543475359949103000,/map,-127.221713303,160.200992348,0.416698808619,0.00731104360661,-0.00876768164274,-0.218367238432,0.975799890131
1543475360049127000,109,1543475360049127000,/map,-130.211522173,161.825374702,0.298411481211,0.0085315673934,-0.00967329722082,-0.171180653778,0.985155228099
1543475360149151000,110,1543475360149151000,/map,-133.085571289,163.630447388,0.770971417427,0.0072704021503,-0.00627312922972,-0.119886740719,0.992741133681
1543475360249160000,111,1543475360249160000,/map,-135.866233093,165.989168867,0.550180589267,0.00514764107753,-0.00773256686859,-0.0786152671811,0.996861750178
1543475360349184000,112,1543475360349184000,/map,-138.137747743,168.282847379,0.507766446372,0.00271001598479,-0.00809625419657,-0.0392373565306,0.9991934429
1543475360549213000,113,1543475360549213000,/map,-143.415166611,168.091959158,-0.173289286506,-0.000492218173558,-0.0114239350962,0.0712337279348,0.997394108381
1543475360649248000,114,1543475360649248000,/map,-146.820010706,168.214242001,0.173026709686,-0.00215075988031,-0.0134814867244,0.126355476786,0.991891081336
1543475360749319000,115,1543475360749319000,/map,-150.395876368,167.992128654,0.506928567108,0.000666022004535,-0.0118182483103,0.178517136404,0.983865599272
1543475360949360000,116,1543475360949360000,/map,-158.726456035,166.722641884,0.139973914903,0.000251481089074,-0.0112204339081,0.292722366325,0.956131609598
1543475361049370000,117,1543475361049370000,/map,-162.630300518,166.316996263,0.311162116225,0.00315843333881,-0.0111861599862,0.347692262892,0.937536657656
1543475361149418000,118,1543475361149418000,/map,-165.907180195,165.605168362,0.399988432665,0.00501627199206,-0.0133995512383,0.406469640047,0.913552253985
1543475361249464000,119,1543475361249464000,/map,-171.414978805,162.45160562,0.197589863944,0.00833142858279,-0.0158222440186,0.472816078274,0.880979681955
1543475361349519000,120,1543475361349519000,/map,-176.035858235,160.795771197,0.277488957861,0.0119097434821,-0.0151020373774,0.53412817806,0.845184699269
1543475361449565000,121,1543475361449565000,/map,-180.532276046,158.885525518,-0.0960933678762,0.00910857770744,-0.0194166967663,0.589348709411,0.80759403441
1543475361549557000,122,1543475361549557000,/map,-184.498223026,157.309773056,-0.238804400154,0.0113521734115,-0.0209282022923,0.648169148429,0.761124098641
1543475361649594000,123,1543475361649594000,/map,-190.804468562,155.207563663,-1.78213508781,0.00329702803298,-0.0307623643342,0.702817102624,0.710697493175
1543475361849717000,124,1543475361849717000,/map,-199.988185709,150.840605443,-3.3024071917,0.00119928059072,-0.0212813555358,0.808669962646,0.587876311095
1543475361949731000,125,1543475361949731000,/map,-206.402015077,146.930578811,-1.33815528771,0.0156788683934,-0.015118761596,0.8589462674,0.511602292658
1543475362049791000,126,1543475362049791000,/map,-210.92602216,143.544500082,-0.690179973152,0.0177595528437,-0.0090166601027,0.902126088995,0.431012549327
1543475362249889000,127,1543475362249889000,/map,-222.211670966,136.248987646,5.24465450167,0.0270886602237,0.0125537013841,0.968222896337,0.248300286102
1543475362449956000,128,1543475362449956000,/map,-232.506055075,130.133301322,5.24173604391,0.0184940935262,-8.37120904656e-05,0.997137056547,0.0733188376732
1543475362650064000,129,1543475362650064000,/map,-242.948074024,125.275660999,1.31781642282,0.000248802103343,9.83207814771e-05,0.994849743145,-0.101360332451
1543475362750134000,130,1543475362750134000,/map,-247.832988578,121.897031456,-3.5658489622,0.0101674433183,-0.0219040828707,-0.981107157267,0.1919520258
1543475362950217000,131,1543475362950217000,/map,-256.23319439,120.2167816,-7.15165798172,0.0138557641868,-0.0146583433469,-0.936094397203,0.351170087414
1543475363150315000,132,1543475363150315000,/map,-265.543091173,116.077661672,-4.54556285393,0.00236219476521,-0.0115997064174,-0.861286168033,0.507982286702
1543475363350432000,133,1543475363350432000,/map,-275.340225143,112.45266583,-2.45398192547,-0.00509098335621,-0.00994873766063,-0.761611564138,0.647937442875
1543475363550592000,134,1543475363550592000,/map,-284.271051414,109.893851063,-2.15713446831,-0.00141381703073,-0.0107222732825,-0.643709516067,0.7651935003
1543475363750650000,135,1543475363750650000,/map,-294.680425348,103.639864424,1.7733156615,-0.00305739008894,-0.00388813221316,-0.495315712456,0.868698958091
1543475363850700000,136,1543475363850700000,/map,-299.246534839,100.614314174,2.69818960042,-0.00584800932471,-0.00735010387599,-0.415442583424,0.909570907977
1543475363950791000,137,1543475363950791000,/map,-304.039744197,98.0465861293,3.75152009204,-0.00517639208636,-0.00783761472484,-0.333533563168,0.94269143361
1543475364050853000,138,1543475364050853000,/map,-308.831558009,95.4796029113,4.80454539021,-0.00446457547955,-0.0082638251067,-0.249045495798,0.968446238974
1543475364150914000,139,1543475364150914000,/map,-313.623304162,92.9126538277,5.85756012447,-0.00371793280357,-0.00862555594004,-0.162615185219,0.986644859256
1543475364250987000,140,1543475364250987000,/map,-318.415613722,90.3453876487,6.91070119776,-0.00294218819512,-0.00892002064074,-0.0749055929412,0.997146392917
1543475364351050000,141,1543475364351050000,/map,-323.207467894,87.7783861164,7.96373810831,-0.0021435635155,-0.00914485511431,0.0133797459745,0.999866370651
1543475364451156000,142,1543475364451156000,/map,-328.001357289,85.2102845187,9.01722574416,-0.00132786090077,-0.00929838830308,0.101598458843,0.994781146746
1543475364551177000,143,1543475364551177000,/map,-332.791156564,82.6443543471,10.0698204333,-0.000502492865758,-0.00937927185482,0.188950080912,0.981941772043
1543475364651248000,144,1543475364651248000,/map,-337.583388062,80.0771474823,11.1229407755,0.00032720700483,-0.00938702163536,0.27487112978,0.961435197387
1543475364751320000,145,1543475364751320000,/map,-342.375627722,77.5099154472,12.176072154,0.0011543618067,-0.00932151749588,0.358648019421,0.933425612958
1543475364851398000,146,1543475364851398000,/map,-347.168195044,74.9425340653,13.2292663666,0.00197255697709,-0.00918325969244,0.439630863932,0.898129434012
1543475364951462000,147,1543475364951462000,/map,-351.960053444,72.3755117413,14.2823128805,0.00277524607855,-0.00897336329423,0.517171941339,0.85582998303
1543475365051543000,148,1543475365051543000,/map,-356.752736704,69.8080508235,15.3355375231,0.00355641145937,-0.00869339848036,0.590689849716,0.806844023466
1543475365151615000,149,1543475365151615000,/map,-361.54500968,67.2408238408,16.3886706214,0.00430975225013,-0.00834561412655,0.659591355346,0.751565712838
1543475365251688000,150,1543475365251688000,/map,-366.337328162,64.6735659599,17.4418115949,0.00502946714891,-0.00793269814154,0.723346112953,0.690421738965
1543475365351755000,151,1543475365351755000,/map,-371.12938186,62.1064695356,18.4948919204,0.00570989315418,-0.00745790585718,0.781452637843,0.623893862422
1543475365451875000,152,1543475365451875000,/map,-375.923985842,59.5380080235,19.548529484,0.00634608803525,-0.006924621927,0.833487324156,0.552458738051
1543475365551917000,153,1543475365551917000,/map,-380.7148316,56.9715520829,20.6013443707,0.00693227598437,-0.00633772603128,0.878978566722,0.476768765778
1543475365651971000,154,1543475365651971000,/map,-385.506281449,54.404790116,21.6542877382,0.00746445904734,-0.00570132201349,0.917618792981,0.397350635519
1543475365752015000,155,1543475365752015000,/map,-390.297250606,51.8382806774,22.7071243769,0.00793836752723,-0.00502051218239,0.949097896941,0.314841164401
1543475365852104000,156,1543475365852104000,/map,-395.090350782,49.2706160561,23.7604356504,0.00835053230019,-0.00430021300338,0.973183717593,0.22983739598
1543475365952204000,157,1543475365952204000,/map,-399.884010661,46.7026673319,24.8138612598,0.00869754301483,-0.00354626099943,0.989673793828,0.143029922006
1543475366052269000,158,1543475366052269000,/map,-404.675966724,44.1356177323,25.8669202584,0.00897655548412,-0.00276489706642,0.998434642829,0.0551365649528
1543475366152367000,159,1543475366152367000,/map,-409.469506346,41.5677187921,26.9203263791,0.00918558409278,-0.00196169084872,0.99940405153,-0.0332162399878
1543475366252437000,160,1543475366252437000,/map,-414.261720644,39.0005390167,27.9734373298,-0.00932286553209,0.00114340009186,-0.992573283659,0.12128500889
1543475366352521000,161,1543475366352521000,/map,-419.054595,36.4329980849,29.0266976255,-0.00938740031266,0.000316070987661,-0.977994438361,0.208419421717
1543475366452567000,162,1543475366452567000,/map,-423.84565338,33.8664342882,30.0795561522,-0.00937867674865,-0.000513410674043,-0.955791575904,0.293894947664
1543475366552711000,163,1543475366552711000,/map,-428.641381299,31.2973592771,31.1334413743,-0.00929668699993,-0.00133969335636,-0.926101141167,0.37715839267
1543475366652754000,164,1543475366652754000,/map,-433.432297051,28.7308739647,32.1862635366,-0.0091422356728,-0.00215469124626,-0.889213990646,0.457395076134
1543475366752823000,165,1543475366752823000,/map,-438.224481189,26.1637197496,33.2393616751,-0.0089164130021,-0.00295308808131,-0.845379372901,0.534083788111
1543475366852962000,166,1543475366852962000,/map,-443.020014807,23.5947694779,34.2931866079,-0.00862078267531,-0.00372897512636,-0.794910436801,0.606654081264
1543475366953008000,167,1543475366953008000,/map,-447.811098103,21.0282074919,35.3460290543,-0.00825815523324,-0.00447504430946,-0.738285295058,0.674423160895
1543475367053107000,168,1543475367053107000,/map,-452.604710955,18.4602854736,36.3994224954,-0.00783087367613,-0.00518657564261,-0.675867242302,0.736963532092
1543475367153164000,169,1543475367153164000,/map,-457.396304105,15.8934400554,37.4523778346,-0.00734266590728,-0.00585733785964,-0.608201457437,0.793727134488
1543475367253254000,170,1543475367253254000,/map,-462.189477054,13.3257487301,38.5056802242,-0.00679698575148,-0.00648260241895,-0.535766211388,0.844314126132
1543475367353369000,171,1543475367353369000,/map,-466.983863234,10.7574152949,39.5592383077,-0.00619808806697,-0.00705739709398,-0.459128793431,0.888320059378
1543475367453416000,172,1543475367453416000,/map,-471.774972331,8.19082755945,40.612077372,-0.00555123571085,-0.00757673620436,-0.378960981727,0.925364982685
1543475367553522000,173,1543475367553522000,/map,-476.568895982,5.62272539212,41.6655378767,-0.00486066547547,-0.00803723090147,-0.295787536791,0.955207574263
1543475367653633000,174,1543475367653633000,/map,-481.363093447,3.05449533469,42.7190467578,-0.00413210111568,-0.00843498013025,-0.210300001411,0.977591778943
1543475367753708000,175,1543475367753708000,/map,-486.155563603,0.487188720223,43.7721812756,-0.00337154362747,-0.0087667464316,-0.12320152048,0.992337222018
1543475367853802000,176,1543475367853802000,/map,-490.948968971,-2.08060530399,44.8255096984,-0.00258452226455,-0.00903013809928,-0.0351247803928,0.99933879473
1543475367953879000,177,1543475367953879000,/map,-495.741556493,-4.64796314859,45.8786586876,-0.00177746155739,-0.00922300275615,0.0532111813186,0.998539106412
1543475368053972000,178,1543475368053972000,/map,-500.534884874,-7.21573128677,46.9319692161,-0.000956396446812,-0.00934389936079,0.141145845935,0.989944254504
1543475368154075000,179,1543475368154075000,/map,-505.328695441,-9.7837557791,47.9853881315,-0.000127781957022,-0.00939184865718,0.227987151967,0.973618834754
1543475368254175000,180,1543475368254175000,/map,-510.122384409,-12.3517024995,49.0387791599,0.000701805784762,-0.00936646240949,0.31304570374,0.949691615326
1543475368354311000,181,1543475368354311000,/map,-514.91777014,-14.9205736153,50.0925495571,0.00152620809311,-0.00926789287187,0.395689114554,0.918336485976
1543475368454390000,182,1543475368454390000,/map,-519.710466129,-17.4879815115,51.145709069,0.00233822767644,-0.00909702373093,0.475196475768,0.879829577969
1543475368554502000,183,1543475368554502000,/map,-524.504693123,-20.056236934,52.1992150668,0.00313225551314,-0.00885506210189,0.551019279846,0.834439650358
1543475368654608000,184,1543475368654608000,/map,-529.298662862,-22.624336815,53.2526529249,0.00390177498617,-0.00854396286188,0.622534452291,0.782536026367
1543475368754672000,185,1543475368754672000,/map,-534.090579007,-25.1913587584,54.3056417045,0.00464052233846,-0.00816631507194,0.689161329613,0.724547057559
1543475368854722000,186,1543475368854722000,/map,-538.881836883,-27.7580217366,55.3584876239,0.0053429662877,-0.00772501525413,0.750402821208,0.660914050973
1543475368954814000,187,1543475368954814000,/map,-543.675107027,-30.3257635105,56.4117655197,0.0060040015005,-0.00722323441471,0.805812893164,0.592095733865
1543475369054917000,188,1543475369054917000,/map,-548.468910565,-32.8937872884,57.4651654984,0.00661822812204,-0.00666499857109,0.854937039787,0.518646734156
1543475369155015000,189,1543475369155015000,/map,-553.262516903,-35.4616827966,58.5185097012,0.00718074907438,-0.00605474955376,0.897383379137,0.441151728659
1543475369255177000,190,1543475369255177000,/map,-558.059156196,-38.031217191,59.5725271183,0.0076875087468,-0.00539679151866,0.932843431534,0.360159560603
1543475369355222000,191,1543475369355222000,/map,-562.850170945,-40.5977484768,60.6253099334,0.00813368297768,-0.0046974834376,0.96098208205,0.276451107484
1543475369455365000,192,1543475369455365000,/map,-567.6458674,-43.1667940079,61.6791165876,0.00851675983061,-0.00396079966574,0.981641968813,0.190501501128
1543475369555454000,193,1543475369555454000,/map,-572.439003367,-45.7344545399,62.7323571702,0.00883312830189,-0.00319358353492,0.994625558327,0.103110501846
1543475369655566000,194,1543475369655566000,/map,-577.233279179,-48.302706431,63.7858331548,0.00908059011976,-0.00240125268747,0.999844956589,0.0148942825165
1543475369755661000,195,1543475369755661000,/map,-582.026712745,-50.8705241211,64.8391231727,0.00925710816704,-0.00159030807582,0.99725664455,-0.0734231691638
1543475369855776000,196,1543475369855776000,/map,-586.821148211,-53.4388561242,65.892635997,-0.00936136619952,0.000766781762097,-0.986879539399,0.161184836706
1543475369955886000,197,1543475369955886000,/map,-591.61536114,-56.007054806,66.9460991183,-0.00939250770667,-6.26926821142e-05,-0.9687955038,0.247683363763
1543475370055959000,198,1543475370055959000,/map,-596.407773997,-58.5743033434,67.9991681435,-0.00935032470153,-0.000891370823243,-0.943156339475,0.332216640453
1543475370156051000,199,1543475370156051000,/map,-601.201105208,-61.142039393,69.0524384017,-0.00923514447093,-0.00171324836424,-0.910149882688,0.414172630589
1543475370256190000,200,1543475370256190000,/map,-605.996696597,-63.7109835594,70.1061998424,-0.00904776161306,-0.00252212671168,-0.870017488491,0.492931381235
1543475370356317000,201,1543475370356317000,/map,-610.791722691,-66.2796184548,71.1598392389,-0.00878971182601,-0.00331120249283,-0.823092617297,0.567829481671
1543475370456388000,202,1543475370456388000,/map,-615.584110173,-68.8468147322,72.212881172,-0.00846319590663,-0.00407399194485,-0.769769014841,0.638253429834
1543475370556523000,203,1543475370556523000,/map,-620.379529777,-71.4156585657,73.2666036478,-0.0080703638354,-0.00480544539677,-0.710398606835,0.70373688004
1543475370656612000,204,1543475370656612000,/map,-625.172723843,-73.983316997,74.3198360723,-0.00761469736839,-0.00549904185043,-0.645508477263,0.763695346787
1543475370756713000,205,1543475370756713000,/map,-629.966517057,-76.5512798298,75.3732036687,-0.00709952253057,-0.00614978512819,-0.575570608351,0.81769814218
1543475370856831000,206,1543475370856831000,/map,-634.761068024,-79.1196759203,76.4267535988,-0.00652881055482,-0.00675260764626,-0.501125447408,0.865323675212
1543475370956936000,207,1543475370956936000,/map,-639.55498047,-81.6877387064,77.4801564747,-0.00590718626734,-0.00730261786539,-0.422776435817,0.906185335481
1543475371057065000,208,1543475371057065000,/map,-644.350087328,-84.2564140282,78.5338142587,-0.00523926817138,-0.00779571332935,-0.34110609748,0.939977875902
1543475371157154000,209,1543475371157154000,/map,-649.143287066,-86.8240699822,79.5870500883,-0.0045307076517,-0.0082277436433,-0.25680490163,0.966417621643
1543475371257277000,210,1543475371257277000,/map,-653.938151681,-89.3926034895,80.6406470891,-0.00378652041854,-0.00859565822989,-0.170469397416,0.985318203154
1543475371357410000,211,1543475371357410000,/map,-658.733511124,-91.961384772,81.694349615,-0.00301267526897,-0.00889645238332,-0.0827934260554,0.996522466141
1543475371457499000,212,1543475371457499000,/map,-663.526762478,-94.5290454905,82.7475914907,-0.0022156459162,-0.00912764977741,0.00549057396929,0.999940813509
1543475371557610000,213,1543475371557610000,/map,-668.320999858,-97.097266958,83.8010585327,-0.0014011398162,-0.00928761995887,0.0937510541958,0.995551363195
1543475371657756000,214,1543475371657756000,/map,-673.116910502,-99.6663870778,84.8548910096,-0.000575401201582,-0.0093750728393,0.181309748814,0.983381183422
1543475371757828000,215,1543475371757828000,/map,-677.909236971,-102.233613401,85.9079432243,0.00025422062911,-0.0093892730899,0.267388466526,0.963543037384
1543475371857917000,216,1543475371857917000,/map,-682.702413236,-104.80127077,86.9611774257,0.00108199898105,-0.00933018517984,0.351394629899,0.936180319704
1543475371958066000,217,1543475371958066000,/map,-687.498417767,-107.370466227,88.0150356731,0.00190181769378,-0.00919816105233,0.432705373687,0.901486459413
1543475372058198000,218,1543475372058198000,/map,-692.293619483,-109.939230634,89.0687221718,0.0027066375807,-0.008994286536,0.510621315034,0.85975441235
1543475372158291000,219,1543475372158291000,/map,-697.086999514,-112.506995108,90.1220032386,0.0034900098232,-0.00872025852363,0.5845197587,0.811325106608
1543475372258424000,220,1543475372258424000,/map,-701.882225611,-115.075786588,91.1756986289,0.00424643078724,-0.00837800112522,0.653881498184,0.756538672677
1543475372358533000,221,1543475372358533000,/map,-706.676279873,-117.643953707,92.2291404543,0.00496950417999,-0.00797038929351,0.718119518464,0.695856403379
1543475372458677000,222,1543475372458677000,/map,-711.472013011,-120.213017936,93.282953448,0.00565399957392,-0.00750035773168,0.776768792662,0.629715824535
1543475372558770000,223,1543475372558770000,/map,-716.265257897,-122.780780892,94.3362248043,0.0062939954444,-0.00697199387772,0.82932249486,0.558691306932
1543475372658892000,224,1543475372658892000,/map,-721.059921473,-125.349292849,95.3898086453,0.00688501743576,-0.00638902278868,0.87541401011,0.48328261693
1543475372758996000,225,1543475372758996000,/map,-725.853752267,-127.917346764,96.443200479,0.00742216439482,-0.00575626206676,0.914660685349,0.404113359839
1543475372859121000,226,1543475372859121000,/map,-730.648588665,-130.485928439,97.4968106428,0.00790144754171,-0.00507840565834,0.946770955627,0.321770934835
1543475372959253000,227,1543475372959253000,/map,-735.443694592,-133.05469923,98.5504963292,0.00831903131787,-0.00436082506154,0.971486486369,0.236908808879
1543475373059367000,228,1543475373059367000,/map,-740.23790755,-135.623012352,99.6039975979,0.00867155960583,-0.00360930933337,0.988609300334,0.150211278649
1543475373159514000,229,1543475373159514000,/map,-745.033745828,-138.192176534,100.65784085,0.00895644339195,-0.0028293428594,0.998012554155,0.0623114651489
1543475373259636000,230,1543475373259636000,/map,-749.828392644,-140.760680676,101.711429735,0.00917128267738,-0.00202746538252,0.999616425969,-0.0260533662172
1543475373359712000,231,1543475373359712000,/map,-754.620783004,-143.328013039,102.764538218,-0.00931443127947,0.00121012856906,-0.993416328276,0.114174321431
1543475373459881000,232,1543475373459881000,/map,-759.417661573,-145.897741035,103.818628488,-0.0093849174778,0.000382576983633,-0.979446640472,0.201484628266
1543475373559962000,233,1543475373559962000,/map,-764.210324446,-148.465195467,104.871785152,-0.00938205752524,-0.000447236383866,-0.957841052716,0.287145076063
1543475373660103000,234,1543475373660103000,/map,-769.005863993,-151.034193037,105.925581032,-0.00930590217796,-0.00127405173836,-0.928739707382,0.370613454841
1543475373760231000,235,1543475373760231000,/map,-773.80076906,-153.602861691,106.979240946,-0.00915704948917,-0.0020908055459,-0.892385868299,0.451175397198
1543475373860378000,236,1543475373860378000,/map,-778.596612996,-156.17201147,108.033097888,-0.00893660844937,-0.00289137555507,-0.849051344196,0.528226837538
1543475373960482000,237,1543475373960482000,/map,-783.390396872,-158.740062047,109.086499717,-0.0086464626413,-0.00366901989235,-0.799103877382,0.601119597194
1543475374060614000,238,1543475374060614000,/map,-788.185483925,-161.308839036,110.140202484,-0.00828868927408,-0.0044182183395,-0.742899842094,0.669336687769
1543475374160709000,239,1543475374160709000,/map,-792.97881897,-163.87666006,111.193519335,-0.0078663227224,-0.00513263967223,-0.680915331291,0.732301910819
1543475374260870000,240,1543475374260870000,/map,-797.77531636,-166.446181682,112.247528329,-0.00738220203938,-0.00580741906767,-0.61356859966,0.789585556154
1543475374360987000,241,1543475374360987000,/map,-802.569731307,-169.014572523,113.301073542,-0.00684061974123,-0.00643653204247,-0.541457850293,0.840675426864
1543475374461079000,242,1543475374461079000,/map,-807.362877515,-171.582320689,114.35435118,-0.00624576169381,-0.0070152322871,-0.465137443071,0.885188644318
1543475374561242000,243,1543475374561242000,/map,-812.159405869,-174.151891617,115.408385694,-0.00560167101979,-0.00753951622877,-0.38512791606,0.922815401501
1543475374661338000,244,1543475374661338000,/map,-816.95278518,-176.719731999,116.461712551,-0.00491425971693,-0.00800456586033,-0.302163809228,0.953209740492
1543475374761492000,245,1543475374761492000,/map,-821.748871218,-179.289055058,117.515655511,-0.00418804932045,-0.00840733406422,-0.216790526357,0.976172958373
1543475374861621000,246,1543475374861621000,/map,-826.543846753,-181.857757091,118.569332257,-0.00342929582051,-0.00874430976997,-0.129744584623,0.991502960025
1543475374961710000,247,1543475374961710000,/map,-831.336829619,-184.425426482,119.622595428,-0.00264406845384,-0.00901287552279,-0.0417202577032,0.999085180089
1543475375061856000,248,1543475375061856000,/map,-836.13261241,-186.994565299,120.676457369,-0.00183773666603,-0.00921117512178,0.0466800306187,0.998865732578
1543475375161976000,249,1543475375161976000,/map,-840.927160678,-189.563038442,121.730050186,-0.00101725668801,-0.00933746282501,0.134692751258,0.990842893569
1543475375262111000,250,1543475375262111000,/map,-845.722459044,-192.131885052,122.783795849,-0.000188706254426,-0.00939081536009,0.22166626037,0.97507735385
1543475375362321000,251,1543475375362321000,/map,-850.521352848,-194.702653408,123.838336549,0.000641939119586,-0.00937074902794,0.306970763684,0.951672594551
1543475375462386000,252,1543475375462386000,/map,-855.313307658,-197.269702436,124.891342171,0.00146637329676,-0.0092775412978,0.389755221295,0.920870590501
1543475375562516000,253,1543475375562516000,/map,-860.108337341,-199.838413713,125.945035208,0.00227988886761,-0.0091118126588,0.469549212194,0.882856338429
1543475375662672000,254,1543475375662672000,/map,-864.90462644,-202.407786749,126.999007126,0.00307579553086,-0.00887482422531,0.545693900573,0.837931944643
1543475375762800000,255,1543475375762800000,/map,-869.699525837,-204.976454545,128.052683864,0.00384744739049,-0.00856855715714,0.617553529728,0.786472768058
1543475375862957000,256,1543475375862957000,/map,-874.495834551,-207.5458642,129.106674195,0.00458925119825,-0.00819523011374,0.684607198563,0.728851672601
1543475375963085000,257,1543475375963085000,/map,-879.290786539,-210.11453619,130.160354613,0.00529498188679,-0.00775797589558,0.746292204096,0.665552194109
1543475376063198000,258,1543475376063198000,/map,-884.084975041,-212.682812214,131.213877184,0.00595924803752,-0.00726019067115,0.802138824418,0.597063718003
1543475376163367000,259,1543475376163367000,/map,-888.881832106,-215.252535248,132.267999588,0.00657730395843,-0.0067053767814,0.851746515881,0.523869878576
1543475376263474000,260,1543475376263474000,/map,-893.675741893,-217.820659829,133.321475842,0.00714359811724,-0.00609852532023,0.89466997826,0.446628936586
1543475376363577000,261,1543475376363577000,/map,-898.469412942,-220.38869133,134.374896871,0.00765408723898,-0.00544407509869,0.930605458604,0.365903344356
1543475376463731000,262,1543475376463731000,/map,-903.265564831,-222.95801916,135.428850901,0.00810502135272,-0.0047467498369,0.959286829492,0.282277444648
1543475376563868000,263,1543475376563868000,/map,-908.060892452,-225.526922893,136.482624448,0.00849254167826,-0.00401244825326,0.980466896445,0.196459771887
1543475376663993000,264,1543475376663993000,/map,-912.855687552,-228.095502091,137.536265932,0.00881366721969,-0.00324688701415,0.99398447984,0.109117509286
1543475376764149000,265,1543475376764149000,/map,-917.651997228,-230.664888286,138.590246268,0.00906600686341,-0.00245571266534,0.999737544207,0.0208954468064
1543475376864287000,266,1543475376864287000,/map,-922.447380205,-233.23380642,139.644021396,0.00924745128537,-0.00164548851202,0.997676808376,-0.0674741657275
1543475376964394000,267,1543475376964394000,/map,-927.241313323,-235.801939106,140.697488718,-0.00935661340785,0.00082266192477,-0.987824344875,0.155289538233
1543475377064535000,268,1543475377064535000,/map,-932.03690652,-238.370943642,141.7513191,-0.00939270674013,-6.87024726232e-06,-0.970250420103,0.241921266742
1543475377164715000,269,1543475377164715000,/map,-936.834387179,-240.940941906,142.805540415,-0.0093553711197,-0.000836670974175,-0.94508313508,0.326695033325
1543475377264860000,270,1543475377264860000,/map,-941.63022087,-243.510057924,143.859403411,-0.00924492147306,-0.00165964275174,-0.912537296091,0.408885632245
1543475377365014000,271,1543475377365014000,/map,-946.426517426,-246.079393483,144.913363753,-0.00906220101208,-0.00246971656733,-0.87285587791,0.487887685242
1543475377465127000,272,1543475377465127000,/map,-951.220814876,-248.647675609,145.966884217,-0.00880876245865,-0.0032601673352,-0.826372008228,0.563046251236
1543475377565285000,273,1543475377565285000,/map,-956.017291724,-251.217112064,147.020889812,-0.00848636557145,-0.00402549208098,-0.773408820474,0.633837970956
1543475377665405000,274,1543475377665405000,/map,-960.811900928,-253.785585211,148.074490248,-0.00809778843546,-0.00475907654497,-0.714423197161,0.699650821747
1543475377765557000,275,1543475377765557000,/map,-965.608038786,-256.354870607,149.128434283,-0.00764580267319,-0.00545570239191,-0.649835504774,0.760016837805
1543475377865710000,276,1543475377865710000,/map,-970.404222693,-258.924158955,150.18238357,-0.00713404954988,-0.00610969100088,-0.5801677792,0.814442831014
1543475377965843000,277,1543475377965843000,/map,-975.199481678,-261.492956162,151.236132915,-0.00656665172797,-0.00671580763497,-0.505980393607,0.862493836673
1543475378065967000,278,1543475378065967000,/map,-979.994258944,-264.061506177,152.289776505,-0.00594800368527,-0.00726940432679,-0.427846735665,0.903802493797
1543475378166117000,279,1543475378166117000,/map,-984.790307604,-266.630702394,153.343703175,-0.00528271232036,-0.00776633360388,-0.346349286664,0.938058606186
1543475378266268000,280,1543475378266268000,/map,-989.586351599,-269.199946308,154.397639308,-0.00457612406026,-0.00820256518971,-0.262143924127,0.964983077601
1543475378366397000,281,1543475378366397000,/map,-994.381392742,-271.768631175,155.451352345,-0.00383393405311,-0.00857461000762,-0.175908656012,0.984361682388
1543475378466568000,282,1543475378466568000,/map,-999.178463961,-274.338418771,156.505507906,-0.00306146131698,-0.00887977712057,-0.0882621328274,0.996052997045
1543475378566688000,283,1543475378566688000,/map,-1003.97308258,-276.906864265,157.559125165,-0.00226546065256,-0.00911540866544,2.95034386596e-05,0.999955887098
1543475378666809000,284,1543475378666809000,/map,-1008.76774808,-279.475336933,158.612757716,-0.00145175555058,-0.00927983797961,0.0883217857487,0.996047709287
1543475378766960000,285,1543475378766960000,/map,-1013.56387563,-282.044592855,159.666712803,-0.00062646199543,-0.00937179451731,0.175950200045,0.984354257428
1543475378867125000,286,1543475378867125000,/map,-1018.36071683,-284.614189718,160.720819939,0.000203844272191,-0.00939049703791,0.262215297305,0.964963685779
1543475378967243000,287,1543475378967243000,/map,-1023.15528095,-287.182601646,161.774438247,0.00103216923447,-0.00933582421524,0.346391360422,0.938043070673
1543475379067373000,288,1543475379067373000,/map,-1027.95040377,-289.751284406,162.82819025,0.00185252988137,-0.00920820938864,0.427871370851,0.903790831453
1543475379167541000,289,1543475379167541000,/map,-1032.74742527,-292.320951643,163.882327392,0.0026587188665,-0.00900856265423,0.506037375728,0.862460405688
1543475379267703000,290,1543475379267703000,/map,-1037.54414626,-294.890471078,164.93639926,0.00344407373542,-0.00873849776629,0.580242472212,0.814389618337
1543475379367846000,291,1543475379367846000,/map,-1042.34003247,-297.459504036,165.990278565,0.0042023622397,-0.00840018682606,0.649898543834,0.759962933133
1543475379467978000,292,1543475379467978000,/map,-1047.13545953,-300.028251746,167.044043174,0.00492773234447,-0.00799627669904,0.714468948956,0.699604100896
1543475379568094000,293,1543475379568094000,/map,-1051.93014195,-302.596604922,168.0976252,0.00561449366407,-0.00752996882987,0.773448074201,0.633790070563
1543475379668259000,294,1543475379668259000,/map,-1056.72720019,-305.166235065,169.15173026,0.0062577057784,-0.00700457618002,0.826410398085,0.562989903079
1543475379768449000,295,1543475379768449000,/map,-1061.5253672,-307.736481188,170.206104157,0.00685213355385,-0.0064242678499,0.872922291819,0.487768848424
1543475379868556000,296,1543475379868556000,/map,-1066.31963343,-310.304602915,171.259594064,0.00739253855148,-0.00579424928699,0.9125760231,0.408799191673
1543475379968707000,297,1543475379968707000,/map,-1071.11587672,-312.873839945,172.313558136,0.00787541036324,-0.00511867612003,0.945115819957,0.326600465298
1543475380068863000,298,1543475380068863000,/map,-1075.91234883,-315.443212985,173.367560553,0.00829674634604,-0.0044030575337,0.970269521818,0.241844644585
1543475380169015000,299,1543475380169015000,/map,-1080.70867074,-318.012470628,174.421512471,0.00865321418385,-0.00365305103006,0.987838132485,0.155201807691
1543475380269180000,300,1543475380269180000,/map,-1085.50550538,-320.582090091,175.475600673,0.00894207918778,-0.00287438980086,0.99768624256,0.0673345268762
1543475380369333000,301,1543475380369333000,/map,-1090.30179349,-323.151395036,176.529567321,0.00916101001803,-0.0020733529312,0.999734331604,-0.0210485941439
1543475380469465000,302,1543475380469465000,/map,-1095.09701678,-325.720164395,177.583320874,-0.0093083108818,0.00125628239484,-0.993970062982,0.109248757424
1543475380569623000,303,1543475380569623000,/map,-1099.89357912,-328.289576908,178.637358577,-0.00938289403548,0.000429181135177,-0.98043521414,0.196617822127
1543475380669759000,304,1543475380669759000,/map,-1104.68900991,-330.858444407,179.69115947,-0.00938413667115,-0.000401093336944,-0.959241544253,0.282431295863
1543475380769900000,305,1543475380769900000,/map,-1109.48461444,-333.427465916,180.745017218,-0.00931204709307,-0.00122827457864,-0.930550924964,0.366042010116
1543475380870054000,306,1543475380870054000,/map,-1114.28089599,-335.996793461,181.79899545,-0.0091671651749,-0.00204596225481,-0.894583330741,0.446802463603
1543475380970180000,307,1543475380970180000,/map,-1119.07580755,-338.565413284,182.852686905,-0.0089506975308,-0.00284743614575,-0.851636078749,0.524049393182
1543475381070331000,308,1543475381070331000,/map,-1123.87192476,-341.134644028,183.906650422,-0.00866422442779,-0.00362685731135,-0.802022394232,0.597220107055
1543475381170497000,309,1543475381170497000,/map,-1128.66880916,-343.704272745,184.960759662,-0.00830997224883,-0.00437804067086,-0.746131138089,0.665732755612
1543475381270636000,310,1543475381270636000,/map,-1133.46440523,-346.273233128,186.014577923,-0.0078908704424,-0.00509480544803,-0.68442369938,0.729023989213
1543475381370793000,311,1543475381370793000,/map,-1138.26074969,-348.842624853,187.068579316,-0.00741001522574,-0.00577187605951,-0.617355451215,0.786628262889
1543475381470957000,312,1543475381470957000,/map,-1143.05746413,-351.412197398,188.122647517,-0.00687119532589,-0.00640387021149,-0.545456055233,0.838086790811
1543475381571129000,313,1543475381571129000,/map,-1147.85463116,-353.981986236,189.176811483,-0.00627860584999,-0.00698584193011,-0.469285954074,0.882996302614
1543475381671243000,314,1543475381671243000,/map,-1152.64895585,-356.550300409,190.230377181,-0.00563730593517,-0.00751289961901,-0.389493463023,0.920981334981
1543475381771436000,315,1543475381771436000,/map,-1157.4470205,-359.120617954,191.28476691,-0.00495141974732,-0.00798162398124,-0.30659248909,0.951794527592
1543475381871543000,316,1543475381871543000,/map,-1162.24099877,-361.688711758,192.338236824,-0.00422743686564,-0.00838758942957,-0.221367169264,0.975145298657
1543475381971704000,317,1543475381971704000,/map,-1167.03749807,-364.258221237,193.392291905,-0.00347002465091,-0.00872821905168,-0.134365898837,0.990887270254
1543475382071855000,318,1543475382071855000,/map,-1171.8335055,-366.827441218,194.446229604,-0.00268556396014,-0.00900059026442,-0.0463229836853,0.998882354586
1543475382172006000,319,1543475382172006000,/map,-1176.6295166,-369.396697998,195.500167847,-0.00188011262095,-0.00920261133726,0.0420819816904,0.999070009528
1543475382272179000,320,1543475382272179000,/map,-1181.42659064,-371.966506764,196.554339183,-0.00105978474253,-0.00933272388917,0.130177284742,0.991446242445
1543475382372364000,321,1543475382372364000,/map,-1186.22432954,-374.536593243,197.608631531,-0.000231070381151,-0.00938986077485,0.217264986446,0.976067468357
1543475382472505000,322,1543475382472505000,/map,-1191.01998762,-377.105560698,198.662455059,0.000599087304435,-0.00937357846789,0.302616349525,0.953066168805
1543475382572650000,323,1543475382572650000,/map,-1195.81586538,-379.674632643,199.716335429,0.00142459632328,-0.00928404029546,0.385606161354,0.922615665078
1543475382672799000,324,1543475382672799000,/map,-1200.61200796,-382.243785475,200.77025999,0.00223900414401,-0.00912193725779,0.465585510343,0.884953055071
1543475382772980000,325,1543475382772980000,/map,-1205.40973561,-384.813748152,201.824524987,0.00303616333159,-0.00888845268401,0.541949649941,0.84035846759
1543475382873116000,326,1543475382873116000,/map,-1210.20536445,-387.382573627,202.87831062,0.00380923540309,-0.00858560449449,0.614043869434,0.789216005623
1543475382973286000,327,1543475382973286000,/map,-1215.00248276,-389.95225771,203.93245619,0.00455278962556,-0.00821553318522,0.68136205062,0.731886284266
1543475383073434000,328,1543475383073434000,/map,-1219.79850697,-392.521408281,204.986356008,0.00526059404464,-0.00778132567045,0.743339600119,0.668848275781
1543475383173590000,329,1543475383173590000,/map,-1224.59486554,-395.0907814,206.040352132,0.00592733397125,-0.00728625922279,0.799511669566,0.600577111924
1543475383273766000,330,1543475383273766000,/map,-1229.39219313,-397.660669323,207.094570823,0.00654786047219,-0.00673412088494,0.849443365009,0.527596196709
1543475383373920000,331,1543475383373920000,/map,-1234.18852163,-400.229995921,208.148556932,0.00711706289958,-0.00612945972657,0.892723585136,0.450506800926
1543475383474041000,332,1543475383474041000,/map,-1238.98316088,-402.798500347,209.202197886,0.00763047277079,-0.00547710952301,0.929014885287,0.369923127246
1543475383574227000,333,1543475383574227000,/map,-1243.78094481,-405.368641372,210.256512892,0.00808455329298,-0.00478151031302,0.958065684947,0.286394693534
1543475383674386000,334,1543475383674386000,/map,-1248.5773203,-407.938119601,211.310552654,0.00847530236392,-0.00404871493942,0.97961803683,0.200649642596
1543475383774522000,335,1543475383774522000,/map,-1253.37255581,-410.506978322,212.364336205,0.00879972979166,-0.0032844479619,0.993510011825,0.113356224186
1543475383874688000,336,1543475383874688000,/map,-1258.16928331,-413.076636316,213.418437045,0.00905546364933,-0.00249427763414,0.999639546087,0.025150647212
1543475383974849000,337,1543475383974849000,/map,-1262.96582501,-415.646142483,214.47249682,0.00924038996598,-0.00168464717292,0.99795369674,-0.0632471052263
1543475384075064000,338,1543475384075064000,/map,-1267.76491505,-418.217053035,215.52713383,-0.00935311889447,0.000861399887707,-0.988458929251,0.151197626773
1543475384175162000,339,1543475384175162000,/map,-1272.55836198,-420.784931859,216.580525326,-0.00939264575518,3.23811411282e-05,-0.971252917697,0.237864556043
1543475384275334000,340,1543475384275334000,/map,-1277.35535033,-423.354742625,217.634689879,-0.00935878282245,-0.000797502024639,-0.946442372274,0.322736135471
1543475384375485000,341,1543475384375485000,/map,-1282.15133811,-425.923991299,218.688637037,-0.00925176952235,-0.00162097750342,-0.914238694043,0.405067139506
1543475384475672000,342,1543475384475672000,/map,-1286.94911166,-428.494148631,219.742978339,-0.00907236534497,-0.00243207244402,-0.874873729703,0.484259986254
1543475384575796000,343,1543475384575796000,/map,-1291.74380924,-431.062684359,220.796654513,-0.00882217932896,-0.0032236533004,-0.828696839119,0.559618911444
1543475384675977000,344,1543475384675977000,/map,-1296.54118173,-433.632687842,221.850941651,-0.00850287328516,-0.0039904783155,-0.776014469005,0.63064516261
1543475384776107000,345,1543475384776107000,/map,-1301.33605874,-436.201389418,222.904675693,-0.00811728011418,-0.00472572923496,-0.717294345181,0.696706968257
1543475384876261000,346,1543475384876261000,/map,-1306.13213073,-438.770696253,223.958672369,-0.00766815311917,-0.00542422163844,-0.652954004524,0.757339319739
1543475384976428000,347,1543475384976428000,/map,-1310.92872311,-441.340329834,225.012816863,-0.00715901750809,-0.00608039644767,-0.583500477222,0.812058477161
1543475385076592000,348,1543475385076592000,/map,-1315.72519814,-443.909896184,226.066923995,-0.00659392551945,-0.00668901329689,-0.509487017946,0.860427077556
1543475385176802000,349,1543475385176802000,/map,-1320.5239313,-446.48061121,227.12151681,-0.00597698662377,-0.00724557682599,-0.431453649908,0.902086207204
1543475385276946000,350,1543475385276946000,/map,-1325.31947133,-449.049667951,228.175422369,-0.00531372661692,-0.00774513150842,-0.350098544501,0.936665781582
1543475385377093000,351,1543475385377093000,/map,-1330.11513389,-451.618820857,229.229340653,-0.00460891751191,-0.0081841695981,-0.266004814295,0.963925939074
1543475385477255000,352,1543475385477255000,/map,-1334.91148489,-454.188373089,230.283422017,-0.00386797411084,-0.00855929488451,-0.179819118712,0.983654848915
1543475385577426000,353,1543475385577426000,/map,-1339.70831672,-456.758165456,231.33758861,-0.00309672058689,-0.00886752920767,-0.0922196763918,0.995694385107
1543475385677551000,354,1543475385677551000,/map,-1344.50304623,-459.326792325,232.391270061,-0.00230162293559,-0.00910633211038,-0.00393977672985,0.999948126358
1543475385777728000,355,1543475385777728000,/map,-1349.30021961,-461.896719749,233.445493519,-0.00148811881941,-0.00927406356574,0.0844166591008,0.996386272945
1543475385877895000,356,1543475385877895000,/map,-1354.09681117,-464.466418264,234.499620105,-0.000663060226292,-0.00936926377996,0.172104214302,0.985033967265
1543475385978099000,357,1543475385978099000,/map,-1358.89520441,-467.037082017,235.55413083,0.000167489347267,-0.00939120332868,0.25847769324,0.965971562389
1543475386078222000,358,1543475386078222000,/map,-1363.68984674,-469.605649065,236.607805415,0.000996060570248,-0.00933973318583,0.342761558459,0.939375479396
1543475386178416000,359,1543475386178416000,/map,-1368.48777495,-472.1760463,237.662215689,0.00181742841698,-0.00921518890698,0.424424592266,0.905414569535
1543475386278561000,360,1543475386278561000,/map,-1373.28342015,-474.745202902,238.716113366,0.00262418827255,-0.00901866889027,0.502729978288,0.864392472305
1543475386378741000,361,1543475386378741000,/map,-1378.08077761,-477.315259474,239.770372601,0.00341071004174,-0.00875156041248,0.577131657169,0.816597102334
1543475386478909000,362,1543475386478909000,/map,-1382.87759918,-479.884976573,240.824504453,0.00417046857433,-0.00841605278694,0.647011691886,0.762422224105
1543475386579031000,363,1543475386579031000,/map,-1387.6721136,-482.45353182,241.87816276,0.0048972929357,-0.00801494070746,0.711804288602,0.702315051793
1543475386679210000,364,1543475386679210000,/map,-1392.46940437,-485.023526494,242.93240832,0.0055862421108,-0.00755093714195,0.771068626543,0.636682770623
1543475386779388000,365,1543475386779388000,/map,-1397.26655368,-487.593510723,243.986638036,0.00623149641444,-0.00702788642874,0.824302246872,0.566072065259
1543475386879575000,366,1543475386879575000,/map,-1402.06427376,-490.163713553,245.040957749,0.00682807002359,-0.00644982126569,0.871093412325,0.491027539217
1543475386979747000,367,1543475386979747000,/map,-1406.86134223,-492.73356294,246.095118026,0.00737115880527,-0.00582140468219,0.911065617268,0.412154362221
1543475387079914000,368,1543475387079914000,/map,-1411.65808576,-495.303246974,247.149239374,0.00785658597119,-0.00514750342241,0.943912304214,0.330062629236
1543475387180041000,369,1543475387180041000,/map,-1416.45291848,-497.871929155,248.202948194,0.00828042855318,-0.00443364833767,0.96937019948,0.245424517164
1543475387280185000,370,1543475387280185000,/map,-1421.24849475,-500.441018394,249.256816474,0.00863963628241,-0.00368502639259,0.987257362969,0.158854261918
1543475387380389000,371,1543475387380389000,/map,-1426.04706271,-503.011640557,250.311330881,0.0089314789021,-0.0029071324751,0.997432825038,0.0709896950349
1543475387480504000,372,1543475387480504000,/map,-1430.84144108,-505.579961681,251.36489287,0.00915327169804,-0.00210721009977,0.99980532593,-0.0173518738311
1543475387580729000,373,1543475387580729000,/map,-1435.64100987,-508.151106829,252.41962989,-0.00930369866467,0.00128992547371,-0.994358537509,0.10565451323
1543475387680908000,374,1543475387680908000,/map,-1440.43834892,-510.721048936,253.473881146,-0.00938127924852,0.000462924192906,-0.981136022851,0.193090346636
1543475387781033000,375,1543475387781033000,/map,-1445.23313183,-513.289599816,254.527553673,-0.00938551147405,-0.00036725046689,-0.960253774752,0.278970366483
1543475387881170000,376,1543475387881170000,/map,-1450.02852876,-515.858492658,255.581333557,-0.00931641028527,-0.00119465389611,-0.931866082643,0.362680825688
1543475387981348000,377,1543475387981348000,/map,-1454.82593804,-518.428481011,256.635517515,-0.00917443775974,-0.00201305497384,-0.896180713114,0.443589795582
1543475388081549000,378,1543475388081549000,/map,-1459.62439245,-520.999003123,257.68998508,-0.00896066054466,-0.00281589437629,-0.853476317619,0.521046977312
