%time,field.header.seq,field.header.stamp,field.header.frame_id,field.twist.linear.x,field.twist.linear.y,field.twist.linear.z,field.twist.angular.x,field.twist.angular.y,field.twist.angular.z
1543475343053827000,0,1543475343053827000,,1.80790325303e-11,0.0,0.0,0.0,0.0,1.61111069045e-11
1543475377465127000,1,1543475377465127000,,0.000237265519436,0.0,0.0,0.0,0.0,2.70250128181e-05
1543475377565285000,2,1543475377565285000,,0.0681860809185,0.0,0.0,0.0,0.0,-0.00354294328602
1543475377665405000,3,1543475377665405000,,0.0554413059559,0.0,0.0,0.0,0.0,-0.00121992028184
1543475377765557000,4,1543475377765557000,,0.0717693930384,0.0,0.0,0.0,0.0,-0.000738296727304
1543475377865710000,5,1543475377865710000,,0.0497286449502,0.0,0.0,0.0,0.0,0.000112413321663
1543475377965843000,6,1543475377965843000,,0.0435613251527,0.0,0.0,0.0,0.0,0.0011173692241
1543475378065967000,7,1543475378065967000,,0.0607200815262,0.0,0.0,0.0,0.0,-0.00154019231808
1543475378166117000,8,1543475378166117000,,0.0757257972732,0.0,0.0,0.0,0.0,0.000884762138991
1543475378266268000,9,1543475378266268000,,0.0861782434699,0.0,0.0,0.0,0.0,-0.000705570346846
1543475378366397000,10,1543475378366397000,,0.0946783797269,0.0,0.0,0.0,0.0,-0.000333740092068
1543475378466568000,11,1543475378466568000,,0.0634468291951,0.0,0.0,0.0,0.0,-0.000300893917924
1543475378566688000,12,1543475378566688000,,0.0460193184536,0.0,0.0,0.0,0.0,0.00575426010668
1543475378666809000,13,1543475378666809000,,0.104163669323,0.0,0.0,0.0,0.0,-0.00527400250213
1543475378766960000,14,1543475378766960000,,0.0461458320404,0.0,0.0,0.0,0.0,0.00292491223656
1543475378867125000,15,1543475378867125000,,0.0836631844361,0.0,0.0,0.0,0.0,-0.00618029759954
1543475378967243000,16,1543475378967243000,,0.0477816441529,0.0,0.0,0.0,0.0,0.00447393429628
1543475379067373000,17,1543475379067373000,,0.0570897143962,0.0,0.0,0.0,0.0,-0.00379061070664
1543475379167541000,18,1543475379167541000,,0.0495915251111,0.0,0.0,0.0,0.0,0.00428773822182
1543475379267703000,19,1543475379267703000,,0.0817015791166,0.0,0.0,0.0,0.0,-0.00213261128877
1543475379367846000,20,1543475379367846000,,0.0927595122465,0.0,0.0,0.0,0.0,0.000889099997612
1543475379467978000,21,1543475379467978000,,0.0480186983691,0.0,0.0,0.0,0.0,0.00109312895019
1543475379568094000,22,1543475379568094000,,0.072549184011,0.0,0.0,0.0,0.0,-0.00166738519032
1543475379668259000,23,1543475379668259000,,0.0997538353543,0.0,0.0,0.0,0.0,-0.000306494491593
1543475379768449000,24,1543475379768449000,,0.0439395366066,0.0,0.0,0.0,0.0,0.00225277617094
1543475379868556000,25,1543475379868556000,,0.084555261652,0.0,0.0,0.0,0.0,-0.00320444281614
1543475379968707000,26,1543475379968707000,,0.10284138927,0.0,0.0,0.0,0.0,0.000708239364936
1543475380068863000,27,1543475380068863000,,0.0835866976799,0.0,0.0,0.0,0.0,0.00171750144207
1543475380169015000,28,1543475380169015000,,0.0783420754263,0.0,0.0,0.0,0.0,-0.00137949985664
1543475380269180000,29,1543475380269180000,,0.0694291722712,0.0,0.0,0.0,0.0,0.00171100905065
1543475380369333000,30,1543475380369333000,,0.066511083158,0.0,0.0,0.0,0.0,-0.000373858077132
1543475380469465000,31,1543475380469465000,,0.055602326347,0.0,0.0,0.0,0.0,-0.0014205139505
1543475380569623000,32,1543475380569623000,,0.0789574836916,0.0,0.0,0.0,0.0,0.000772763100486
1543475380669759000,33,1543475380669759000,,0.0649185376801,0.0,0.0,0.0,0.0,-0.00067988235252
1543475380769900000,34,1543475380769900000,,0.0491531889181,0.0,0.0,0.0,0.0,0.000288033462954
1543475380870054000,35,1543475380870054000,,0.0549240840561,0.0,0.0,0.0,0.0,-1.28200712001e-05
1543475380970180000,36,1543475380970180000,,0.0845165028579,0.0,0.0,0.0,0.0,0.00133371159578
1543475381070331000,37,1543475381070331000,,0.0957587810566,0.0,0.0,0.0,0.0,-0.00050909299552
1543475381170497000,38,1543475381170497000,,0.0587606355875,0.0,0.0,0.0,0.0,-0.000263679976548
1543475381270636000,39,1543475381270636000,,0.0815431921116,0.0,0.0,0.0,0.0,0.00045399428567
1543475381370793000,40,1543475381370793000,,0.0675780806609,0.0,0.0,0.0,0.0,-0.000503470854953
1543475381470957000,41,1543475381470957000,,0.0472619181473,0.0,0.0,0.0,0.0,0.000131282778885
1543475381571129000,42,1543475381571129000,,0.0625390727286,0.0,0.0,0.0,0.0,0.000156315873916
1543475381671243000,43,1543475381671243000,,0.073203709824,0.0,0.0,0.0,0.0,0.000245396197685
1543475381771436000,44,1543475381771436000,,0.0722625772459,0.0,0.0,0.0,0.0,-0.000319422875471
1543475381871543000,45,1543475381871543000,,0.0656212637568,0.0,0.0,0.0,0.0,0.000214864288304
1543475381971704000,46,1543475381971704000,,0.0702618550858,0.0,0.0,0.0,0.0,8.92240756529e-05
1543475382071855000,47,1543475382071855000,,0.0898000751484,0.0,0.0,0.0,0.0,-2.77772713785e-05
1543475382172006000,48,1543475382172006000,,0.0652312407505,0.0,0.0,0.0,0.0,-0.00035749415532
1543475382272179000,49,1543475382272179000,,0.0614034126238,0.0,0.0,0.0,0.0,-0.000325076662079
1543475382372364000,50,1543475382372364000,,0.0812597311931,0.0,0.0,0.0,0.0,-0.000867931872108
1543475382472505000,51,1543475382472505000,,0.0462350087239,0.0,0.0,0.0,0.0,0.000936366974491
1543475382572650000,52,1543475382572650000,,0.0572649614213,0.0,0.0,0.0,0.0,-0.000113433554264
1543475382672799000,53,1543475382672799000,,0.0806707634144,0.0,0.0,0.0,0.0,0.000316117096083
1543475382772980000,54,1543475382772980000,,0.0878195630253,0.0,0.0,0.0,0.0,-0.000120499328734
1543475382873116000,55,1543475382873116000,,0.0750112325802,0.0,0.0,0.0,0.0,0.000450546679714
1543475382973286000,56,1543475382973286000,,0.0564875792452,0.0,0.0,0.0,0.0,-0.000875235815851
1543475383073434000,57,1543475383073434000,,0.0665458138913,0.0,0.0,0.0,0.0,8.38800651912e-05
1543475383173590000,58,1543475383173590000,,0.0422579290383,0.0,0.0,0.0,0.0,0.00102585896416
1543475383273766000,59,1543475383273766000,,0.0614621592556,0.0,0.0,0.0,0.0,-0.0010335170935
1543475383373920000,60,1543475383373920000,,0.0764487725939,0.0,0.0,0.0,0.0,0.000559823641924
1543475383474041000,61,1543475383474041000,,0.0660504763,0.0,0.0,0.0,0.0,-0.000704854947391
1543475383574227000,62,1543475383574227000,,0.0661539129482,0.0,0.0,0.0,0.0,0.00227458987283
1543475383674386000,63,1543475383674386000,,0.115676273276,0.0,0.0,0.0,0.0,-0.00173475846976
1543475383774522000,64,1543475383774522000,,0.0626415039315,0.0,0.0,0.0,0.0,0.00021579409425
1543475383874688000,65,1543475383874688000,,0.0577211769607,0.0,0.0,0.0,0.0,-0.00039903348793
1543475383974849000,66,1543475383974849000,,0.0729372912366,0.0,0.0,0.0,0.0,-0.000642603522506
1543475384075064000,67,1543475384075064000,,0.0595663191674,0.0,0.0,0.0,0.0,0.000749155943002
1543475384175162000,68,1543475384175162000,,0.0368520213116,0.0,0.0,0.0,0.0,1.99024802757e-06
1543475384275334000,69,1543475384275334000,,0.0584789606444,0.0,0.0,0.0,0.0,-0.000508948753633
1543475384375485000,70,1543475384375485000,,0.0830461714604,0.0,0.0,0.0,0.0,0.000876146305128
1543475384475672000,71,1543475384475672000,,0.0860350256448,0.0,0.0,0.0,0.0,-0.000479824468847
1543475384575796000,72,1543475384575796000,,0.048133321089,0.0,0.0,0.0,0.0,-0.0004559592789
1543475384675977000,73,1543475384675977000,,0.058825853364,0.0,0.0,0.0,0.0,0.00407192877492
1543475384776107000,74,1543475384776107000,,0.0500099878459,0.0,0.0,0.0,0.0,-0.00612268049628
1543475384876261000,75,1543475384876261000,,0.044117852222,0.0,0.0,0.0,0.0,0.00484887356185
1543475384976428000,76,1543475384976428000,,0.0949558174076,0.0,0.0,0.0,0.0,-0.00196983467314
1543475385076592000,77,1543475385076592000,,0.0386391855903,0.0,0.0,0.0,0.0,0.000862512317109
1543475385176802000,78,1543475385176802000,,0.108001070226,0.0,0.0,0.0,0.0,-0.00127661892302
1543475385276946000,79,1543475385276946000,,0.0746318784631,0.0,0.0,0.0,0.0,-2.7169080199e-05
1543475385377093000,80,1543475385377093000,,0.0779481599339,0.0,0.0,0.0,0.0,0.00120963090668
1543475385477255000,81,1543475385477255000,,0.0873127059894,0.0,0.0,0.0,0.0,-0.000907525288376
1543475385577426000,82,1543475385577426000,,0.0928440517616,0.0,0.0,0.0,0.0,-0.000259985220172
1543475385677551000,83,1543475385677551000,,0.0642461933215,0.0,0.0,0.0,0.0,0.000724166426438
1543475385777728000,84,1543475385777728000,,0.0820872902838,0.0,0.0,0.0,0.0,-0.00105418055712
1543475385877895000,85,1543475385877895000,,0.0761969028051,0.0,0.0,0.0,0.0,0.00100511073962
1543475385978099000,86,1543475385978099000,,0.0523615907222,0.0,0.0,0.0,0.0,0.000123699323348
1543475386078222000,87,1543475386078222000,,0.0570381617154,0.0,0.0,0.0,0.0,0.000362913311171
1543475386178416000,88,1543475386178416000,,0.0724453434437,0.0,0.0,0.0,0.0,-0.00130030972285
1543475386278561000,89,1543475386278561000,,0.0523327947323,0.0,0.0,0.0,0.0,0.00116430775353
1543475386378741000,90,1543475386378741000,,0.0795304423755,0.0,0.0,0.0,0.0,-0.00177498090756
1543475386478909000,91,1543475386478909000,,0.084437792639,0.0,0.0,0.0,0.0,0.00101884941394
1543475386579031000,92,1543475386579031000,,0.0980047633742,0.0,0.0,0.0,0.0,-0.00016590561392
1543475386679210000,93,1543475386679210000,,0.0699153378425,0.0,0.0,0.0,0.0,-7.34017641486e-05
1543475386779388000,94,1543475386779388000,,0.0872340336611,0.0,0.0,0.0,0.0,0.000206434703934
1543475386879575000,95,1543475386879575000,,0.0730592474785,0.0,0.0,0.0,0.0,0.00107482382116
1543475386979747000,96,1543475386979747000,,0.0443314886044,0.0,0.0,0.0,0.0,-0.00323457379364
1543475387079914000,97,1543475387079914000,,0.0703493915719,0.0,0.0,0.0,0.0,0.00282013819401
1543475387180041000,98,1543475387180041000,,0.0941008496079,0.0,0.0,0.0,0.0,-0.0012534328327
1543475387280185000,99,1543475387280185000,,0.0647804477275,0.0,0.0,0.0,0.0,-0.00100335315697
1543475387380389000,100,1543475387380389000,,0.0700192217283,0.0,0.0,0.0,0.0,0.00131661262723
1543475387480504000,101,1543475387480504000,,0.0939332196647,0.0,0.0,0.0,0.0,0.000520066156972
1543475387580729000,102,1543475387580729000,,0.0582931691952,0.0,0.0,0.0,0.0,-0.000481229701936
1543475387680908000,103,1543475387680908000,,0.0769416899525,0.0,0.0,0.0,0.0,0.00122643901551
1543475387781033000,104,1543475387781033000,,0.0862128315999,0.0,0.0,0.0,0.0,-0.000591680958102
1543475387881170000,105,1543475387881170000,,0.0623379660472,0.0,0.0,0.0,0.0,0.000376491567247
1543475387981348000,106,1543475387981348000,,0.0461446787813,0.0,0.0,0.0,0.0,-0.00079820896834
1543475388081549000,107,1543475388081549000,,0.0733207762286,0.0,0.0,0.0,0.0,0.00123014224892
1543475388181707000,108,1543475388181707000,,0.089153338787,0.0,0.0,0.0,0.0,-0.000107439337506
1543475388281877000,109,1543475388281877000,,0.0566224072906,0.0,0.0,0.0,0.0,-0.00111625823501
1543475388382042000,110,1543475388382042000,,0.0702487760002,0.0,0.0,0.0,0.0,-0.000169558547266
1543475388482259000,111,1543475388482259000,,0.0863712949657,0.0,0.0,0.0,0.0,0.000582937655437
1543475388582391000,112,1543475388582391000,,0.0639578521151,0.0,0.0,0.0,0.0,0.000366085579479
1543475388682521000,113,1543475388682521000,,0.0573942918611,0.0,0.0,0.0,0.0,0.000349291255118
1543475388782726000,114,1543475388782726000,,0.0800505627779,0.0,0.0,0.0,0.0,-0.00133603106718
1543475388882894000,115,1543475388882894000,,0.0652870005691,0.0,0.0,0.0,0.0,0.000657110679981
1543475388983042000,116,1543475388983042000,,0.0596811213229,0.0,0.0,0.0,0.0,-0.000633923691202
1543475389083190000,117,1543475389083190000,,0.0636689685623,0.0,0.0,0.0,0.0,0.000317920471865
1543475389183402000,118,1543475389183402000,,0.0432432226707,0.0,0.0,0.0,0.0,6.95780419624e-05
1543475389283532000,119,1543475389283532000,,0.0658547000441,0.0,0.0,0.0,0.0,-0.000167082385279
1543475389383729000,120,1543475389383729000,,0.0484923319067,0.0,0.0,0.0,0.0,-0.000229192547137
1543475389483904000,121,1543475389483904000,,0.0580108110356,0.0,0.0,0.0,0.0,-0.00012866324424
1543475389584040000,122,1543475389584040000,,0.058478363801,0.0,0.0,0.0,0.0,-4.61714014336e-06
1543475389684225000,123,1543475389684225000,,0.0888217242529,0.0,0.0,0.0,0.0,5.06714700587e-05
1543475389784403000,124,1543475389784403000,,0.0804365708326,0.0,0.0,0.0,0.0,0.000149098551183
1543475389884570000,125,1543475389884570000,,0.0709963101577,0.0,0.0,0.0,0.0,-0.000570660363677
1543475389984767000,126,1543475389984767000,,0.0692142588977,0.0,0.0,0.0,0.0,0.000258284978026
1543475390084885000,127,1543475390084885000,,0.0481012773223,0.0,0.0,0.0,0.0,0.00102252178446
1543475390185095000,128,1543475390185095000,,0.0794732614405,0.0,0.0,0.0,0.0,-0.00126815624154
1543475390285264000,129,1543475390285264000,,0.0629061377254,0.0,0.0,0.0,0.0,0.00108083364625
1543475390385424000,130,1543475390385424000,,0.047796906137,0.0,0.0,0.0,0.0,0.000810755298587
1543475390485565000,131,1543475390485565000,,0.0768192270568,0.0,0.0,0.0,0.0,-0.0011393622777
1543475390585779000,132,1543475390585779000,,0.0908202411114,0.0,0.0,0.0,0.0,0.000106576931882
1543475390685960000,133,1543475390685960000,,0.0671219784394,0.0,0.0,0.0,0.0,-0.000409723002871
1543475390786103000,134,1543475390786103000,,0.0422607669779,0.0,0.0,0.0,0.0,-0.000186817564974
1543475390886319000,135,1543475390886319000,,0.0658177393541,0.0,0.0,0.0,0.0,0.0039613141335
1543475390986459000,136,1543475390986459000,,0.08590364515,0.0,0.0,0.0,0.0,-0.00322786615866
1543475391086673000,137,1543475391086673000,,0.0780663244987,0.0,0.0,0.0,0.0,-0.000576573374585
1543475391186789000,138,1543475391186789000,,0.0634540347999,0.0,0.0,0.0,0.0,0.00113612738822
1543475391286983000,139,1543475391286983000,,0.0762968799418,0.0,0.0,0.0,0.0,-0.00119210060815
1543475391387133000,140,1543475391387133000,,0.0689121369238,0.0,0.0,0.0,0.0,-0.00064983246677
1543475391487294000,141,1543475391487294000,,0.0492185764128,0.0,0.0,0.0,0.0,0.00111790261645
1543475391587482000,142,1543475391587482000,,0.0637299310368,0.0,0.0,0.0,0.0,0.000665051974101
1543475391687723000,143,1543475391687723000,,0.0488711441234,0.0,0.0,0.0,0.0,-0.000437032098792
1543475391787837000,144,1543475391787837000,,0.0828241915545,0.0,0.0,0.0,0.0,-0.00122701745689
1543475391887998000,145,1543475391887998000,,0.0604096703534,0.0,0.0,0.0,0.0,0.000929868008524
1543475391988193000,146,1543475391988193000,,0.0542010344927,0.0,0.0,0.0,0.0,0.000795450441622
1543475392088334000,147,1543475392088334000,,0.0862244057798,0.0,0.0,0.0,0.0,-0.00027171913288
1543475392188537000,148,1543475392188537000,,0.0604324806663,0.0,0.0,0.0,0.0,-0.0010056254664
1543475392288726000,149,1543475392288726000,,0.0499931896835,0.0,0.0,0.0,0.0,0.000581636846983
1543475392388857000,150,1543475392388857000,,0.0601888383169,0.0,0.0,0.0,0.0,-0.000711708638573
1543475392489065000,151,1543475392489065000,,0.069754860443,0.0,0.0,0.0,0.0,0.000879412478884
1543475392589217000,152,1543475392589217000,,0.0729501756507,0.0,0.0,0.0,0.0,-0.000180596819989
1543475392689393000,153,1543475392689393000,,0.0977112341888,0.0,0.0,0.0,0.0,-9.99447696248e-07
1543475392789560000,154,1543475392789560000,,0.0618822611768,0.0,0.0,0.0,0.0,0.000295239494258
1543475392889742000,155,1543475392889742000,,0.074484629747,0.0,0.0,0.0,0.0,-0.000525489505339
1543475392989943000,156,1543475392989943000,,0.0718897746927,0.0,0.0,0.0,0.0,0.000513419598026
1543475393090075000,157,1543475393090075000,,0.0562786336143,0.0,0.0,0.0,0.0,-0.000886757340819
1543475393190282000,158,1543475393190282000,,0.0618855203715,0.0,0.0,0.0,0.0,0.00325955965642
1543475393290470000,159,1543475393290470000,,0.0783841886778,0.0,0.0,0.0,0.0,-0.00311889876528
1543475393390622000,160,1543475393390622000,,0.0643143748758,0.0,0.0,0.0,0.0,0.00105782384915
1543475393490816000,161,1543475393490816000,,0.060960334336,0.0,0.0,0.0,0.0,-0.0011886536665
1543475393590992000,162,1543475393590992000,,0.0750269363182,0.0,0.0,0.0,0.0,0.000229151665606
1543475393691202000,163,1543475393691202000,,0.0648893266284,0.0,0.0,0.0,0.0,0.000651626154136
1543475393791325000,164,1543475393791325000,,0.0586763708254,0.0,0.0,0.0,0.0,-0.000880947447895
1543475393891522000,165,1543475393891522000,,0.0788695612255,0.0,0.0,0.0,0.0,0.0017650166456
1543475393991683000,166,1543475393991683000,,0.0708853880221,0.0,0.0,0.0,0.0,-0.000527650530462
1543475394091854000,167,1543475394091854000,,0.0999004835714,0.0,0.0,0.0,0.0,-0.000641662112657
1543475394192030000,168,1543475394192030000,,0.0816428568666,0.0,0.0,0.0,0.0,0.000782074082865
1543475394292216000,169,1543475394292216000,,0.0361416438306,0.0,0.0,0.0,0.0,0.000498941086808
1543475394392392000,170,1543475394392392000,,0.103694214232,0.0,0.0,0.0,0.0,-0.00136250345563
1543475394492558000,171,1543475394492558000,,0.0737070738395,0.0,0.0,0.0,0.0,-0.00027102676924
1543475394592751000,172,1543475394592751000,,0.084402792382,0.0,0.0,0.0,0.0,0.00138164071128
1543475394692913000,173,1543475394692913000,,0.0695240130858,0.0,0.0,0.0,0.0,-0.000522597069608
1543475394793063000,174,1543475394793063000,,0.0930024170995,0.0,0.0,0.0,0.0,0.00087464954336
1543475394893286000,175,1543475394893286000,,0.0837074860039,0.0,0.0,0.0,0.0,-0.0018136342265
1543475394993443000,176,1543475394993443000,,0.0609992440372,0.0,0.0,0.0,0.0,0.00116779333486
1543475395093645000,177,1543475395093645000,,0.0967125847941,0.0,0.0,0.0,0.0,-7.18174838131e-05
1543475395193769000,178,1543475395193769000,,0.065238733114,0.0,0.0,0.0,0.0,0.000304246295802
1543475395293961000,179,1543475395293961000,,0.0832024299445,0.0,0.0,0.0,0.0,-0.00258870823272
1543475395394169000,180,1543475395394169000,,0.0693798067332,0.0,0.0,0.0,0.0,0.00177095194382
1543475395494344000,181,1543475395494344000,,0.0648550543175,0.0,0.0,0.0,0.0,-0.00140324100899
1543475395594556000,182,1543475395594556000,,0.0450783718827,0.0,0.0,0.0,0.0,0.00289430153555
1543475395694710000,183,1543475395694710000,,0.0816867589941,0.0,0.0,0.0,0.0,-0.00221513102057
1543475395794856000,184,1543475395794856000,,0.085063080478,0.0,0.0,0.0,0.0,0.00100591548073
1543475395895075000,185,1543475395895075000,,0.0781561930387,0.0,0.0,0.0,0.0,-0.000342186049143
1543475395995230000,186,1543475395995230000,,0.0861503244655,0.0,0.0,0.0,0.0,0.00126100936883
1543475396095416000,187,1543475396095416000,,0.0737883991924,0.0,0.0,0.0,0.0,-0.00140218256975
1543475396195591000,188,1543475396195591000,,0.053541852477,0.0,0.0,0.0,0.0,0.00129072467614
1543475396295788000,189,1543475396295788000,,0.0522661913416,0.0,0.0,0.0,0.0,-0.00232554500295
1543475396395950000,190,1543475396395950000,,0.0569606278675,0.0,0.0,0.0,0.0,0.00239914763132
1543475396496109000,191,1543475396496109000,,0.0789890297382,0.0,0.0,0.0,0.0,-0.000838191249415
1543475396596339000,192,1543475396596339000,,0.0599006408962,0.0,0.0,0.0,0.0,-0.000647176509824
1543475396696514000,193,1543475396696514000,,0.0688362142989,0.0,0.0,0.0,0.0,0.00105721299997
1543475396796677000,194,1543475396796677000,,0.105822218824,0.0,0.0,0.0,0.0,-0.000743408981553
1543475396896877000,195,1543475396896877000,,0.0503869676529,0.0,0.0,0.0,0.0,-0.00123683229175
1543475396997050000,196,1543475396997050000,,0.0597572909144,0.0,0.0,0.0,0.0,0.00107107829388
1543475397097198000,197,1543475397097198000,,0.0587862433699,0.0,0.0,0.0,0.0,0.000490314330762
1543475397197382000,198,1543475397197382000,,0.0501089055038,0.0,0.0,0.0,0.0,-0.00105347695727
1543475397297583000,199,1543475397297583000,,0.0685359083099,0.0,0.0,0.0,0.0,0.00103876914083
1543475397397759000,200,1543475397397759000,,0.0542582351036,0.0,0.0,0.0,0.0,-0.000594750818276
1543475397497934000,201,1543475397497934000,,0.0587007913285,0.0,0.0,0.0,0.0,-0.000909083734057
1543475397598107000,202,1543475397598107000,,0.0706062998118,0.0,0.0,0.0,0.0,0.00109699353392
1543475397698309000,203,1543475397698309000,,0.0412888276256,0.0,0.0,0.0,0.0,0.000232839246713
1543475397798485000,204,1543475397798485000,,0.0747577790677,0.0,0.0,0.0,0.0,0.00126816448001
1543475397898657000,205,1543475397898657000,,0.058597199619,0.0,0.0,0.0,0.0,-0.00160069702107
1543475397998831000,206,1543475397998831000,,0.0849442130314,0.0,0.0,0.0,0.0,0.00172894695914
1543475398099009000,207,1543475398099009000,,0.0850951376556,0.0,0.0,0.0,0.0,-0.00149528464359
1543475398199198000,208,1543475398199198000,,0.0339953615806,0.0,0.0,0.0,0.0,0.000396462472503
1543475398299401000,209,1543475398299401000,,0.0700829824909,0.0,0.0,0.0,0.0,7.47421923095e-05
1543475398399568000,210,1543475398399568000,,0.0970407969887,0.0,0.0,0.0,0.0,-0.000264900710811
1543475398499723000,211,1543475398499723000,,0.0867587489959,0.0,0.0,0.0,0.0,-0.000414000982922
1543475398599922000,212,1543475398599922000,,0.0738109090562,0.0,0.0,0.0,0.0,-0.000808771714758
1543475398700075000,213,1543475398700075000,,0.0592031321274,0.0,0.0,0.0,0.0,5.67805101676e-05
1543475398800273000,214,1543475398800273000,,0.0511730528753,0.0,0.0,0.0,0.0,0.00128324508444
1543475398900433000,215,1543475398900433000,,0.0835992946023,0.0,0.0,0.0,0.0,-0.00064811433268
1543475399000665000,216,1543475399000665000,,0.0796164158706,0.0,0.0,0.0,0.0,0.000383273681724
1543475399100848000,217,1543475399100848000,,0.0601106334233,0.0,0.0,0.0,0.0,-0.000901639024307
1543475399200988000,218,1543475399200988000,,0.0746134151658,0.0,0.0,0.0,0.0,0.000983018276814
1543475399301187000,219,1543475399301187000,,0.0689293061358,0.0,0.0,0.0,0.0,-0.000653381726819
1543475399401330000,220,1543475399401330000,,0.080956518984,0.0,0.0,0.0,0.0,0.000992079108591
1543475399501541000,221,1543475399501541000,,0.0564940359832,0.0,0.0,0.0,0.0,-0.000129937497667
1543475399601708000,222,1543475399601708000,,0.0746840054475,0.0,0.0,0.0,0.0,-0.000373846458615
1543475399701904000,223,1543475399701904000,,0.0874733357873,0.0,0.0,0.0,0.0,-0.00032735883712
1543475399802099000,224,1543475399802099000,,0.0779982857087,0.0,0.0,0.0,0.0,0.00099195058861
1543475399902269000,225,1543475399902269000,,0.0580526941645,0.0,0.0,0.0,0.0,-0.000686017184377
1543475400002460000,226,1543475400002460000,,0.0627949169002,0.0,0.0,0.0,0.0,0.00177663449062
1543475400102644000,227,1543475400102644000,,0.0942541296158,0.0,0.0,0.0,0.0,-0.00266860471074
1543475400202788000,228,1543475400202788000,,0.0688413943036,0.0,0.0,0.0,0.0,0.00111510950124
1543475400303007000,229,1543475400303007000,,0.0395225347138,0.0,0.0,0.0,0.0,-0.00204644365173
1543475400403211000,230,1543475400403211000,,0.0735391784311,0.0,0.0,0.0,0.0,0.00425567699847
1543475400503417000,231,1543475400503417000,,0.0796193257282,0.0,0.0,0.0,0.0,-0.00171575973604
1543475400603547000,232,1543475400603547000,,0.080757031947,0.0,0.0,0.0,0.0,-0.000178167885235
1543475400703759000,233,1543475400703759000,,0.0634801170978,0.0,0.0,0.0,0.0,-0.00158556818706
1543475400803917000,234,1543475400803917000,,0.0587303547994,0.0,0.0,0.0,0.0,0.00204295800512
1543475400904102000,235,1543475400904102000,,0.100690011071,0.0,0.0,0.0,0.0,0.000605321100344
1543475401004311000,236,1543475401004311000,,0.047096266377,0.0,0.0,0.0,0.0,-0.00265083818674
1543475401104479000,237,1543475401104479000,,0.0742084999618,0.0,0.0,0.0,0.0,0.00181682292241
1543475401204624000,238,1543475401204624000,,0.0457380981373,0.0,0.0,0.0,0.0,0.000202650719857
1543475401304840000,239,1543475401304840000,,0.0917231204912,0.0,0.0,0.0,0.0,-0.000629086937153
1543475401405015000,240,1543475401405015000,,0.0764565045737,0.0,0.0,0.0,0.0,-0.00035461741327
1543475401505167000,241,1543475401505167000,,0.0857403871662,0.0,0.0,0.0,0.0,-0.000874911604144
1543475401605367000,242,1543475401605367000,,0.0674931283726,0.0,0.0,0.0,0.0,0.0010838557454
1543475401705566000,243,1543475401705566000,,0.0697503711512,0.0,0.0,0.0,0.0,-0.00152391208528
1543475401805748000,244,1543475401805748000,,0.0846521628842,0.0,0.0,0.0,0.0,0.000862881230667
1543475401905958000,245,1543475401905958000,,0.0963883963763,0.0,0.0,0.0,0.0,0.000593013977949
1543475402006176000,246,1543475402006176000,,0.0717473686109,0.0,0.0,0.0,0.0,-0.00091633640817
1543475402106290000,247,1543475402106290000,,0.0602473849335,0.0,0.0,0.0,0.0,0.000646547328506
1543475402206541000,248,1543475402206541000,,0.0681532926222,0.0,0.0,0.0,0.0,-0.000302438206625
1543475402306668000,249,1543475402306668000,,0.0363941393809,0.0,0.0,0.0,0.0,0.0008111148033
1543475402406857000,250,1543475402406857000,,0.0319913073406,0.0,0.0,0.0,0.0,0.00028512702066
1543475402507031000,251,1543475402507031000,,0.0652055839723,0.0,0.0,0.0,0.0,-0.00168161324803
1543475402607292000,252,1543475402607292000,,0.0601727593059,0.0,0.0,0.0,0.0,0.00197968960027
1543475402707471000,253,1543475402707471000,,0.085576592963,0.0,0.0,0.0,0.0,-0.00191783774016
1543475402807556000,254,1543475402807556000,,0.0772925072188,0.0,0.0,0.0,0.0,0.0012751212777
1543475402907787000,255,1543475402907787000,,0.0497224371172,0.0,0.0,0.0,0.0,-0.000389101153601
1543475403007958000,256,1543475403007958000,,0.0910988955373,0.0,0.0,0.0,0.0,0.000665586760152
1543475403108126000,257,1543475403108126000,,0.0805115303018,0.0,0.0,0.0,0.0,-0.000225186963568
1543475403208344000,258,1543475403208344000,,0.0607704424701,0.0,0.0,0.0,0.0,0.000750381149269
1543475403308565000,259,1543475403308565000,,0.0402997875511,0.0,0.0,0.0,0.0,-0.00129028564444
1543475403408709000,260,1543475403408709000,,0.0703503218563,0.0,0.0,0.0,0.0,0.00131642611952
1543475403508908000,261,1543475403508908000,,0.0796335338924,0.0,0.0,0.0,0.0,-0.00150616152851
1543475403609066000,262,1543475403609066000,,0.0656813777611,0.0,0.0,0.0,0.0,-0.000165044804717
1543475403709228000,263,1543475403709228000,,0.0739863721705,0.0,0.0,0.0,0.0,-0.000459820645051
1543475403809475000,264,1543475403809475000,,0.0746095065188,0.0,0.0,0.0,0.0,0.00170734353151
1543475403909637000,265,1543475403909637000,,0.0720044496686,0.0,0.0,0.0,0.0,-0.000886455012977
1543475404009792000,266,1543475404009792000,,0.0868856888008,0.0,0.0,0.0,0.0,0.000663315435354
1543475404110001000,267,1543475404110001000,,0.0792459673592,0.0,0.0,0.0,0.0,-0.00052945005783
1543475404210175000,268,1543475404210175000,,0.0528616436765,0.0,0.0,0.0,0.0,-0.000803854606993
1543475404310354000,269,1543475404310354000,,0.0771971414865,0.0,0.0,0.0,0.0,0.00331828308404
1543475404410562000,270,1543475404410562000,,0.0813247910732,0.0,0.0,0.0,0.0,-0.00108608628959
1543475404510756000,271,1543475404510756000,,0.044973977768,0.0,0.0,0.0,0.0,-0.0015952574737
1543475404610893000,272,1543475404610893000,,0.0721467447216,0.0,0.0,0.0,0.0,0.00291161443479
1543475404711100000,273,1543475404711100000,,0.0681777525551,0.0,0.0,0.0,0.0,-0.00354613366751
1543475404811278000,274,1543475404811278000,,0.0612879674134,0.0,0.0,0.0,0.0,0.00263833852745
1543475404911450000,275,1543475404911450000,,0.0918327704817,0.0,0.0,0.0,0.0,-0.00109966843675
1543475405011686000,276,1543475405011686000,,0.0535686164089,0.0,0.0,0.0,0.0,-0.000514475439309
1543475405111849000,277,1543475405111849000,,0.0608205758989,0.0,0.0,0.0,0.0,-0.000647355593291
1543475405212050000,278,1543475405212050000,,0.0413798502387,0.0,0.0,0.0,0.0,0.000589403506929
1543475405312241000,279,1543475405312241000,,0.058751585661,0.0,0.0,0.0,0.0,7.04502987583e-05
1543475405412400000,280,1543475405412400000,,0.0692685320675,0.0,0.0,0.0,0.0,0.00166156165098
1543475405516808000,281,1543475405516808000,,0.0442798479132,0.0,0.0,0.0,0.0,-0.00279989819958
1543475405612785000,282,1543475405612785000,,0.0662045219623,0.0,0.0,0.0,0.0,0.00476950297387
1543475405712963000,283,1543475405712963000,,0.0340852054069,0.0,0.0,0.0,0.0,-0.00508639810117
1543475405813169000,284,1543475405813169000,,0.0854133545074,0.0,0.0,0.0,0.0,0.00321621142447
1543475405913357000,285,1543475405913357000,,0.0743230225086,0.0,0.0,0.0,0.0,-0.00118891063698
1543475406013560000,286,1543475406013560000,,0.0393670276112,0.0,0.0,0.0,0.0,0.000913161907372
1543475406113692000,287,1543475406113692000,,0.0452351428346,0.0,0.0,0.0,0.0,-0.00278486273408
1543475406213895000,288,1543475406213895000,,0.0837247827795,0.0,0.0,0.0,0.0,0.00171545391908
1543475406314054000,289,1543475406314054000,,0.0649340049392,0.0,0.0,0.0,0.0,-0.000576063988886
1543475406414259000,290,1543475406414259000,,0.09301559098,0.0,0.0,0.0,0.0,0.000245870207572
1543475406514485000,291,1543475406514485000,,0.082373159193,0.0,0.0,0.0,0.0,0.000283312969421
1543475406614655000,292,1543475406614655000,,0.0741049483244,0.0,0.0,0.0,0.0,0.000640650964176
1543475406714848000,293,1543475406714848000,,0.0816420980206,0.0,0.0,0.0,0.0,-0.000981413824627
1543475406815018000,294,1543475406815018000,,0.0836770472273,0.0,0.0,0.0,0.0,4.52903879696e-06
1543475406915199000,295,1543475406915199000,,0.0485064227662,0.0,0.0,0.0,0.0,-0.000483354434688
1543475407015398000,296,1543475407015398000,,0.071342281308,0.0,0.0,0.0,0.0,0.00024936137103
1543475407115568000,297,1543475407115568000,,0.0591122969079,0.0,0.0,0.0,0.0,0.000470418997543
1543475407215739000,298,1543475407215739000,,0.0642727707322,0.0,0.0,0.0,0.0,-0.0012985231282
1543475407315945000,299,1543475407315945000,,0.0816366993989,0.0,0.0,0.0,0.0,0.000767500931852
1543475407416151000,300,1543475407416151000,,0.0474909820051,0.0,0.0,0.0,0.0,0.00140838320728
1543475407516336000,301,1543475407516336000,,0.0544453602766,0.0,0.0,0.0,0.0,-0.00440270894741
1543475407616512000,302,1543475407616512000,,0.083513199587,0.0,0.0,0.0,0.0,0.00291820635156
1543475407716700000,303,1543475407716700000,,0.0572148225035,0.0,0.0,0.0,0.0,0.00117973532698
1543475407816925000,304,1543475407816925000,,0.0578365273921,0.0,0.0,0.0,0.0,-0.00152772170333
1543475407917098000,305,1543475407917098000,,0.0646176167729,0.0,0.0,0.0,0.0,0.000130049345916
1543475408017269000,306,1543475408017269000,,0.0606366869549,0.0,0.0,0.0,0.0,5.54376310614e-05
1543475408117434000,307,1543475408117434000,,0.0867001933418,0.0,0.0,0.0,0.0,0.00241821167918
1543475408217678000,308,1543475408217678000,,0.108015914118,0.0,0.0,0.0,0.0,-0.000656415694931
1543475408317846000,309,1543475408317846000,,0.0552514040155,0.0,0.0,0.0,0.0,-0.00161248554481
1543475408417984000,310,1543475408417984000,,0.0618621148373,0.0,0.0,0.0,0.0,0.000984478413393
1543475408518218000,311,1543475408518218000,,0.107408392839,0.0,0.0,0.0,0.0,1.46115910307e-05
1543475408618417000,312,1543475408618417000,,0.0664733972143,0.0,0.0,0.0,0.0,-0.000560733456281
1543475408718591000,313,1543475408718591000,,0.0454373982829,0.0,0.0,0.0,0.0,-0.00141934508072
1543475408818771000,314,1543475408818771000,,0.0547933881804,0.0,0.0,0.0,0.0,0.00163597931207
1543475408918928000,315,1543475408918928000,,0.0456898761541,0.0,0.0,0.0,0.0,-0.00313768125028
1543475409019199000,316,1543475409019199000,,0.0634678068095,0.0,0.0,0.0,0.0,0.00338120584061
1543475409119322000,317,1543475409119322000,,0.126770207879,0.0,0.0,0.0,0.0,0.000307150137191
1543475409219533000,318,1543475409219533000,,0.0597075579738,0.0,0.0,0.0,0.0,-0.001983406306
1543475409319732000,319,1543475409319732000,,0.0676226257716,0.0,0.0,0.0,0.0,0.00075667225638
1543475409419886000,320,1543475409419886000,,0.0745320772232,0.0,0.0,0.0,0.0,0.00109999063014
1543475409520125000,321,1543475409520125000,,0.0589014013536,0.0,0.0,0.0,0.0,-0.00489800702691
1543475409620273000,322,1543475409620273000,,0.0956614591399,0.0,0.0,0.0,0.0,0.00527353856703
1543475409720484000,323,1543475409720484000,,0.049086659782,0.0,0.0,0.0,0.0,-0.00106015595533
1543475409820668000,324,1543475409820668000,,0.0860303207212,0.0,0.0,0.0,0.0,0.000154268319715
1543475409920824000,325,1543475409920824000,,0.10257462071,0.0,0.0,0.0,0.0,0.000353567673878
1543475410021019000,326,1543475410021019000,,0.059183184603,0.0,0.0,0.0,0.0,-0.000792265964431
1543475410121218000,327,1543475410121218000,,0.0751596882047,0.0,0.0,0.0,0.0,0.000921247299497
1543475410221406000,328,1543475410221406000,,0.0800366437704,0.0,0.0,0.0,0.0,7.63723513858e-05
1543475410321590000,329,1543475410321590000,,0.0689423209397,0.0,0.0,0.0,0.0,-0.00191583328761
1543475410421787000,330,1543475410421787000,,0.0781018784177,0.0,0.0,0.0,0.0,0.00312957207007
1543475410521996000,331,1543475410521996000,,0.0695385477275,0.0,0.0,0.0,0.0,-0.00439998308187
1543475410622189000,332,1543475410622189000,,0.084435280107,0.0,0.0,0.0,0.0,0.00257145980549
1543475410722354000,333,1543475410722354000,,0.102667807202,0.0,0.0,0.0,0.0,-0.00125670046191
1543475410822566000,334,1543475410822566000,,0.0670939890371,0.0,0.0,0.0,0.0,0.00125183964127
1543475410922737000,335,1543475410922737000,,0.0521295526976,0.0,0.0,0.0,0.0,-0.00132701951594
1543475411022990000,336,1543475411022990000,,0.0599780473188,0.0,0.0,0.0,0.0,0.00141082786565
1543475411123327000,337,1543475411123327000,,0.0811590381991,0.0,0.0,0.0,0.0,-0.00133342772045
1543475411223558000,338,1543475411223558000,,0.0973886575713,0.0,0.0,0.0,0.0,0.00107840913392
1543475411323932000,339,1543475411323932000,,0.0793204894791,0.0,0.0,0.0,0.0,-2.29249645504e-05
1543475411424180000,340,1543475411424180000,,0.0814703885969,0.0,0.0,0.0,0.0,0.000819405457406
1543475411524478000,341,1543475411524478000,,0.0843444772298,0.0,0.0,0.0,0.0,3.98554765334e-05
1543475411624770000,342,1543475411624770000,,0.0870318423754,0.0,0.0,0.0,0.0,-0.00209415079982
1543475411725066000,343,1543475411725066000,,0.0850561454215,0.0,0.0,0.0,0.0,0.00301779993406
1543475411825375000,344,1543475411825375000,,0.066172172638,0.0,0.0,0.0,0.0,-0.00170591777505
1543475411925636000,345,1543475411925636000,,0.0625305557394,0.0,0.0,0.0,0.0,0.00047794861234
1543475412025962000,346,1543475412025962000,,0.0679858237894,0.0,0.0,0.0,0.0,-0.000511481197611
1543475412126240000,347,1543475412126240000,,0.0746880319789,0.0,0.0,0.0,0.0,-0.000190147910226
1543475412226535000,348,1543475412226535000,,0.0911891271784,0.0,0.0,0.0,0.0,0.000811929819861
1543475412326813000,349,1543475412326813000,,0.0629119410595,0.0,0.0,0.0,0.0,-0.000792864756993
1543475412427080000,350,1543475412427080000,,0.060945258632,0.0,0.0,0.0,0.0,0.00167714568711
1543475412527425000,351,1543475412527425000,,0.094248530544,0.0,0.0,0.0,0.0,-0.00154254694346
1543475412627689000,352,1543475412627689000,,0.0787900860625,0.0,0.0,0.0,0.0,0.000892918023522
1543475412727997000,353,1543475412727997000,,0.0534513252235,0.0,0.0,0.0,0.0,-0.000336077222112
1543475412828321000,354,1543475412828321000,,0.0886459075217,0.0,0.0,0.0,0.0,-0.000499239499839
1543475412928572000,355,1543475412928572000,,0.0892557866002,0.0,0.0,0.0,0.0,-0.00126925913188
1543475413028885000,356,1543475413028885000,,0.0731540650179,0.0,0.0,0.0,0.0,0.00232166299178
1543475413129138000,357,1543475413129138000,,0.0969353749529,0.0,0.0,0.0,0.0,-0.00147046848529
1543475413229434000,358,1543475413229434000,,0.102349679502,0.0,0.0,0.0,0.0,0.00045470553853
1543475413329790000,359,1543475413329790000,,0.0548680773984,0.0,0.0,0.0,0.0,-0.000763819690634
1543475413430041000,360,1543475413430041000,,0.0660768340898,0.0,0.0,0.0,0.0,0.00398541736104
1543475413530354000,361,1543475413530354000,,0.0707987447863,0.0,0.0,0.0,0.0,-0.00298003813727
1543475413630608000,362,1543475413630608000,,0.0684564223971,0.0,0.0,0.0,0.0,-0.000242863269089
1543475413730956000,363,1543475413730956000,,0.0824905781398,0.0,0.0,0.0,0.0,0.000480526711053
1543475413831226000,364,1543475413831226000,,0.105485357371,0.0,0.0,0.0,0.0,-0.000809705244006
1543475413931475000,365,1543475413931475000,,0.0571692467984,0.0,0.0,0.0,0.0,-0.000732795762814
1543475414031770000,366,1543475414031770000,,0.0495344457791,0.0,0.0,0.0,0.0,-0.00044355064188
1543475414132093000,367,1543475414132093000,,0.0901333897742,0.0,0.0,0.0,0.0,0.00265530324757
1543475414232351000,368,1543475414232351000,,0.0937253834493,0.0,0.0,0.0,0.0,-0.000542867382028
1543475414332656000,369,1543475414332656000,,0.0646368859122,0.0,0.0,0.0,0.0,-0.00118922255614
1543475414432945000,370,1543475414432945000,,0.0584287130159,0.0,0.0,0.0,0.0,0.00287658533494
1543475414533260000,371,1543475414533260000,,0.076862591924,0.0,0.0,0.0,0.0,-0.00290486757835
1543475414633517000,372,1543475414633517000,,0.0677186901307,0.0,0.0,0.0,0.0,0.00129649804865
1543475414733810000,373,1543475414733810000,,0.0774847548007,0.0,0.0,0.0,0.0,-0.000576120725241
1543475414834088000,374,1543475414834088000,,0.0673192399206,0.0,0.0,0.0,0.0,-0.000173080404312
1543475414934366000,375,1543475414934366000,,0.0522608058265,0.0,0.0,0.0,0.0,-0.00025808047187
1543475415034671000,376,1543475415034671000,,0.0657893060576,0.0,0.0,0.0,0.0,0.00151466628283
1543475415134978000,377,1543475415134978000,,0.0690443176125,0.0,0.0,0.0,0.0,-0.00300757386549
1543475415235257000,378,1543475415235257000,,0.0746222568264,0.0,0.0,0.0,0.0,0.0032651999716
1543475415335530000,379,1543475415335530000,,0.0779522466228,0.0,0.0,0.0,0.0,-0.00194117441167
1543475415435781000,380,1543475415435781000,,0.0627544069451,0.0,0.0,0.0,0.0,0.00140534303424
1543475415536131000,381,1543475415536131000,,0.0599225614864,0.0,0.0,0.0,0.0,-0.000433450606962
1543475415636379000,382,1543475415636379000,,0.0592926754377,0.0,0.0,0.0,0.0,-0.00110827520773
1543475415736671000,383,1543475415736671000,,0.0695012532177,0.0,0.0,0.0,0.0,-0.000152607524137
1543475415836943000,384,1543475415836943000,,0.0979277606908,0.0,0.0,0.0,0.0,0.000799586763999
1543475415937211000,385,1543475415937211000,,0.0951751761103,0.0,0.0,0.0,0.0,0.000783381969565
1543475416037512000,386,1543475416037512000,,0.0673234749898,0.0,0.0,0.0,0.0,-0.00121520991887
1543475416137783000,387,1543475416137783000,,0.0770051049213,0.0,0.0,0.0,0.0,0.00221754017718
1543475416238099000,388,1543475416238099000,,0.0894675599269,0.0,0.0,0.0,0.0,-0.00225567180142
1543475416338384000,389,1543475416338384000,,0.0535579624795,0.0,0.0,0.0,0.0,0.000915425208649
1543475416438662000,390,1543475416438662000,,0.0604052452572,0.0,0.0,0.0,0.0,-0.00326709272753
1543475416538979000,391,1543475416538979000,,0.080025445953,0.0,0.0,0.0,0.0,0.0048408831406
1543475416639238000,392,1543475416639238000,,0.0677001014609,0.0,0.0,0.0,0.0,-0.00378820560514
1543475416739506000,393,1543475416739506000,,0.0906846485351,0.0,0.0,0.0,0.0,0.00398366616264
1543475416839765000,394,1543475416839765000,,0.0862796705256,0.0,0.0,0.0,0.0,-0.00225701942887
1543475416940057000,395,1543475416940057000,,0.0916474585408,0.0,0.0,0.0,0.0,-0.000240296416545
1543475417040356000,396,1543475417040356000,,0.0633190263851,0.0,0.0,0.0,0.0,-0.000409393236593
1543475417140619000,397,1543475417140619000,,0.0716054916662,0.0,0.0,0.0,0.0,4.71204039896e-05
1543475417240906000,398,1543475417240906000,,0.074685311665,0.0,0.0,0.0,0.0,0.0011788794519
1543475417341203000,399,1543475417341203000,,0.101247170231,0.0,0.0,0.0,0.0,-0.00122322193497
1543475417441481000,400,1543475417441481000,,0.0790077984791,0.0,0.0,0.0,0.0,-0.000594331450822
1543475417541744000,401,1543475417541744000,,0.0589761266706,0.0,0.0,0.0,0.0,0.00124797407504
1543475417642025000,402,1543475417642025000,,0.0586746706735,0.0,0.0,0.0,0.0,-0.000167831839362
1543475417742279000,403,1543475417742279000,,0.0798994529491,0.0,0.0,0.0,0.0,0.0010066837817
1543475417842596000,404,1543475417842596000,,0.0679393911972,0.0,0.0,0.0,0.0,-0.00268573583472
1543475417942903000,405,1543475417942903000,,0.0780931150162,0.0,0.0,0.0,0.0,0.00570051120989
1543475418043129000,406,1543475418043129000,,0.0848118419261,0.0,0.0,0.0,0.0,-0.00381267626187
1543475418143436000,407,1543475418143436000,,0.0845267886,0.0,0.0,0.0,0.0,-0.00114929069242
1543475418243701000,408,1543475418243701000,,0.0382343659178,0.0,0.0,0.0,0.0,0.00249555485805
1543475418343958000,409,1543475418343958000,,0.0575993441638,0.0,0.0,0.0,0.0,-0.000777167028177
1543475418444237000,410,1543475418444237000,,0.0748279654846,0.0,0.0,0.0,0.0,-0.00102945397614
1543475418544555000,411,1543475418544555000,,0.0542562782367,0.0,0.0,0.0,0.0,-0.000183738358904
1543475418644783000,412,1543475418644783000,,0.0698073471462,0.0,0.0,0.0,0.0,0.00117876644627
1543475418745067000,413,1543475418745067000,,0.0788696462024,0.0,0.0,0.0,0.0,-0.00112581413258
1543475418845367000,414,1543475418845367000,,0.0654916466043,0.0,0.0,0.0,0.0,0.000914662695102
1543475418945641000,415,1543475418945641000,,0.0700010348566,0.0,0.0,0.0,0.0,0.000122418332462
1543475419045923000,416,1543475419045923000,,0.092324286515,0.0,0.0,0.0,0.0,-0.000538318065752
1543475419146190000,417,1543475419146190000,,0.043885616742,0.0,0.0,0.0,0.0,0.000614452351863
1543475419246504000,418,1543475419246504000,,0.0847228247715,0.0,0.0,0.0,0.0,1.4031853196e-05
1543475419346761000,419,1543475419346761000,,0.058807870535,0.0,0.0,0.0,0.0,-0.000982105477209
1543475419447029000,420,1543475419447029000,,0.0955576450567,0.0,0.0,0.0,0.0,0.0019996433253
1543475419547294000,421,1543475419547294000,,0.098038015301,0.0,0.0,0.0,0.0,-0.00131382352791
1543475419647576000,422,1543475419647576000,,0.0709028514979,0.0,0.0,0.0,0.0,0.00125749432428
1543475419747874000,423,1543475419747874000,,0.0733228408478,0.0,0.0,0.0,0.0,-0.00271902102379
1543475419848190000,424,1543475419848190000,,0.0841381484427,0.0,0.0,0.0,0.0,0.0020275213253
1543475419948403000,425,1543475419948403000,,0.0610549796716,0.0,0.0,0.0,0.0,-0.000456888069125
1543475420048674000,426,1543475420048674000,,0.059456683971,0.0,0.0,0.0,0.0,-0.000177313426879
1543475420148933000,427,1543475420148933000,,0.0935718010531,0.0,0.0,0.0,0.0,-0.000373671486
1543475420249252000,428,1543475420249252000,,0.0581959227552,0.0,0.0,0.0,0.0,2.52162180773e-06
1543475420349519000,429,1543475420349519000,,0.076388418606,0.0,0.0,0.0,0.0,0.000306787340443
1543475420449785000,430,1543475420449785000,,0.0870616330871,0.0,0.0,0.0,0.0,0.000675692631331
1543475420550074000,431,1543475420550074000,,0.0539104219211,0.0,0.0,0.0,0.0,-0.00182168354142
1543475420650351000,432,1543475420650351000,,0.0780527400028,0.0,0.0,0.0,0.0,0.00149178699746
1543475420750620000,433,1543475420750620000,,0.0918334877675,0.0,0.0,0.0,0.0,-0.00038447122941
1543475420850886000,434,1543475420850886000,,0.0428721325297,0.0,0.0,0.0,0.0,0.00022826090185
1543475420951149000,435,1543475420951149000,,0.0524891362841,0.0,0.0,0.0,0.0,-0.000324561070368
1543475421051476000,436,1543475421051476000,,0.0751819459278,0.0,0.0,0.0,0.0,0.000701806180004
1543475421151698000,437,1543475421151698000,,0.0416600367459,0.0,0.0,0.0,0.0,-0.00112761715013
1543475421251992000,438,1543475421251992000,,0.0586744838399,0.0,0.0,0.0,0.0,0.00137773100516
1543475421352227000,439,1543475421352227000,,0.0854600649009,0.0,0.0,0.0,0.0,-0.000413887377415
1543475421452500000,440,1543475421452500000,,0.0785656666222,0.0,0.0,0.0,0.0,-7.04734202863e-05
1543475421552797000,441,1543475421552797000,,0.0401728754517,0.0,0.0,0.0,0.0,0.000850838032816
1543475421653056000,442,1543475421653056000,,0.081350113543,0.0,0.0,0.0,0.0,-0.00580553854508
1543475421753362000,443,1543475421753362000,,0.0934424985868,0.0,0.0,0.0,0.0,0.00528645825668
1543475421853597000,444,1543475421853597000,,0.0657613699067,0.0,0.0,0.0,0.0,-0.00095064316542
1543475421953862000,445,1543475421953862000,,0.0485779947517,0.0,0.0,0.0,0.0,0.00113898558041
1543475422054183000,446,1543475422054183000,,0.0431860754279,0.0,0.0,0.0,0.0,-0.00109878262341
1543475422154430000,447,1543475422154430000,,0.0615387225487,0.0,0.0,0.0,0.0,0.00210994957547
1543475422254681000,448,1543475422254681000,,0.0579319745445,0.0,0.0,0.0,0.0,-0.00105528668243
1543475422355000000,449,1543475422355000000,,0.0629331457716,0.0,0.0,0.0,0.0,-0.00129269425227
1543475422455240000,450,1543475422455240000,,0.093764892459,0.0,0.0,0.0,0.0,0.000992119224493
1543475422555520000,451,1543475422555520000,,0.0828978478985,0.0,0.0,0.0,0.0,0.000416408868203
1543475422655756000,452,1543475422655756000,,0.0633907754813,0.0,0.0,0.0,0.0,-0.00108443935354
1543475422756025000,453,1543475422756025000,,0.0804050469763,0.0,0.0,0.0,0.0,8.41259267992e-05
1543475422856299000,454,1543475422856299000,,0.0590472438141,0.0,0.0,0.0,0.0,-0.000354326004959
1543475422956561000,455,1543475422956561000,,0.0660446298672,0.0,0.0,0.0,0.0,0.0006781867008
1543475423056845000,456,1543475423056845000,,0.0650597893177,0.0,0.0,0.0,0.0,-0.000234873990215
1543475423157125000,457,1543475423157125000,,0.0555107063821,0.0,0.0,0.0,0.0,-0.00066535052276
1543475423257428000,458,1543475423257428000,,0.0534036392239,0.0,0.0,0.0,0.0,0.00135972698602
1543475423357640000,459,1543475423357640000,,0.0786083162855,0.0,0.0,0.0,0.0,-0.000922490894649
1543475423457890000,460,1543475423457890000,,0.0822844396515,0.0,0.0,0.0,0.0,0.00036873391636
1543475423558176000,461,1543475423558176000,,0.0641484420345,0.0,0.0,0.0,0.0,-0.000849992828765
1543475423658427000,462,1543475423658427000,,0.0581477655248,0.0,0.0,0.0,0.0,0.00288250062047
1543475423758702000,463,1543475423758702000,,0.0848146455951,0.0,0.0,0.0,0.0,-0.00270841638052
1543475423859016000,464,1543475423859016000,,0.0675655744206,0.0,0.0,0.0,0.0,0.00127333162547
1543475423959317000,465,1543475423959317000,,0.0347201517006,0.0,0.0,0.0,0.0,-0.000752290508923
1543475424059482000,466,1543475424059482000,,0.064042055852,0.0,0.0,0.0,0.0,-0.000312782930614
1543475424159765000,467,1543475424159765000,,0.0597723771887,0.0,0.0,0.0,0.0,0.000331830452958
1543475424260041000,468,1543475424260041000,,0.152806055506,0.0,0.0,0.0,0.0,0.000948183855138
1543475424360332000,469,1543475424360332000,,0.0548590912652,0.0,0.0,0.0,0.0,-0.00216913361098
1543475424460564000,470,1543475424460564000,,0.0746161792417,0.0,0.0,0.0,0.0,0.000620808854776
1543475424560856000,471,1543475424560856000,,0.0777766921787,0.0,0.0,0.0,0.0,0.000486701273513
1543475424661126000,472,1543475424661126000,,0.0737969538084,0.0,0.0,0.0,0.0,0.00202742567023
1543475424761387000,473,1543475424761387000,,0.0416455922503,0.0,0.0,0.0,0.0,-0.00144874303527
1543475424861644000,474,1543475424861644000,,0.0592355844404,0.0,0.0,0.0,0.0,0.00319465062736
1543475424961901000,475,1543475424961901000,,0.0600780764612,0.0,0.0,0.0,0.0,-0.00433758437009
1543475425062166000,476,1543475425062166000,,0.0880295604192,0.0,0.0,0.0,0.0,0.000763842308177
1543475425162399000,477,1543475425162399000,,0.104995175173,0.0,0.0,0.0,0.0,0.000977923929482
1543475425262672000,478,1543475425262672000,,0.10287387696,0.0,0.0,0.0,0.0,-0.00119781296098
1543475425362991000,479,1543475425362991000,,0.0635806246416,0.0,0.0,0.0,0.0,-0.000149860984188
1543475425463272000,480,1543475425463272000,,0.0790556529756,0.0,0.0,0.0,0.0,-0.000154385170767
1543475425563506000,481,1543475425563506000,,0.0843613903472,0.0,0.0,0.0,0.0,0.00056299277379
1543475425663756000,482,1543475425663756000,,0.085001421817,0.0,0.0,0.0,0.0,0.00064954310849
1543475425764034000,483,1543475425764034000,,0.102172994081,0.0,0.0,0.0,0.0,-0.000392890561514
1543475425864276000,484,1543475425864276000,,0.0700699376266,0.0,0.0,0.0,0.0,0.000465432974119
1543475425964542000,485,1543475425964542000,,0.095696943788,0.0,0.0,0.0,0.0,-0.00142404594942
1543475426064818000,486,1543475426064818000,,0.0762455305184,0.0,0.0,0.0,0.0,-1.48506703077e-05
1543475426165058000,487,1543475426165058000,,0.0589276142248,0.0,0.0,0.0,0.0,-0.00143813096902
1543475426265329000,488,1543475426265329000,,0.0779035947507,0.0,0.0,0.0,0.0,0.00477062989792
1543475426365584000,489,1543475426365584000,,0.105874781354,0.0,0.0,0.0,0.0,-0.00273228659379
1543475426465891000,490,1543475426465891000,,0.0681736584021,0.0,0.0,0.0,0.0,-5.93667398542e-05
1543475426566112000,491,1543475426566112000,,0.0842735208868,0.0,0.0,0.0,0.0,-0.0002154242846
1543475426666357000,492,1543475426666357000,,0.0666270999377,0.0,0.0,0.0,0.0,0.00131115355225
1543475426766644000,493,1543475426766644000,,0.0801492512792,0.0,0.0,0.0,0.0,-0.00157126620981
1543475426866910000,494,1543475426866910000,,0.0670012818664,0.0,0.0,0.0,0.0,0.00065162523568
1543475426967167000,495,1543475426967167000,,0.0727397356243,0.0,0.0,0.0,0.0,0.0011208568993
1543475427067457000,496,1543475427067457000,,0.10568135869,0.0,0.0,0.0,0.0,-0.00140323415426
1543475427167706000,497,1543475427167706000,,0.06873086042,0.0,0.0,0.0,0.0,0.000569880063754
1543475427267985000,498,1543475427267985000,,0.0724926546027,0.0,0.0,0.0,0.0,0.00088994165297
1543475427368182000,499,1543475427368182000,,0.0899731987307,0.0,0.0,0.0,0.0,-0.00142935414834
1543475427468508000,500,1543475427468508000,,0.0805222332077,0.0,0.0,0.0,0.0,0.00066938230942
1543475427568698000,501,1543475427568698000,,0.061189601708,0.0,0.0,0.0,0.0,-0.000253890601659
1543475427668969000,502,1543475427668969000,,0.0982007433815,0.0,0.0,0.0,0.0,-0.000108101220918
1543475427769212000,503,1543475427769212000,,0.0469150246427,0.0,0.0,0.0,0.0,-0.000512013754754
1543475427869512000,504,1543475427869512000,,0.0710668947348,0.0,0.0,0.0,0.0,5.22611386447e-05
1543475427969776000,505,1543475427969776000,,0.0715422456459,0.0,0.0,0.0,0.0,0.00135056610849
1543475428070024000,506,1543475428070024000,,0.0781552372637,0.0,0.0,0.0,0.0,-0.00064160031555
1543475428170274000,507,1543475428170274000,,0.0732182720375,0.0,0.0,0.0,0.0,-0.000732965722754
1543475428270585000,508,1543475428270585000,,0.0475178212185,0.0,0.0,0.0,0.0,0.00130229776576
1543475428370816000,509,1543475428370816000,,0.0860455945554,0.0,0.0,0.0,0.0,-0.00113885775094
1543475428471080000,510,1543475428471080000,,0.0791444368013,0.0,0.0,0.0,0.0,0.0011342488607
1543475428571311000,511,1543475428571311000,,0.0716171987297,0.0,0.0,0.0,0.0,-0.000326372812321
1543475428671596000,512,1543475428671596000,,0.0774919987456,0.0,0.0,0.0,0.0,0.000222475486348
1543475428771862000,513,1543475428771862000,,0.0706455380234,0.0,0.0,0.0,0.0,-0.000373858604987
1543475428872110000,514,1543475428872110000,,0.07727747621,0.0,0.0,0.0,0.0,-0.000781939323107
1543475428972368000,515,1543475428972368000,,0.0713717016249,0.0,0.0,0.0,0.0,0.000262299496961
1543475429072637000,516,1543475429072637000,,0.0513911663806,0.0,0.0,0.0,0.0,-0.000138710682386
1543475429172934000,517,1543475429172934000,,0.0662929388335,0.0,0.0,0.0,0.0,0.00019891610461
1543475429273136000,518,1543475429273136000,,0.0741353660908,0.0,0.0,0.0,0.0,-0.000136659080872
1543475429373436000,519,1543475429373436000,,0.062022065989,0.0,0.0,0.0,0.0,-0.00117627393218
1543475429473639000,520,1543475429473639000,,0.0845180770166,0.0,0.0,0.0,0.0,0.0019908047054
1543475429573917000,521,1543475429573917000,,0.0560621878656,0.0,0.0,0.0,0.0,-3.08858806528e-05
1543475429674161000,522,1543475429674161000,,0.0712078346267,0.0,0.0,0.0,0.0,-0.000332522279433
1543475429774406000,523,1543475429774406000,,0.0698435191127,0.0,0.0,0.0,0.0,0.00042436150177
1543475429874682000,524,1543475429874682000,,0.0746522733494,0.0,0.0,0.0,0.0,-0.000270054504933
1543475429974957000,525,1543475429974957000,,0.0557160717615,0.0,0.0,0.0,0.0,0.00063289575174
1543475430075222000,526,1543475430075222000,,0.0549746255039,0.0,0.0,0.0,0.0,-0.000929771126224
1543475430175421000,527,1543475430175421000,,0.0724327232445,0.0,0.0,0.0,0.0,8.95994593846e-05
1543475430275708000,528,1543475430275708000,,0.0593433595401,0.0,0.0,0.0,0.0,0.000133872699428
1543475430375939000,529,1543475430375939000,,0.0669797924095,0.0,0.0,0.0,0.0,-0.000273828092731
1543475430476223000,530,1543475430476223000,,0.0592935965513,0.0,0.0,0.0,0.0,-4.07143427017e-05
1543475430576492000,531,1543475430576492000,,0.0770350222506,0.0,0.0,0.0,0.0,0.000160269771761
1543475430676719000,532,1543475430676719000,,0.0558647259952,0.0,0.0,0.0,0.0,-0.00019988489628
1543475430776982000,533,1543475430776982000,,0.0928121446274,0.0,0.0,0.0,0.0,-0.00074841529254
1543475430877218000,534,1543475430877218000,,0.058892963783,0.0,0.0,0.0,0.0,0.00153662262411
1543475430977464000,535,1543475430977464000,,0.0806287238695,0.0,0.0,0.0,0.0,-0.000604998101051
1543475431077739000,536,1543475431077739000,,0.056016018416,0.0,0.0,0.0,0.0,-0.000464856626043
1543475431178009000,537,1543475431178009000,,0.0669227926578,0.0,0.0,0.0,0.0,0.000774741751072
1543475431278269000,538,1543475431278269000,,0.0628136781923,0.0,0.0,0.0,0.0,-0.000858612633307
1543475431378544000,539,1543475431378544000,,0.0467234795121,0.0,0.0,0.0,0.0,2.67079832595e-05
1543475431478763000,540,1543475431478763000,,0.0624674769817,0.0,0.0,0.0,0.0,-3.39312021828e-05
1543475431578991000,541,1543475431578991000,,0.060265815559,0.0,0.0,0.0,0.0,-0.000220295652262
1543475431679269000,542,1543475431679269000,,0.0714758496569,0.0,0.0,0.0,0.0,0.00137887300943
1543475431779518000,543,1543475431779518000,,0.0557637970731,0.0,0.0,0.0,0.0,-0.000699693392254
1543475431879757000,544,1543475431879757000,,0.0755017081358,0.0,0.0,0.0,0.0,0.000280290177061
1543475431980010000,545,1543475431980010000,,0.0915476129567,0.0,0.0,0.0,0.0,-0.00103632040298
1543475432080250000,546,1543475432080250000,,0.0896647260554,0.0,0.0,0.0,0.0,-7.99670492766e-05
1543475432180531000,547,1543475432180531000,,0.0667422145142,0.0,0.0,0.0,0.0,0.000912178219923
1543475432280803000,548,1543475432280803000,,0.0847541963478,0.0,0.0,0.0,0.0,0.000459370150093
1543475432381025000,549,1543475432381025000,,0.0873826518086,0.0,0.0,0.0,0.0,-0.000183208995718
1543475432481275000,550,1543475432481275000,,0.0859516333918,0.0,0.0,0.0,0.0,-0.00115966394224
1543475432581548000,551,1543475432581548000,,0.0534378670361,0.0,0.0,0.0,0.0,0.00146029867678
1543475432681814000,552,1543475432681814000,,0.105717199102,0.0,0.0,0.0,0.0,-0.000277073831554
1543475432782013000,553,1543475432782013000,,0.0839074169939,0.0,0.0,0.0,0.0,-0.000615009363048
1543475432882274000,554,1543475432882274000,,0.0558298133137,0.0,0.0,0.0,0.0,0.00040250115657
1543475432982587000,555,1543475432982587000,,0.101398838549,0.0,0.0,0.0,0.0,-8.8026163368e-05
1543475433082823000,556,1543475433082823000,,0.0585487487807,0.0,0.0,0.0,0.0,0.000423245798596
1543475433183034000,557,1543475433183034000,,0.0841050444866,0.0,0.0,0.0,0.0,0.000377565952121
1543475433283297000,558,1543475433283297000,,0.0685598450848,0.0,0.0,0.0,0.0,-0.00147548080808
1543475433383551000,559,1543475433383551000,,0.0877120027185,0.0,0.0,0.0,0.0,0.00021212229654
1543475433483779000,560,1543475433483779000,,0.0632585112635,0.0,0.0,0.0,0.0,0.000342147736052
1543475433584065000,561,1543475433584065000,,0.0452205032684,0.0,0.0,0.0,0.0,5.52670857137e-05
1543475433684324000,562,1543475433684324000,,0.057928218657,0.0,0.0,0.0,0.0,0.00026537156431
1543475433784585000,563,1543475433784585000,,0.0837036608844,0.0,0.0,0.0,0.0,-0.001532365693
1543475433884828000,564,1543475433884828000,,0.0462842322702,0.0,0.0,0.0,0.0,0.0006035656974
1543475433985051000,565,1543475433985051000,,0.0702715069866,0.0,0.0,0.0,0.0,0.00070841324067
1543475434085349000,566,1543475434085349000,,0.0722625899013,0.0,0.0,0.0,0.0,-0.00106056562753
1543475434185569000,567,1543475434185569000,,0.0785491867642,0.0,0.0,0.0,0.0,0.0013261190487
1543475434285866000,568,1543475434285866000,,0.0707036636099,0.0,0.0,0.0,0.0,-0.000713161201443
1543475434386076000,569,1543475434386076000,,0.0934182015947,0.0,0.0,0.0,0.0,0.000780506940018
1543475434486361000,570,1543475434486361000,,0.0481386185084,0.0,0.0,0.0,0.0,-0.00046451937336
1543475434586578000,571,1543475434586578000,,0.104661043735,0.0,0.0,0.0,0.0,-0.00068969151404
1543475434686815000,572,1543475434686815000,,0.102967433659,0.0,0.0,0.0,0.0,0.00111372624639
1543475434787056000,573,1543475434787056000,,0.0277078355787,0.0,0.0,0.0,0.0,-0.000738057486634
1543475434887301000,574,1543475434887301000,,0.0217711048228,0.0,0.0,0.0,0.0,0.000496145433942
1543475434987587000,575,1543475434987587000,,0.0972711960482,0.0,0.0,0.0,0.0,-5.34037555108e-05
1543475435087797000,576,1543475435087797000,,0.0733640186661,0.0,0.0,0.0,0.0,-0.00050618028114
1543475435188031000,577,1543475435188031000,,0.0407822443613,0.0,0.0,0.0,0.0,0.00107313400071
1543475435288320000,578,1543475435288320000,,0.0713691887638,0.0,0.0,0.0,0.0,0.000618843497768
1543475435388545000,579,1543475435388545000,,0.0713154073105,0.0,0.0,0.0,0.0,-0.00225319459235
1543475435488807000,580,1543475435488807000,,0.0987576514944,0.0,0.0,0.0,0.0,0.00152580668926
1543475435589054000,581,1543475435589054000,,0.069171369977,0.0,0.0,0.0,0.0,-0.00111817847485
1543475435689292000,582,1543475435689292000,,0.0542242705693,0.0,0.0,0.0,0.0,-0.000274956541202
1543475435789509000,583,1543475435789509000,,0.0748334140182,0.0,0.0,0.0,0.0,0.000524470264618
1543475435889777000,584,1543475435889777000,,0.10480422776,0.0,0.0,0.0,0.0,0.000898407009259
1543475435990038000,585,1543475435990038000,,0.0604203467503,0.0,0.0,0.0,0.0,-0.00045107944812
1543475436090282000,586,1543475436090282000,,0.0661030165306,0.0,0.0,0.0,0.0,-0.000363312040393
1543475436190543000,587,1543475436190543000,,0.108653842785,0.0,0.0,0.0,0.0,8.39469572573e-05
1543475436290755000,588,1543475436290755000,,0.0836724461073,0.0,0.0,0.0,0.0,-0.000375472740161
1543475436391043000,589,1543475436391043000,,0.0672390597211,0.0,0.0,0.0,0.0,-0.000323977156587
1543475436491265000,590,1543475436491265000,,0.0138294910778,0.0,0.0,0.0,0.0,0.00229942384392
1543475436591535000,591,1543475436591535000,,0.0776985517101,0.0,0.0,0.0,0.0,-0.00328121250239
1543475436691756000,592,1543475436691756000,,0.066720227393,0.0,0.0,0.0,0.0,0.00039983792005
1543475436792026000,593,1543475436792026000,,0.0776139033728,0.0,0.0,0.0,0.0,0.000677707704626
1543475436892298000,594,1543475436892298000,,0.112158071894,0.0,0.0,0.0,0.0,0.000180427087076
1543475436992516000,595,1543475436992516000,,0.0680840216681,0.0,0.0,0.0,0.0,2.9259651119e-05
1543475437092780000,596,1543475437092780000,,0.0492184043333,0.0,0.0,0.0,0.0,0.00129814283748
1543475437192988000,597,1543475437192988000,,0.0831834849172,0.0,0.0,0.0,0.0,-0.00115617384274
1543475437293219000,598,1543475437293219000,,0.101565116709,0.0,0.0,0.0,0.0,0.00088966257527
1543475437393475000,599,1543475437393475000,,0.0703798214085,0.0,0.0,0.0,0.0,-6.55201608337e-05
1543475437493741000,600,1543475437493741000,,0.0605654051794,0.0,0.0,0.0,0.0,-0.000506021026546
1543475437594018000,601,1543475437594018000,,0.0659551734462,0.0,0.0,0.0,0.0,-0.000660439365434
1543475437694237000,602,1543475437694237000,,0.0914814158318,0.0,0.0,0.0,0.0,-0.000268980051247
1543475437794465000,603,1543475437794465000,,0.0551219660869,0.0,0.0,0.0,0.0,-0.000214842088553
1543475437894720000,604,1543475437894720000,,0.0605163043462,0.0,0.0,0.0,0.0,0.00017215279142
1543475437994968000,605,1543475437994968000,,0.0736866247962,0.0,0.0,0.0,0.0,0.00207842861381
1543475438095246000,606,1543475438095246000,,0.0680496668755,0.0,0.0,0.0,0.0,-0.00184341788782
1543475438195454000,607,1543475438195454000,,0.0615890610097,0.0,0.0,0.0,0.0,-9.44854765994e-05
1543475438295706000,608,1543475438295706000,,0.0594050300356,0.0,0.0,0.0,0.0,0.00188077007493
1543475438395917000,609,1543475438395917000,,0.0770799422072,0.0,0.0,0.0,0.0,-0.00101105904388
1543475438496196000,610,1543475438496196000,,0.114961044387,0.0,0.0,0.0,0.0,-0.000525263618876
1543475438596435000,611,1543475438596435000,,0.0571719019481,0.0,0.0,0.0,0.0,2.10403906776e-05
1543475438696679000,612,1543475438696679000,,0.0480207693933,0.0,0.0,0.0,0.0,0.000252847120633
1543475438796924000,613,1543475438796924000,,0.0649956734379,0.0,0.0,0.0,0.0,0.000449634950612
1543475438897141000,614,1543475438897141000,,0.0835698443576,0.0,0.0,0.0,0.0,-0.000640912427427
1543475438997404000,615,1543475438997404000,,0.0554424184784,0.0,0.0,0.0,0.0,0.00112094109942
1543475439097631000,616,1543475439097631000,,0.0587232053876,0.0,0.0,0.0,0.0,-0.00109275371206
1543475439197910000,617,1543475439197910000,,0.0905166868779,0.0,0.0,0.0,0.0,0.000317469379232
1543475439298166000,618,1543475439298166000,,0.0497066010092,0.0,0.0,0.0,0.0,0.000191382700009
1543475439398392000,619,1543475439398392000,,0.116042292406,0.0,0.0,0.0,0.0,-0.000529519696087
1543475439498635000,620,1543475439498635000,,0.0709269533114,0.0,0.0,0.0,0.0,0.000639271532752
1543475439598870000,621,1543475439598870000,,0.0662442547085,0.0,0.0,0.0,0.0,-0.000684518753111
1543475439699090000,622,1543475439699090000,,0.0680543387344,0.0,0.0,0.0,0.0,0.00179783966263
1543475439799411000,623,1543475439799411000,,0.0842345546989,0.0,0.0,0.0,0.0,-0.00143460856059
1543475439899609000,624,1543475439899609000,,0.0743132267572,0.0,0.0,0.0,0.0,-0.000512549386073
1543475439999860000,625,1543475439999860000,,0.0733058778781,0.0,0.0,0.0,0.0,0.000477028356341
1543475440100062000,626,1543475440100062000,,0.0449148009282,0.0,0.0,0.0,0.0,-0.000519089097293
1543475440200321000,627,1543475440200321000,,0.0405132473174,0.0,0.0,0.0,0.0,0.00284224646235
1543475440300580000,628,1543475440300580000,,0.0917013824411,0.0,0.0,0.0,0.0,-0.00374471522491
1543475440400846000,629,1543475440400846000,,0.107005586583,0.0,0.0,0.0,0.0,0.0022556176908
1543475440501083000,630,1543475440501083000,,0.0366308032639,0.0,0.0,0.0,0.0,-0.000654288885232
1543475440601321000,631,1543475440601321000,,0.0646993484489,0.0,0.0,0.0,0.0,0.00016247472968
