%time,field.header.seq,field.header.stamp,field.header.frame_id,field.pose.position.x,field.pose.position.y,field.pose.position.z,field.pose.orientation.x,field.pose.orientation.y,field.pose.orientation.z,field.pose.orientation.w
1543475343053827000,0,1543475343053827000,/map,1.33491873741,18.5298080444,0.285114407539,0.00177089830825,-0.00880823231617,0.715788610789,0.698259223804
1543475377465127000,1,1543475377465127000,/map,1.34140944481,18.5347499847,0.285444378853,0.00184700158032,-0.00888968027109,0.716112166081,0.697926162113
1543475377565285000,2,1543475377565285000,/map,1.33774852753,18.5300636292,0.282086372375,0.0018089506326,-0.00877570208577,0.715989762093,0.698053275423
1543475377665405000,3,1543475377665405000,/map,1.33993864059,18.5326442719,0.286485791206,0.00181985431204,-0.00881224043799,0.715946674906,0.698096978391
1543475377765557000,4,1543475377765557000,/map,1.33481299877,18.5291309357,0.282873392105,0.00177677966919,-0.00870053904938,0.7159222605,0.698123528177
1543475377865710000,5,1543475377865710000,/map,1.3376377821,18.5332260132,0.283110141754,0.00182280776003,-0.00879556456405,0.715925003254,0.69811940607
1543475377965843000,6,1543475377965843000,/map,1.33408689499,18.5307884216,0.283799886703,0.001902134232,-0.00885479561827,0.715963299525,0.698079170448
1543475378065967000,7,1543475378065967000,/map,1.33935821056,18.5334396362,0.285264492035,0.00181355844788,-0.00877559854188,0.715910480103,0.698134574673
1543475378166117000,8,1543475378166117000,/map,1.3336160183,18.5322971344,0.280443906784,0.00182967062791,-0.00880952913306,0.715940982982,0.698102824367
1543475378266268000,9,1543475378266268000,/map,1.33612275124,18.5346698761,0.288354516029,0.00182260063593,-0.00887346543464,0.715915518022,0.69812814783
1543475378366397000,10,1543475378366397000,/map,1.33506703377,18.5284500122,0.28127849102,0.00181914542745,-0.00877375257877,0.715905101493,0.698140098857
1543475378466568000,11,1543475378466568000,/map,1.33653640747,18.5317802429,0.286488413811,0.00179783854101,-0.0087906449659,0.715894374139,0.698150941713
1543475378566688000,12,1543475378566688000,/map,1.33959543705,18.5299510956,0.28940820694,0.00180538681941,-0.00896398775981,0.716093263685,0.697944715007
1543475378666809000,13,1543475378666809000,/map,1.3356487751,18.5368919373,0.282699108124,0.00176059439637,-0.00880870729864,0.715910937981,0.698133823749
1543475378766960000,14,1543475378766960000,/map,1.33743011951,18.5362148285,0.286909461021,0.00183473724188,-0.0087685310639,0.716013667019,0.698028778235
1543475378867125000,15,1543475378867125000,/map,1.33510112762,18.5316772461,0.280260205269,0.00183084695908,-0.0087277028613,0.715798089145,0.698250363966
1543475378967243000,16,1543475378967243000,/map,1.33913457394,18.5329685211,0.282484769821,0.00180534878992,-0.00878252029012,0.715953771516,0.698090112453
1543475379067373000,17,1543475379067373000,/map,1.33408248425,18.5304698944,0.283438920975,0.00186803765684,-0.00878382888894,0.715821253237,0.698225814618
1543475379167541000,18,1543475379167541000,/map,1.33540856838,18.5346221924,0.281056523323,0.00181864878836,-0.00875171083296,0.715971582608,0.698072197535
1543475379267703000,19,1543475379267703000,/map,1.33770227432,18.5314617157,0.288248062134,0.0017307036853,-0.00893571714863,0.715894734097,0.698148900533
1543475379367846000,20,1543475379367846000,/map,1.33189105988,18.5364093781,0.282952785492,0.00182546951741,-0.00878553840621,0.715927681495,0.698116778802
1543475379467978000,21,1543475379467978000,/map,1.33346617222,18.5321865082,0.28462767601,0.00184321225693,-0.00877511082499,0.715966012668,0.698077552069
1543475379568094000,22,1543475379568094000,/map,1.33863508701,18.5348529816,0.280277013779,0.00181587404499,-0.00881869432205,0.71590720784,0.698137381176
1543475379668259000,23,1543475379668259000,/map,1.3329385519,18.5304737091,0.287220239639,0.00176331954377,-0.00884308056857,0.715896196242,0.69814849913
1543475379768449000,24,1543475379768449000,/map,1.33611214161,18.5291938782,0.284450650215,0.00182029330752,-0.00883775842548,0.715975033314,0.69806756996
1543475379868556000,25,1543475379868556000,/map,1.33740246296,18.536075592,0.279693961143,0.00183973153938,-0.00876075319473,0.715864018879,0.698182333682
1543475379968707000,26,1543475379968707000,/map,1.33572149277,18.5298118591,0.287695407867,0.00174554942035,-0.00886740159299,0.715887464119,0.698157189295
1543475380068863000,27,1543475380068863000,/map,1.33612537384,18.5365047455,0.282682657242,0.00185700949222,-0.00878581097735,0.715948507429,0.698095334286
1543475380169015000,28,1543475380169015000,/map,1.33727359772,18.5301380157,0.287122011185,0.00178130221028,-0.00885969580056,0.715899373024,0.69814498527
1543475380269180000,29,1543475380269180000,/map,1.33675539494,18.5322799683,0.280526041985,0.00179498296314,-0.00878683016001,0.715960102585,0.698083591813
1543475380369333000,30,1543475380369333000,/map,1.33524656296,18.5313644409,0.286949276924,0.00177480046024,-0.00882828003199,0.715946519953,0.698097050648
1543475380469465000,31,1543475380469465000,/map,1.33554792404,18.5354194641,0.28314614296,0.00184764547249,-0.00887513129116,0.715896269719,0.698147799003
1543475380569623000,32,1543475380569623000,/map,1.33889615536,18.5302371979,0.288093209267,0.00178719449147,-0.00887899571126,0.71592324893,0.698120241085
1543475380669759000,33,1543475380669759000,/map,1.33626174927,18.5339698792,0.283468723297,0.00182596086442,-0.00880668861911,0.715900384079,0.698144503794
1543475380769900000,34,1543475380769900000,/map,1.33625364304,18.5290718079,0.283955931664,0.00182894104052,-0.00880504651288,0.715910472264,0.698134171798
1543475380870054000,35,1543475380870054000,/map,1.33676445484,18.5336799622,0.286916255951,0.0016769544505,-0.00884876356762,0.715909505519,0.698134992043
1543475380970180000,36,1543475380970180000,/map,1.3367729187,18.5366458893,0.278990745544,0.00195526729324,-0.00874379277234,0.715957373314,0.698086500812
1543475381070331000,37,1543475381070331000,/map,1.33649480343,18.5327949524,0.287769556046,0.00177561630274,-0.00891139067714,0.715937513857,0.698105228855
1543475381170497000,38,1543475381170497000,/map,1.3360170126,18.5332946777,0.28192448616,0.0018475553489,-0.0087876628835,0.715929833559,0.698114486986
1543475381270636000,39,1543475381270636000,/map,1.34225594997,18.5283794403,0.283820271492,0.00181887334994,-0.00876824659613,0.71594594894,0.698098279433
1543475381370793000,40,1543475381370793000,/map,1.33650398254,18.5319099426,0.283308506012,0.00179123206774,-0.00879513220236,0.715928018528,0.698116401056
1543475381470957000,41,1543475381470957000,/map,1.33875763416,18.5313587189,0.28743493557,0.00182174098594,-0.0088186234386,0.715932309405,0.69811162538
1543475381571129000,42,1543475381571129000,/map,1.3360388279,18.5268173218,0.284083843231,0.00171031536282,-0.00889659317481,0.715936816922,0.698106295364
1543475381671243000,43,1543475381671243000,/map,1.33855009079,18.5327682495,0.280621170998,0.00183846216231,-0.00878761698274,0.715946733778,0.698097179652
1543475381771436000,44,1543475381771436000,/map,1.33369970322,18.5323562622,0.285980701447,0.00173667507886,-0.00888155109819,0.715934405877,0.698108894437
1543475381871543000,45,1543475381871543000,/map,1.33772230148,18.5371074677,0.283883452415,0.00177952766793,-0.00886779903627,0.71594207849,0.698101092729
1543475381971704000,46,1543475381971704000,/map,1.33614742756,18.5308189392,0.281144738197,0.00189933547745,-0.0087076098718,0.715947170843,0.698097570987
1543475382071855000,47,1543475382071855000,/map,1.33820569515,18.5377197266,0.286532402039,0.00181386557044,-0.00883902233171,0.715944581445,0.698098802374
1543475382172006000,48,1543475382172006000,/map,1.3377789259,18.5328636169,0.282183170319,0.00183177438166,-0.00880189251495,0.715932545452,0.698111568199
1543475382272179000,49,1543475382272179000,/map,1.336196661,18.5385227203,0.284001231194,0.00181606558832,-0.00877096913795,0.715921567217,0.698123256739
1543475382372364000,50,1543475382372364000,/map,1.33447432518,18.5307064056,0.285489439964,0.00175470039018,-0.00884738829348,0.715890272419,0.69815454063
1543475382472505000,51,1543475382472505000,/map,1.33834803104,18.5331249237,0.284726381302,0.00181337226266,-0.00887500578138,0.715922645245,0.698120843392
1543475382572650000,52,1543475382572650000,/map,1.33297693729,18.5320396423,0.286417961121,0.00180615822,-0.00882290727362,0.715919334992,0.698124917106
1543475382672799000,53,1543475382672799000,/map,1.34104371071,18.5316257477,0.28658425808,0.00174793453433,-0.00885738170696,0.71592996442,0.698113728241
1543475382772980000,54,1543475382772980000,/map,1.33719325066,18.5237560272,0.285781979561,0.00172609346819,-0.00885390838761,0.715925798501,0.698118098855
1543475382873116000,55,1543475382873116000,/map,1.33608114719,18.5309028625,0.283755660057,0.00175733848548,-0.00880853954193,0.715942108062,0.698101868853
1543475382973286000,56,1543475382973286000,/map,1.34078371525,18.5277957916,0.284254670143,0.00186442992974,-0.00889686735899,0.715910377476,0.698133011019
1543475383073434000,57,1543475383073434000,/map,1.33750975132,18.5335941315,0.283980727196,0.00177439931107,-0.00877418865687,0.71591486325,0.698130198242
1543475383173590000,58,1543475383173590000,/map,1.33866345882,18.5301818848,0.286203026772,0.00180961681903,-0.008870357947,0.715949516918,0.69809335426
1543475383273766000,59,1543475383273766000,/map,1.33612203598,18.5342979431,0.282394051552,0.00185735993354,-0.00878031446209,0.71591449654,0.698130281492
1543475383373920000,60,1543475383373920000,/map,1.33976447582,18.5302524567,0.287778377533,0.00168529511696,-0.00884393619247,0.71593330479,0.698110627097
1543475383474041000,61,1543475383474041000,/map,1.33740377426,18.533454895,0.282495975494,0.00184126591747,-0.00880525431913,0.715909126604,0.698135516702
1543475383574227000,62,1543475383574227000,/map,1.33428394794,18.5372562408,0.278052687645,0.00183900164323,-0.00877367513147,0.71598905974,0.698053942779
1543475383674386000,63,1543475383674386000,/map,1.33508479595,18.5278320312,0.284744381905,0.00180438004758,-0.00886538373415,0.71592727477,0.698116241341
1543475383774522000,64,1543475383774522000,/map,1.33927083015,18.5322113037,0.286370873451,0.00174262585398,-0.00888302441173,0.715934606962,0.698108654642
1543475383874688000,65,1543475383874688000,/map,1.33511853218,18.5294895172,0.283408045769,0.00180422584942,-0.0088059817425,0.715921609996,0.698122802805
1543475383974849000,66,1543475383974849000,/map,1.3414645195,18.5311908722,0.286602377892,0.00178563702579,-0.00890746545875,0.715897872754,0.698145904769
1543475384075064000,67,1543475384075064000,/map,1.33701503277,18.5336437225,0.283468723297,0.00177407564512,-0.00882922464983,0.715925064454,0.698119043956
1543475384175162000,68,1543475384175162000,/map,1.34017980099,18.5317630768,0.283702731133,0.00190049049458,-0.00875925778351,0.71592598249,0.698118651187
1543475384275334000,69,1543475384275334000,/map,1.33470773697,18.532907486,0.285452723503,0.00166690402587,-0.00879866880649,0.715907740076,0.698137459644
1543475384375485000,70,1543475384375485000,/map,1.34162211418,18.5290699005,0.282876014709,0.00185273814923,-0.00885455444825,0.715937634138,0.698105628291
1543475384475672000,71,1543475384475672000,/map,1.33746552467,18.5363121033,0.285013914108,0.00182594371492,-0.00877513395999,0.715921852255,0.69812288633
1543475384575796000,72,1543475384575796000,/map,1.33528530598,18.5322189331,0.286324739456,0.00168269358314,-0.0088211013535,0.715905370468,0.698139568603
1543475384675977000,73,1543475384675977000,/map,1.33807599545,18.5343894958,0.281609773636,0.0018935050041,-0.00888883887402,0.716046857052,0.69799305275
1543475384776107000,74,1543475384776107000,/map,1.33759045601,18.530330658,0.284502029419,0.00177031303764,-0.00880780265535,0.715833912541,0.698212788669
1543475384876261000,75,1543475384876261000,/map,1.33436203003,18.5326576233,0.286422014236,0.00188925497124,-0.00894072797125,0.716001729406,0.698038693474
1543475384976428000,76,1543475384976428000,/map,1.33947515488,18.5282287598,0.279735565186,0.00182590965513,-0.00876609619264,0.715935066164,0.698109448904
1543475385076592000,77,1543475385076592000,/map,1.33748686314,18.5301876068,0.282416701317,0.00185491131618,-0.00880155864184,0.715964773274,0.698078459273
1543475385176802000,78,1543475385176802000,/map,1.33486115932,18.5405731201,0.28087413311,0.00173013529193,-0.00883317658865,0.71591974883,0.698124555404
1543475385276946000,79,1543475385276946000,/map,1.33893787861,18.5344047546,0.279782652855,0.00186349893473,-0.00876204886304,0.715919661178,0.698125198378
1543475385377093000,80,1543475385377093000,/map,1.33167648315,18.5316543579,0.278979301453,0.00184157568512,-0.00871790098242,0.715962495488,0.698081880481
1543475385477255000,81,1543475385477255000,/map,1.33994674683,18.5321216583,0.281784057617,0.00183876232197,-0.00877904026024,0.715930010282,0.698114437455
1543475385577426000,82,1543475385577426000,/map,1.3330322504,18.5380516052,0.2799077034,0.00180077067396,-0.00877166404109,0.715921018895,0.698123849929
1543475385677551000,83,1543475385677551000,/map,1.33725094795,18.5337905884,0.282236933708,0.00187412133253,-0.00876938606176,0.715946341674,0.698097716213
1543475385777728000,84,1543475385777728000,/map,1.34178066254,18.5276260376,0.285253882408,0.00179653575509,-0.00882400235408,0.715908814115,0.698135716973
1543475385877895000,85,1543475385877895000,/map,1.3361928463,18.5323925018,0.283177614212,0.00176325349434,-0.00876773015889,0.715944663825,0.698099746588
1543475385978099000,86,1543475385978099000,/map,1.34110438824,18.5322418213,0.28501701355,0.00180120947628,-0.00888272956057,0.715947544395,0.698095241664
1543475386078222000,87,1543475386078222000,/map,1.33702659607,18.5356140137,0.282869100571,0.00177520993134,-0.00886689880972,0.715960430968,0.69808229316
1543475386178416000,88,1543475386178416000,/map,1.34118509293,18.5296669006,0.282708287239,0.0018564790923,-0.00873052146023,0.715916642394,0.698128707778
1543475386278561000,89,1543475386278561000,/map,1.3407086134,18.5347919464,0.281721591949,0.0018246123708,-0.00886017391628,0.715955730076,0.698087072419
1543475386378741000,90,1543475386378741000,/map,1.33399438858,18.5321292877,0.285084366798,0.00174405501321,-0.00874040459403,0.715895172211,0.698150890571
1543475386478909000,91,1543475386478909000,/map,1.33839786053,18.5290336609,0.2785602808,0.00190937870733,-0.00881345913253,0.715929855482,0.698113972959
1543475386579031000,92,1543475386579031000,/map,1.33603787422,18.5368556976,0.283994436264,0.00179815662867,-0.0087777555452,0.715924523708,0.698120185923
1543475386679210000,93,1543475386679210000,/map,1.33686947823,18.5301113129,0.282297849655,0.00181917150335,-0.00883665868328,0.715921217666,0.698122778725
1543475386779388000,94,1543475386779388000,/map,1.33247339725,18.5330276489,0.289264798164,0.00173209062997,-0.0088701612632,0.715928032015,0.698115587189
1543475386879575000,95,1543475386879575000,/map,1.33639204502,18.5293560028,0.284290909767,0.00178829117756,-0.00879916915389,0.715966496077,0.698076896289
1543475386979747000,96,1543475386979747000,/map,1.33368110657,18.5326766968,0.283131480217,0.00191112704168,-0.00880329708642,0.715853322291,0.698192574093
1543475387079914000,97,1543475387079914000,/map,1.3319811821,18.5298423767,0.289355039597,0.00164766303036,-0.00889459419878,0.715950830931,0.698092099289
1543475387180041000,98,1543475387180041000,/map,1.33642649651,18.5347709656,0.282667517662,0.00186557906904,-0.0087897555397,0.715908297773,0.698136497393
1543475387280185000,99,1543475387280185000,/map,1.33667600155,18.5294685364,0.286396861076,0.0016813630843,-0.0088914357301,0.71587198385,0.698172914204
1543475387380389000,100,1543475387380389000,/map,1.33312857151,18.5320320129,0.280913114548,0.00188692422856,-0.0086973694573,0.715920416798,0.69812516936
1543475387480504000,101,1543475387480504000,/map,1.34050822258,18.5344238281,0.286228895187,0.00182932021534,-0.00887659772514,0.715936368573,0.698106708
1543475387580729000,102,1543475387580729000,/map,1.33720672131,18.5330696106,0.281602859497,0.0018074317539,-0.0087837966523,0.715920699397,0.698124007811
1543475387680908000,103,1543475387680908000,/map,1.33683753014,18.5272941589,0.286694049835,0.00186305757127,-0.00885508753585,0.715962681825,0.698079905652
1543475387781033000,104,1543475387781033000,/map,1.33931601048,18.5352973938,0.284616112709,0.00183104947427,-0.00880812220293,0.7159425984,0.698101181804
1543475387881170000,105,1543475387881170000,/map,1.33817243576,18.5296268463,0.282270073891,0.00180810375672,-0.00880317291108,0.715955823454,0.698087740739
1543475387981348000,106,1543475387981348000,/map,1.3382846117,18.532749176,0.285677075386,0.00180617617694,-0.00885592666322,0.715927253187,0.698116378861
1543475388081549000,107,1543475388081549000,/map,1.33502101898,18.5312862396,0.279259562492,0.00186616048652,-0.00874881973041,0.715971601187,0.698072089323
1543475388181707000,108,1543475388181707000,/map,1.34060132504,18.5354576111,0.284844756126,0.00182846275582,-0.00883435809897,0.715966786343,0.69807605008
1543475388281877000,109,1543475388281877000,/map,1.33614361286,18.5324707031,0.283007025719,0.00185512893579,-0.00874861025583,0.715928822217,0.698115994542
1543475388382042000,110,1543475388382042000,/map,1.33560609818,18.5310630798,0.289880275726,0.00174973790275,-0.00872604647852,0.715923193176,0.698122321663
1543475388482259000,111,1543475388482259000,/map,1.33980810642,18.531961441,0.282366275787,0.00184305346382,-0.00878945517038,0.715942779831,0.698101199426
1543475388582391000,112,1543475388582391000,/map,1.33543920517,18.5320034027,0.287048697472,0.00180148922917,-0.00887558235715,0.715954503871,0.698088194328
1543475388682521000,113,1543475388682521000,/map,1.33639276028,18.5347385406,0.282085180283,0.00179426193494,-0.00878488976495,0.715967847677,0.698075674572
1543475388782726000,114,1543475388782726000,/map,1.34018611908,18.5282211304,0.284819722176,0.00186533432642,-0.00877950577732,0.715921173003,0.698123423796
1543475388882894000,115,1543475388882894000,/map,1.33473718166,18.5312461853,0.286800980568,0.00176696916111,-0.00886032478535,0.715943155718,0.698100114773
1543475388983042000,116,1543475388983042000,/map,1.33817636967,18.5265159607,0.288034200668,0.00174823946789,-0.00889738838527,0.715920533209,0.69812289052
1543475389083190000,117,1543475389083190000,/map,1.33822226524,18.5318279266,0.284507393837,0.00181149068063,-0.00880681180652,0.715932771249,0.698111327526
1543475389183402000,118,1543475389183402000,/map,1.33889508247,18.5348567963,0.281482100487,0.00178304735017,-0.00880979746012,0.715935173048,0.69810889996
1543475389283532000,119,1543475389283532000,/map,1.33452022076,18.530216217,0.283157467842,0.00187902329506,-0.00869803806842,0.715930702488,0.698114634312
1543475389383729000,120,1543475389383729000,/map,1.33935320377,18.5303668976,0.282680630684,0.00181094733281,-0.00883558269585,0.715920990085,0.698123047108
1543475389483904000,121,1543475389483904000,/map,1.33449864388,18.5324058533,0.285139560699,0.00182856108451,-0.00872702683398,0.715917839285,0.698127597765
1543475389584040000,122,1543475389584040000,/map,1.34003376961,18.5310554504,0.286491990089,0.00168757366587,-0.00891939864514,0.715915298319,0.698128127248
1543475389684225000,123,1543475389684225000,/map,1.33294308186,18.5302200317,0.281180739403,0.0018670534699,-0.00880530444815,0.715918469828,0.698125866363
1543475389784403000,124,1543475389784403000,/map,1.33496320248,18.5362319946,0.28615128994,0.00180208507131,-0.00884747666176,0.715923167961,0.698120686001
1543475389884570000,125,1543475389884570000,/map,1.33231770992,18.5319690704,0.281111240387,0.00179968286267,-0.0087466900373,0.715904472838,0.69814113353
1543475389984767000,126,1543475389984767000,/map,1.33815002441,18.5340957642,0.284202575684,0.00189205346046,-0.00877126394346,0.715913183766,0.698131648311
1543475390084885000,127,1543475390084885000,/map,1.33764481544,18.5295562744,0.285728931427,0.00178190010437,-0.00889282153009,0.715947415428,0.698095294998
1543475390185095000,128,1543475390185095000,/map,1.33487761021,18.5364093781,0.282761931419,0.00183602997511,-0.00871994586485,0.715905205673,0.698140621958
1543475390285264000,129,1543475390285264000,/map,1.33821356297,18.5312652588,0.284216284752,0.00181421306617,-0.00882144201916,0.71594173805,0.698101939913
1543475390385424000,130,1543475390385424000,/map,1.33759737015,18.535993576,0.283789753914,0.00183396302282,-0.00891389561342,0.715968915376,0.698072840941
1543475390485565000,131,1543475390485565000,/map,1.33781862259,18.5297718048,0.279271006584,0.00191832072906,-0.00874048323243,0.715931245664,0.698113440267
1543475390585779000,132,1543475390585779000,/map,1.33177757263,18.5317993164,0.285769581795,0.00181124210549,-0.00878712700369,0.715934414273,0.698109891249
1543475390685960000,133,1543475390685960000,/map,1.33773243427,18.5287971497,0.284907341003,0.00171544434845,-0.00885224121578,0.715919290965,0.698124819713
1543475390786103000,134,1543475390786103000,/map,1.33557808399,18.5317993164,0.282844185829,0.00190903043754,-0.00878110978573,0.715913613348,0.698131037798
1543475390886319000,135,1543475390886319000,/map,1.33318269253,18.5328407288,0.288900971413,0.00180053320213,-0.00895080303849,0.716050057294,0.697989223881
1543475390986459000,136,1543475390986459000,/map,1.33962154388,18.5326862335,0.283198475838,0.0018594451295,-0.00876398758139,0.715939577451,0.698104760351
1543475391086673000,137,1543475391086673000,/map,1.33221769333,18.5321750641,0.285673618317,0.00180318265955,-0.00887945492652,0.715917975836,0.698125601656
1543475391186789000,138,1543475391186789000,/map,1.33604466915,18.5324935913,0.280612945557,0.00183293230415,-0.00878856767711,0.715958810046,0.698084796965
1543475391286983000,139,1543475391286983000,/map,1.33775949478,18.5255031586,0.28318810463,0.00185064373285,-0.00873297170061,0.71591780713,0.69812749821
1543475391387133000,140,1543475391387133000,/map,1.34071612358,18.5313034058,0.280897498131,0.00190983237448,-0.00876967093006,0.715894623677,0.698150652225
1543475391487294000,141,1543475391487294000,/map,1.33754312992,18.5297088623,0.284316897392,0.00181074672971,-0.00880824422052,0.715933245439,0.698110825089
1543475391587482000,142,1543475391587482000,/map,1.34043383598,18.5352058411,0.282835364342,0.00177590719252,-0.00880446531242,0.715956555723,0.698087056077
1543475391687723000,143,1543475391687723000,/map,1.34012842178,18.5303211212,0.283048391342,0.00182860094623,-0.00884259108676,0.715940778097,0.69810261929
1543475391787837000,144,1543475391787837000,/map,1.33348023891,18.53399086,0.286378502846,0.0017167035755,-0.00880367209154,0.715898407713,0.698146845671
1543475391887998000,145,1543475391887998000,/map,1.33765590191,18.5310935974,0.283095121384,0.00187297624696,-0.00872782071748,0.715931830804,0.698113121741
1543475391988193000,146,1543475391988193000,/map,1.3423320055,18.5285186768,0.282097101212,0.001965385294,-0.00861642435527,0.715961001589,0.698084334945
1543475392088334000,147,1543475392088334000,/map,1.33642578125,18.5344829559,0.284121990204,0.00173181628243,-0.00882077707384,0.715949022212,0.698094687201
1543475392188537000,148,1543475392188537000,/map,1.33796453476,18.5286331177,0.283837556839,0.0018317996121,-0.00884195093839,0.715913566126,0.698130525224
1543475392288726000,149,1543475392288726000,/map,1.33654880524,18.5332069397,0.285308480263,0.0017976334508,-0.00877696574877,0.715934724499,0.698109736104
1543475392388857000,150,1543475392388857000,/map,1.3325792551,18.5294647217,0.282747149467,0.00181110241916,-0.00885798995019,0.715908834405,0.698135228121
1543475392489065000,151,1543475392489065000,/map,1.33837962151,18.5319194794,0.285778641701,0.00184546263454,-0.00881750904848,0.715940094748,0.698103592982
1543475392589217000,152,1543475392589217000,/map,1.33310306072,18.5268688202,0.285611510277,0.00176553025133,-0.00890121142387,0.715932745467,0.69811027446
1543475392689393000,153,1543475392689393000,/map,1.33925354481,18.5343933105,0.284443259239,0.00184598854605,-0.00883202098813,0.715933564966,0.698110104702
1543475392789560000,154,1543475392789560000,/map,1.33341503143,18.5323123932,0.284382462502,0.00177968559926,-0.00884157470128,0.715943780115,0.698099679839
1543475392889742000,155,1543475392889742000,/map,1.34042215347,18.5311260223,0.282107710838,0.00189891723304,-0.00876730648069,0.715926309349,0.698118219239
1543475392989943000,156,1543475392989943000,/map,1.33508110046,18.5309276581,0.286937117577,0.00182097821336,-0.00889288032469,0.715942708738,0.698100020428
1543475393090075000,157,1543475393090075000,/map,1.33884906769,18.5336017609,0.283710956573,0.00174020567999,-0.00890308782739,0.715911602359,0.698131996344
1543475393190282000,158,1543475393190282000,/map,1.33468711376,18.5290203094,0.284092187881,0.00183331971898,-0.00867514566111,0.716028427577,0.698014807642
1543475393290470000,159,1543475393290470000,/map,1.34093856812,18.5337657928,0.283824324608,0.001900504113,-0.00883060030786,0.715917423873,0.698126529203
1543475393390622000,160,1543475393390622000,/map,1.33545994759,18.5308074951,0.285474300385,0.00182706065675,-0.0088895068161,0.71595367664,0.698088799096
1543475393490816000,161,1543475393490816000,/map,1.33751165867,18.5365409851,0.285001516342,0.00185128081863,-0.00882028502035,0.71591297123,0.698131357952
1543475393590992000,162,1543475393590992000,/map,1.33374619484,18.5305252075,0.287475466728,0.00173192877556,-0.00887732246963,0.715920290931,0.698123435075
1543475393691202000,163,1543475393691202000,/map,1.33712089062,18.5346832275,0.283786892891,0.00181376388912,-0.00880395242432,0.715943987485,0.698099854939
1543475393791325000,164,1543475393791325000,/map,1.33357787132,18.5317382812,0.280141592026,0.00189808839606,-0.00879094095425,0.71591334682,0.698131217224
1543475393891522000,165,1543475393891522000,/map,1.33701694012,18.5306339264,0.287170290947,0.00165756485695,-0.00883529395417,0.715974565365,0.698068486476
1543475393991683000,166,1543475393991683000,/map,1.3397026062,18.5284423828,0.280974030495,0.00185755143492,-0.00882474584356,0.71595621356,0.698086938446
1543475394091854000,167,1543475394091854000,/map,1.33587360382,18.5371227264,0.284157276154,0.00185952034288,-0.00882405507602,0.715933787056,0.698109941762
1543475394192030000,168,1543475394192030000,/map,1.34136807919,18.5310935974,0.284749507904,0.00181011157502,-0.0088268071948,0.715961107325,0.698082017939
1543475394292216000,169,1543475394292216000,/map,1.34047424793,18.5343170166,0.283363342285,0.00177609589297,-0.00884334827934,0.715978353331,0.698064207817
1543475394392392000,170,1543475394392392000,/map,1.33451676369,18.5276355743,0.288633108139,0.00174794098494,-0.00888943681946,0.715930139685,0.69811314105
1543475394492558000,171,1543475394492558000,/map,1.33461129665,18.5286388397,0.281319260597,0.00183808753393,-0.00874700342963,0.715922427375,0.698122617702
1543475394592751000,172,1543475394592751000,/map,1.34037053585,18.5304470062,0.287241697311,0.00177804291727,-0.00887328288497,0.715969179193,0.698073232447
1543475394692913000,173,1543475394692913000,/map,1.33449482918,18.5304145813,0.283504366875,0.00181331982759,-0.00877617657009,0.715952117515,0.698091867895
1543475394793063000,174,1543475394793063000,/map,1.34377539158,18.5310955048,0.283906459808,0.00186194280588,-0.0088398641451,0.7159818865,0.698060404388
1543475394893286000,175,1543475394893286000,/map,1.33556091785,18.5299930573,0.285206198692,0.00177433028045,-0.00879121650462,0.71591906748,0.698125672843
1543475394993443000,176,1543475394993443000,/map,1.34018337727,18.5319442749,0.281720280647,0.00183716910507,-0.00886872637233,0.715958910277,0.698083669267
1543475395093645000,177,1543475395093645000,/map,1.33542108536,18.5312614441,0.290132522583,0.00171598149861,-0.00888646507154,0.715956198273,0.698086533533
1543475395193769000,178,1543475395193769000,/map,1.33597826958,18.5298919678,0.283770084381,0.00174415057289,-0.00877638123877,0.71596820332,0.698075543838
1543475395293961000,179,1543475395293961000,/map,1.34324061871,18.5336265564,0.2820956707,0.00187125747492,-0.00878226893839,0.715877573745,0.698168081165
1543475395394169000,180,1543475395394169000,/map,1.33715057373,18.530374527,0.282915234566,0.00181306579984,-0.00888420599757,0.7159382532,0.698104720856
1543475395494344000,181,1543475395494344000,/map,1.33916950226,18.5339775085,0.287930369377,0.00169447341139,-0.00887079247227,0.71588937777,0.698155309796
1543475395594556000,182,1543475395594556000,/map,1.33980107307,18.5324039459,0.283743262291,0.00189334262472,-0.00879042963885,0.715991583487,0.69805099812
1543475395694710000,183,1543475395694710000,/map,1.33197104931,18.533493042,0.285849809647,0.00178552397664,-0.00885166146921,0.715913403341,0.69813068899
1543475395794856000,184,1543475395794856000,/map,1.33977532387,18.5354633331,0.28306055069,0.00185158839692,-0.00878366432715,0.715949403178,0.69809445704
1543475395895075000,185,1543475395895075000,/map,1.33701956272,18.528131485,0.283021450043,0.00176359697399,-0.00878302104653,0.715937457909,0.698106943548
1543475395995230000,186,1543475395995230000,/map,1.33961308002,18.5361881256,0.284698724747,0.00183421200681,-0.00884096667813,0.715980802188,0.69806157599
1543475396095416000,187,1543475396095416000,/map,1.33664226532,18.5298614502,0.287106513977,0.00178943045043,-0.00881655654392,0.715932084357,0.698111965847
1543475396195591000,188,1543475396195591000,/map,1.33861768246,18.5345668793,0.285455942154,0.00186179693984,-0.00885576050754,0.715976709047,0.69806551363
1543475396295788000,189,1543475396295788000,/map,1.33474266529,18.5310535431,0.285199046135,0.00178824517869,-0.00880635415539,0.715896010032,0.698149090901
1543475396395950000,190,1543475396395950000,/map,1.33583676815,18.5359840393,0.287853002548,0.00175831607386,-0.00887789678323,0.715978995129,0.698063156031
1543475396496109000,191,1543475396496109000,/map,1.34108388424,18.5305519104,0.28549695015,0.0018274121246,-0.00889270192954,0.715949493739,0.698093047403
1543475396596339000,192,1543475396596339000,/map,1.33570086956,18.5325489044,0.283741593361,0.00185072806899,-0.00871211900782,0.715929101716,0.698116175937
1543475396696514000,193,1543475396696514000,/map,1.3412270546,18.5357341766,0.286361813545,0.0017964083235,-0.00889398264414,0.715963807711,0.69807843115
1543475396796677000,194,1543475396796677000,/map,1.33289480209,18.5297718048,0.283646583557,0.00176223030707,-0.00877463513681,0.715939318838,0.69810514399
1543475396896877000,195,1543475396896877000,/map,1.33784580231,18.5298881531,0.282664656639,0.00190310679239,-0.00880563223776,0.715895647745,0.698149167847
1543475396997050000,196,1543475396997050000,/map,1.33518564701,18.5304203033,0.288000702858,0.0017364696494,-0.00886883484494,0.715932338517,0.698111176753
1543475397097198000,197,1543475397097198000,/map,1.33851420879,18.5297546387,0.283190488815,0.0017776699554,-0.00878252084039,0.715950549917,0.6980934875
1543475397197382000,198,1543475397197382000,/map,1.333507061,18.5294876099,0.283432722092,0.00182040428256,-0.00886371506241,0.715912687509,0.698131180042
1543475397297583000,199,1543475397297583000,/map,1.33845937252,18.533449173,0.280798077583,0.00184891931437,-0.00872159635754,0.715950784322,0.698093825845
1543475397397759000,200,1543475397397759000,/map,1.33742940426,18.5300521851,0.284914255142,0.00179041159058,-0.00887325796585,0.715928108056,0.698115322719
1543475397497934000,201,1543475397497934000,/map,1.33191406727,18.5295886993,0.286900401115,0.00182918079651,-0.00889139148173,0.715896084824,0.698147830326
1543475397598107000,202,1543475397598107000,/map,1.33673107624,18.5339603424,0.284123659134,0.00175222486737,-0.00880189131525,0.715935578904,0.698108661511
1543475397698309000,203,1543475397698309000,/map,1.33467924595,18.5305137634,0.285137414932,0.00186875411781,-0.0087533889348,0.715944304032,0.698100021103
1543475397798485000,204,1543475397798485000,/map,1.34026360512,18.5354957581,0.285418152809,0.00181663162394,-0.00889441324236,0.715986890171,0.698054698692
1543475397898657000,205,1543475397898657000,/map,1.33604192734,18.5332622528,0.282005906105,0.00187231088428,-0.00872294233281,0.715933055573,0.698111928466
1543475397998831000,206,1543475397998831000,/map,1.33737933636,18.5282592773,0.288757801056,0.00173689186307,-0.00890451390683,0.715991262966,0.698050287726
1543475398099009000,207,1543475398099009000,/map,1.33470785618,18.5336284637,0.282699346542,0.0017982018827,-0.00874100834324,0.715941013748,0.6981037359
1543475398199198000,208,1543475398199198000,/map,1.33592402935,18.5314941406,0.285058617592,0.00189126027337,-0.00876988409642,0.715954501994,0.698089294676
1543475398299401000,209,1543475398299401000,/map,1.33799910545,18.5257167816,0.288469195366,0.00181505666087,-0.00885689839036,0.71595604326,0.698086817695
1543475398399568000,210,1543475398399568000,/map,1.33665001392,18.5316524506,0.280890822411,0.00183800214851,-0.00873596233087,0.715948285635,0.69809623764
1543475398499723000,211,1543475398499723000,/map,1.33975446224,18.5325260162,0.288959503174,0.0017766315634,-0.00890551936831,0.71593170426,0.698111259142
1543475398599922000,212,1543475398599922000,/map,1.33323192596,18.5326213837,0.285474538803,0.00176990214761,-0.00877344806632,0.715905073836,0.698140257621
1543475398700075000,213,1543475398700075000,/map,1.33899211884,18.5338439941,0.286169409752,0.00168381843482,-0.00888973150801,0.71590561925,0.698138440251
1543475398800273000,214,1543475398800273000,/map,1.33569455147,18.534866333,0.282378435135,0.00181885962184,-0.00882716091941,0.715951259577,0.698092090551
1543475398900433000,215,1543475398900433000,/map,1.33397531509,18.5278625488,0.286633253098,0.00168289546653,-0.00888578037409,0.715927891164,0.69811565333
1543475399000665000,216,1543475399000665000,/map,1.34011149406,18.5324020386,0.284304618835,0.00180323693098,-0.00886460434582,0.715941543892,0.698101620723
1543475399100848000,217,1543475399100848000,/map,1.33803403378,18.5281581879,0.288038134575,0.00162384457612,-0.00893813359762,0.715909120702,0.698134373736
1543475399200988000,218,1543475399200988000,/map,1.33483076096,18.5328845978,0.283218622208,0.00182790554751,-0.00878121218082,0.715945413169,0.698098642339
1543475399301187000,219,1543475399301187000,/map,1.33603072166,18.5266170502,0.285860538483,0.00178720795416,-0.00880343639706,0.715922292479,0.698122178796
1543475399401330000,220,1543475399401330000,/map,1.33540463448,18.5340881348,0.282775402069,0.00178140460411,-0.00880826111231,0.715956910578,0.698086630247
1543475399501541000,221,1543475399501541000,/map,1.33572220802,18.5289134979,0.285049796104,0.0018005604708,-0.00886471720111,0.71595165494,0.698091256613
1543475399601708000,222,1543475399601708000,/map,1.33846271038,18.5356807709,0.28667986393,0.00175913935325,-0.00888545133249,0.715938331446,0.698104762733
1543475399701904000,223,1543475399701904000,/map,1.33243227005,18.5298023224,0.284252166748,0.00170516821472,-0.00883048709761,0.715927582985,0.69811661692
1543475399802099000,224,1543475399802099000,/map,1.34024250507,18.5299739838,0.28403866291,0.00177281942969,-0.00886914813333,0.715961775787,0.698080891398
1543475399902269000,225,1543475399902269000,/map,1.33534860611,18.5330848694,0.283605098724,0.00176605963573,-0.00878549236142,0.715938838644,0.698105490222
1543475400002460000,226,1543475400002460000,/map,1.3394600153,18.5333175659,0.288361668587,0.00182836124845,-0.00889158159978,0.71599962528,0.698041641645
1543475400102644000,227,1543475400102644000,/map,1.33476257324,18.5348072052,0.280306816101,0.00183902296946,-0.00877234888387,0.715907801353,0.698137295846
1543475400202788000,228,1543475400202788000,/map,1.3384898901,18.5312747955,0.284906506538,0.00186154206051,-0.008827269218,0.715946090663,0.69809727778
1543475400303007000,229,1543475400303007000,/map,1.33460354805,18.5319652557,0.284577250481,0.00171440295584,-0.00893982082493,0.715873112174,0.698171059049
1543475400403211000,230,1543475400403211000,/map,1.34026682377,18.5318927765,0.289291381836,0.0017616368429,-0.00892341303019,0.716022152919,0.69801829909
1543475400503417000,231,1543475400503417000,/map,1.33565461636,18.5311164856,0.282827734947,0.00177920814852,-0.00881343767377,0.715963526299,0.698079785371
1543475400603547000,232,1543475400603547000,/map,1.34265446663,18.5276870728,0.284978985786,0.00177782624103,-0.00889506920606,0.715956275281,0.698086190211
1543475400703759000,233,1543475400703759000,/map,1.33676588535,18.5300102234,0.285608172417,0.00176652679868,-0.00876424094919,0.715902453769,0.69814306854
1543475400803917000,234,1543475400803917000,/map,1.33457112312,18.5246067047,0.286374092102,0.00174762213175,-0.00881174201349,0.715973286287,0.698069876405
1543475400904102000,235,1543475400904102000,/map,1.34017348289,18.5329742432,0.285775661469,0.00182768271562,-0.00885289739137,0.715993921793,0.69804798527
1543475401004311000,236,1543475401004311000,/map,1.33573055267,18.5343017578,0.284897327423,0.00177510759051,-0.00882389537866,0.71590157757,0.698143193834
1543475401104479000,237,1543475401104479000,/map,1.33869147301,18.527677536,0.283282756805,0.00176196545414,-0.0088221656496,0.71596512352,0.698078080715
1543475401204624000,238,1543475401204624000,/map,1.34172832966,18.5302867889,0.285507559776,0.00176390199112,-0.00884435462348,0.715971928633,0.698070815499
1543475401304840000,239,1543475401304840000,/map,1.33363819122,18.5303344727,0.281143784523,0.0017745174802,-0.00877280901595,0.715950815492,0.698093345267
1543475401405015000,240,1543475401405015000,/map,1.34072244167,18.5281181335,0.283031105995,0.00183356965213,-0.00884236268731,0.71593753674,0.698105933316
1543475401505167000,241,1543475401505167000,/map,1.33575868607,18.5344829559,0.28596162796,0.00178951897461,-0.00885357354333,0.715906819202,0.698137406302
1543475401605367000,242,1543475401605367000,/map,1.33549022675,18.5302772522,0.280672430992,0.00179971590426,-0.00877564021374,0.71594569859,0.698098492931
1543475401705566000,243,1543475401705566000,/map,1.33632910252,18.5349407196,0.285809874535,0.00182094116114,-0.00885174070413,0.715891445399,0.698153113052
1543475401805748000,244,1543475401805748000,/map,1.3366932869,18.532283783,0.277764439583,0.00178340715647,-0.00874892416283,0.715922909512,0.69812224103
1543475401905958000,245,1543475401905958000,/map,1.33861339092,18.5329914093,0.287204265594,0.00176560277042,-0.00886506005486,0.715942205334,0.698101032787
1543475402006176000,246,1543475402006176000,/map,1.33363628387,18.5330963135,0.282015919685,0.00174879326849,-0.00879972200512,0.715910972194,0.698133931639
1543475402106290000,247,1543475402106290000,/map,1.33957064152,18.5336456299,0.282944321632,0.00188888728137,-0.00874065066584,0.715934273866,0.698110412926
1543475402206541000,248,1543475402206541000,/map,1.33557319641,18.5292301178,0.286291837692,0.0017537060381,-0.0088574701715,0.71592225908,0.698121614542
1543475402306668000,249,1543475402306668000,/map,1.3370256424,18.5318317413,0.284193992615,0.00185639850566,-0.00877997684137,0.715951555863,0.698092282902
1543475402406857000,250,1543475402406857000,/map,1.33926653862,18.5314903259,0.28192794323,0.00189912275191,-0.00874469829615,0.715961956725,0.69808194369
1543475402507031000,251,1543475402507031000,/map,1.33578896523,18.5295715332,0.287113547325,0.00176883282278,-0.00879817317767,0.715902518159,0.698142569876
1543475402607292000,252,1543475402607292000,/map,1.34006083012,18.5275440216,0.283366918564,0.00178031909272,-0.00887301722889,0.715970858671,0.698071507485
1543475402707471000,253,1543475402707471000,/map,1.33289122581,18.5306758881,0.286871790886,0.00176071161519,-0.00881957437474,0.715904471979,0.698140316844
1543475402807556000,254,1543475402807556000,/map,1.33944821358,18.534116745,0.284633636475,0.00178538389243,-0.0088503791761,0.715948627292,0.698094582611
1543475402907787000,255,1543475402907787000,/map,1.33556580544,18.5329818726,0.281722187996,0.00184279450483,-0.00880086719251,0.715935623348,0.698108395642
1543475403007958000,256,1543475403007958000,/map,1.34270071983,18.5301437378,0.28665292263,0.00175428583194,-0.00886975261509,0.715958048504,0.698084753273
1543475403108126000,257,1543475403108126000,/map,1.33721041679,18.5344295502,0.282587528229,0.00184095557279,-0.00878696601009,0.71595119522,0.698092605729
1543475403208344000,258,1543475403208344000,/map,1.33972477913,18.5310764313,0.287006378174,0.00177417763401,-0.00888423991053,0.715976237047,0.698065864055
1543475403308565000,259,1543475403308565000,/map,1.33800399303,18.5312576294,0.283356904984,0.00181661058987,-0.00880585171193,0.715932077008,0.698112038295
1543475403408709000,260,1543475403408709000,/map,1.33707284927,18.5364246368,0.288054704666,0.0018369362123,-0.00881062488652,0.715978027428,0.698064798421
1543475403508908000,261,1543475403508908000,/map,1.34136772156,18.5299301147,0.286310315132,0.00179131154632,-0.0088476948723,0.715924897084,0.698118937742
1543475403609066000,262,1543475403609066000,/map,1.33631825447,18.5330638885,0.283489108086,0.00179664531859,-0.00885770826149,0.715919000418,0.698124844072
1543475403709228000,263,1543475403709228000,/map,1.33605575562,18.5262851715,0.280506253242,0.00177752075415,-0.0087904008145,0.715903769601,0.698141362436
1543475403809475000,264,1543475403809475000,/map,1.33978903294,18.5308551788,0.285101771355,0.00178484027697,-0.00886217920396,0.715962611333,0.698080092323
1543475403909637000,265,1543475403909637000,/map,1.33515441418,18.5323524475,0.279782652855,0.00178379691143,-0.0087822606781,0.715932620252,0.698111862974
1543475404009792000,266,1543475404009792000,/map,1.33927094936,18.5305843353,0.287242770195,0.00179343238605,-0.00889913075831,0.715954342013,0.69808808128
1543475404110001000,267,1543475404110001000,/map,1.33328604698,18.535774231,0.286687850952,0.0017059139207,-0.00888665861905,0.715935997284,0.698107273239
1543475404210175000,268,1543475404210175000,/map,1.33583116531,18.5323200226,0.283584356308,0.00181147324969,-0.00884337770872,0.715908413889,0.698135843628
1543475404310354000,269,1543475404310354000,/map,1.34237253666,18.5364246368,0.283171892166,0.00180510451842,-0.00892816535135,0.716023371645,0.698016877102
1543475404410562000,270,1543475404410562000,/map,1.33964836597,18.5287876129,0.283988833427,0.00171844366611,-0.00890998291898,0.715985633944,0.698056037251
1543475404510756000,271,1543475404510756000,/map,1.33803772926,18.5318126678,0.281063079834,0.00185707207508,-0.00877823973235,0.715931471834,0.698112900202
1543475404610893000,272,1543475404610893000,/map,1.33794903755,18.5321159363,0.288280725479,0.00179877839512,-0.00889174327275,0.71603182161,0.698008690304
1543475404711100000,273,1543475404711100000,/map,1.33570599556,18.531747818,0.281838059425,0.00179314960115,-0.00879435177779,0.715909018163,0.698135890571
1543475404811278000,274,1543475404811278000,/map,1.33851528168,18.5287818909,0.28642141819,0.00181307956922,-0.00883873918767,0.716000710491,0.698041239475
1543475404911450000,275,1543475404911450000,/map,1.33416604996,18.5368385315,0.285528302193,0.00181007027449,-0.00888503310994,0.715961682849,0.698080689121
1543475405011686000,276,1543475405011686000,/map,1.33824217319,18.534280777,0.28314614296,0.00178576803901,-0.00890467591075,0.715943440444,0.698099210617
1543475405111849000,277,1543475405111849000,/map,1.33248460293,18.5340213776,0.281172513962,0.00181873466725,-0.00885099698249,0.715921477304,0.698122331967
1543475405212050000,278,1543475405212050000,/map,1.33652472496,18.5341567993,0.282094955444,0.00182194110894,-0.00876951669933,0.715943108572,0.698101168453
1543475405312241000,279,1543475405312241000,/map,1.33856594563,18.5287437439,0.281007885933,0.00186238361729,-0.0087424254303,0.715945900948,0.698098537773
1543475405412400000,280,1543475405412400000,/map,1.33645653725,18.5344524384,0.284338831902,0.0018357824995,-0.00885703187275,0.716002560871,0.698039050279
1543475405516808000,281,1543475405516808000,/map,1.33477270603,18.5304584503,0.282730579376,0.0017689540417,-0.00883105272351,0.715900865119,0.698143849526
1543475405612785000,282,1543475405612785000,/map,1.34018206596,18.5319824219,0.285695552826,0.00180738273734,-0.00882371021336,0.716060718295,0.697979887404
1543475405712963000,283,1543475405712963000,/map,1.33734965324,18.530090332,0.285457134247,0.00178527750148,-0.00882098106365,0.715882912515,0.698162344048
1543475405813169000,284,1543475405813169000,/map,1.3367626667,18.5352745056,0.278672218323,0.00176253015122,-0.00881572496182,0.71599547306,0.698047032111
1543475405913357000,285,1543475405913357000,/map,1.33969676495,18.5308265686,0.283873558044,0.00184084329482,-0.00881780242413,0.715953858474,0.698089485805
1543475406013560000,286,1543475406013560000,/map,1.33594560623,18.5310535431,0.282674431801,0.00186690986198,-0.00878635527086,0.715986182361,0.698056660506
1543475406113692000,287,1543475406113692000,/map,1.33150219917,18.5301876068,0.282824516296,0.00196142189734,-0.00869468386161,0.715889968795,0.698156220251
1543475406213895000,288,1543475406213895000,/map,1.3387440443,18.5338916779,0.280770540237,0.00186673606709,-0.00879287412014,0.715948769135,0.698094951017
1543475406314054000,289,1543475406314054000,/map,1.34080839157,18.5308570862,0.286139726639,0.00177977004832,-0.00875407754495,0.71592912899,0.698115807591
1543475406414259000,290,1543475406414259000,/map,1.3362249136,18.5314941406,0.278048992157,0.00180756233001,-0.00878884076898,0.715937291105,0.698106928917
1543475406514485000,291,1543475406514485000,/map,1.33591902256,18.5354309082,0.285299420357,0.00189428314196,-0.00872984120432,0.715947918561,0.698096540224
1543475406614655000,292,1543475406614655000,/map,1.33841335773,18.5284805298,0.284542560577,0.00175595262112,-0.008889836347,0.715968345272,0.698073933054
1543475406714848000,293,1543475406714848000,/map,1.33174932003,18.5309085846,0.280467391014,0.00182968079111,-0.00876979086148,0.715935513042,0.698108934338
1543475406815018000,294,1543475406815018000,/map,1.33882451057,18.5328369141,0.28452694416,0.00187252359679,-0.00878993143417,0.715935412623,0.698108670419
1543475406915199000,295,1543475406915199000,/map,1.33803319931,18.5280647278,0.284989595413,0.00174561423222,-0.00882148843576,0.715918140614,0.698126313866
1543475407015398000,296,1543475407015398000,/map,1.33672392368,18.5347595215,0.282852888107,0.00178158451675,-0.00879877968821,0.715927138777,0.698117281977
1543475407115568000,297,1543475407115568000,/map,1.34044015408,18.5301513672,0.282726049423,0.00184501438806,-0.00875376290038,0.715944134549,0.698100253375
1543475407215739000,298,1543475407215739000,/map,1.33544182777,18.534198761,0.282431721687,0.00182425939359,-0.00885641004076,0.715897454546,0.698146883295
1543475407315945000,299,1543475407315945000,/map,1.34128785133,18.5291500092,0.285125136375,0.00178597689888,-0.00883993977473,0.715924513619,0.698119442897
1543475407416151000,300,1543475407416151000,/map,1.33751857281,18.5305347443,0.282571315765,0.00187186134089,-0.00884669220417,0.715973671656,0.69806871701
1543475407516336000,301,1543475407516336000,/map,1.33418595791,18.5346927643,0.281406283379,0.00175032218322,-0.00885998642451,0.715819560934,0.698226892347
1543475407616512000,302,1543475407616512000,/map,1.33836555481,18.5289573669,0.285836458206,0.00182044534479,-0.00886460502011,0.715921536891,0.698122093743
1543475407716700000,303,1543475407716700000,/map,1.33621025085,18.5331401825,0.282562732697,0.00176271693326,-0.00881177030292,0.71596346464,0.698079911495
1543475407816925000,304,1543475407816925000,/map,1.33548116684,18.5276069641,0.284129023552,0.00178021620662,-0.0088263551703,0.715909834927,0.698134682236
1543475407917098000,305,1543475407917098000,/map,1.33622348309,18.5328140259,0.280356168747,0.00179398475455,-0.00875908676162,0.715915218104,0.698129973933
1543475408017269000,306,1543475408017269000,/map,1.33687162399,18.5326328278,0.286392807961,0.00185375456133,-0.008839309955,0.715916144541,0.698127856613
1543475408117434000,307,1543475408117434000,/map,1.34009230137,18.5302658081,0.278682947159,0.00184655246276,-0.00873057776156,0.716002042596,0.698041146534
1543475408217678000,308,1543475408217678000,/map,1.33543395996,18.5338020325,0.287795543671,0.00179733417064,-0.00887062749701,0.715977338769,0.698064847939
1543475408317846000,309,1543475408317846000,/map,1.33735370636,18.5330848694,0.282654523849,0.00178086580701,-0.00878179349305,0.715922077157,0.698122688401
1543475408417984000,310,1543475408417984000,/map,1.3329218626,18.5370960236,0.284280657768,0.00188135683273,-0.00889294948992,0.715955075382,0.69808717649
1543475408518218000,311,1543475408518218000,/map,1.33460760117,18.5271644592,0.280482172966,0.00183874489185,-0.00874775942774,0.715957410226,0.698086729902
1543475408618417000,312,1543475408618417000,/map,1.33748614788,18.5331478119,0.281008124352,0.00185600407789,-0.0087435963618,0.715937847935,0.698106798897
1543475408718591000,313,1543475408718591000,/map,1.33338034153,18.5313663483,0.281836509705,0.00186976709151,-0.00877955012443,0.71588776954,0.698157664782
1543475408818771000,314,1543475408818771000,/map,1.3384604454,18.5311908722,0.279764533043,0.00180817690773,-0.00871613535265,0.715945774767,0.698099138428
1543475408918928000,315,1543475408918928000,/map,1.33556520939,18.5317268372,0.283267617226,0.0018732776326,-0.00880716650982,0.715834933807,0.698211480994
1543475409019199000,316,1543475409019199000,/map,1.33079695702,18.5337181091,0.286982297897,0.00187859742147,-0.00877315267938,0.715953702446,0.698090107807
1543475409119322000,317,1543475409119322000,/map,1.3402210474,18.5308074951,0.278993725777,0.00190777031587,-0.00869486563229,0.715965400072,0.698079011017
1543475409219533000,318,1543475409219533000,/map,1.33621680737,18.5297451019,0.283310890198,0.00183825165363,-0.00879997537946,0.71589473342,0.698150350516
1543475409319732000,319,1543475409319732000,/map,1.34036076069,18.5257320404,0.279756546021,0.00183848624372,-0.00878751891122,0.715921353458,0.698123209142
1543475409419886000,320,1543475409419886000,/map,1.33732187748,18.5309638977,0.284128546715,0.00185015852261,-0.00880871838751,0.715959540151,0.698083748745
1543475409520125000,321,1543475409520125000,/map,1.33206534386,18.5292205811,0.286175370216,0.00177598196874,-0.00868084564614,0.715789753134,0.698259635175
1543475409620273000,322,1543475409620273000,/map,1.34023594856,18.5316352844,0.281794428825,0.00188529848664,-0.00880726127517,0.715972522593,0.69807035798
1543475409720484000,323,1543475409720484000,/map,1.33716249466,18.5284862518,0.283993124962,0.00179898419732,-0.00884100048578,0.715935035751,0.698108605413
1543475409820668000,324,1543475409820668000,/map,1.33490979671,18.534324646,0.278066635132,0.00180488293137,-0.00880960896127,0.715940821896,0.698103053088
1543475409920824000,325,1543475409920824000,/map,1.33871126175,18.5304050446,0.286768913269,0.00176504495825,-0.00891923177733,0.715951812043,0.698090491808
1543475410021019000,326,1543475410021019000,/map,1.33704411983,18.5305995941,0.281081557274,0.00187051334576,-0.00883866879257,0.715925098757,0.698118637542
1543475410121218000,327,1543475410121218000,/map,1.34161102772,18.5298786163,0.287026166916,0.00175588134425,-0.00890743271465,0.715956474806,0.698085883475
1543475410221406000,328,1543475410221406000,/map,1.33717226982,18.5316925049,0.280599117279,0.00179450362529,-0.0087540483057,0.715961058236,0.698083024779
1543475410321590000,329,1543475410321590000,/map,1.33892440796,18.5342483521,0.286771893501,0.00176118757572,-0.00884796558309,0.715892897871,0.698151824822
1543475410421787000,330,1543475410421787000,/map,1.33759510517,18.5316619873,0.27950668335,0.00185166737172,-0.0087528323598,0.716003516619,0.698039342331
1543475410521996000,331,1543475410521996000,/map,1.33603644371,18.5342903137,0.285769343376,0.00182913914901,-0.00881783601406,0.715848809512,0.698197237131
1543475410622189000,332,1543475410622189000,/map,1.33916711807,18.5342922211,0.277910113335,0.00177980261314,-0.00876281795052,0.715939438268,0.698105125362
1543475410722354000,333,1543475410722354000,/map,1.33539712429,18.5298595428,0.286389112473,0.00179619437811,-0.00882116991084,0.715894769995,0.69815015501
1543475410822566000,334,1543475410822566000,/map,1.33739483356,18.5345230103,0.281976819038,0.00178219875002,-0.00880267839596,0.715938792144,0.698105280401
1543475410922737000,335,1543475410922737000,/map,1.33420300484,18.5305175781,0.28299498558,0.00188191540051,-0.00876450110638,0.715892849467,0.698152612254
1543475411022990000,336,1543475411022990000,/map,1.33785903454,18.5347137451,0.280718684196,0.00177242167164,-0.00879751454762,0.715941829038,0.6981022559
1543475411123327000,337,1543475411123327000,/map,1.33427751064,18.5292129517,0.285538077354,0.00182984893897,-0.0088130862928,0.715894923388,0.698150012412
1543475411223558000,338,1543475411223558000,/map,1.33832859993,18.5330886841,0.277547359467,0.00179403136728,-0.00874159335795,0.715933549034,0.698111394668
1543475411323932000,339,1543475411323932000,/map,1.33682537079,18.5276298523,0.283144712448,0.00185996779609,-0.00879358420754,0.715932087254,0.698112068251
1543475411424180000,340,1543475411424180000,/map,1.33596801758,18.5356025696,0.284695386887,0.00178591260114,-0.00883255432975,0.715960285659,0.698082850283
1543475411524478000,341,1543475411524478000,/map,1.34112179279,18.5304603577,0.280387163162,0.00188334366148,-0.00876377476704,0.715962520345,0.698081169156
1543475411624770000,342,1543475411624770000,/map,1.3332451582,18.5302410126,0.284142017365,0.00181164875517,-0.00882861595319,0.715888415762,0.698156536636
1543475411725066000,343,1543475411725066000,/map,1.33725130558,18.537771225,0.28399682045,0.00183283035645,-0.00887599056111,0.715993462485,0.698048149631
1543475411825375000,344,1543475411825375000,/map,1.33465158939,18.5317687988,0.282869458199,0.00174625464689,-0.00881010782764,0.71593457927,0.698109597986
1543475411925636000,345,1543475411925636000,/map,1.34080219269,18.5325908661,0.281975388527,0.00187403384689,-0.00879793380862,0.715951433001,0.698092135711
1543475412025962000,346,1543475412025962000,/map,1.33555436134,18.5313148499,0.28614127636,0.00174424346213,-0.00887920116982,0.715932528324,0.69811083095
1543475412126240000,347,1543475412126240000,/map,1.33901488781,18.5267620087,0.281304955482,0.00187161690264,-0.00877117039906,0.715927200357,0.698117330689
1543475412226535000,348,1543475412226535000,/map,1.33782935143,18.5336284637,0.287228822708,0.00180604879286,-0.00892193798475,0.71595374521,0.698088369714
1543475412326813000,349,1543475412326813000,/map,1.33849823475,18.5286197662,0.283451914787,0.0017650281083,-0.00881573002303,0.715927337048,0.698116906863
1543475412427080000,350,1543475412427080000,/map,1.33348095417,18.5316963196,0.285096168518,0.00182454976647,-0.00878606547598,0.715986390153,0.698056563029
1543475412527425000,351,1543475412527425000,/map,1.33832776546,18.5273036957,0.278265714645,0.00192095185004,-0.00870766174797,0.71593331878,0.698111717157
1543475412627689000,352,1543475412627689000,/map,1.33849167824,18.5322284698,0.284440398216,0.00176933401276,-0.00886601247951,0.715962623261,0.698080070889
1543475412727997000,353,1543475412727997000,/map,1.33928918839,18.5286598206,0.280519247055,0.00184723975952,-0.00883155437873,0.715951274433,0.698091945226
1543475412828321000,354,1543475412828321000,/map,1.33882296085,18.5305118561,0.28920507431,0.00175998405998,-0.00893647421939,0.715932487731,0.698110102273
1543475412928572000,355,1543475412928572000,/map,1.33426165581,18.5308837891,0.281515955925,0.00187192474677,-0.0087548824801,0.715890328297,0.698155345021
1543475413028885000,356,1543475413028885000,/map,1.33825457096,18.530418396,0.287655234337,0.00174252769624,-0.00884800539675,0.715970481197,0.698072307467
1543475413129138000,357,1543475413129138000,/map,1.33384406567,18.5379600525,0.2833994627,0.0017718162657,-0.00885538830136,0.715918928089,0.698125011132
1543475413229434000,358,1543475413229434000,/map,1.33541464806,18.5283622742,0.280114412308,0.00186840261426,-0.00875929915713,0.715936028012,0.698108435376
1543475413329790000,359,1543475413329790000,/map,1.3359361887,18.5324134827,0.283807039261,0.00186305266713,-0.00879566481626,0.715908820418,0.698135893765
1543475413430041000,360,1543475413430041000,/map,1.34230089188,18.5310649872,0.285053253174,0.00179159659704,-0.00888975513496,0.716047103323,0.697993057457
1543475413530354000,361,1543475413530354000,/map,1.33600652218,18.5321731567,0.281956195831,0.00183360314959,-0.00877535968135,0.71594419505,0.698099950248
1543475413630608000,362,1543475413630608000,/map,1.33627796173,18.5302677155,0.288543820381,0.00172517762204,-0.00889145216032,0.715934263301,0.698108943126
1543475413730956000,363,1543475413730956000,/map,1.33704936504,18.529088974,0.280386805534,0.00186668132944,-0.00881517588328,0.715952024498,0.698091331269
1543475413831226000,364,1543475413831226000,/map,1.33460855484,18.5360050201,0.288008093834,0.00177980640408,-0.00890441456308,0.715922581681,0.698120620473
1543475413931475000,365,1543475413931475000,/map,1.33492314816,18.5310325623,0.285175800323,0.00180841690385,-0.00881092114575,0.715898107821,0.698146830198
1543475414031770000,366,1543475414031770000,/map,1.33552849293,18.527053833,0.282262921333,0.00178177628766,-0.00883354690876,0.715882301286,0.698162820858
1543475414132093000,367,1543475414132093000,/map,1.33358216286,18.5332527161,0.288551926613,0.00178984567626,-0.00891337540433,0.715974277616,0.698067462344
1543475414232351000,368,1543475414232351000,/map,1.33987641335,18.5283737183,0.283564329147,0.0018258100843,-0.00882541731402,0.715956380222,0.698086842768
1543475414332656000,369,1543475414332656000,/map,1.33381092548,18.5305900574,0.284140706062,0.00180257390176,-0.00881170284668,0.715914920398,0.69812959497
1543475414432945000,370,1543475414432945000,/map,1.33727669716,18.5333042145,0.288008332253,0.00172832907472,-0.00889707037665,0.716014554221,0.698026513222
1543475414533260000,371,1543475414533260000,/map,1.33543407917,18.533914566,0.280546188354,0.00178338431118,-0.00881561276302,0.715913858726,0.698130683608
1543475414633517000,372,1543475414633517000,/map,1.33893918991,18.5292892456,0.284069657326,0.00187561441916,-0.00872034857433,0.715960395209,0.698083913354
1543475414733810000,373,1543475414733810000,/map,1.33397579193,18.5345458984,0.281219482422,0.00186701856685,-0.00886200106915,0.715938463701,0.698104645001
1543475414834088000,374,1543475414834088000,/map,1.33811867237,18.5323162079,0.286060571671,0.00176925626934,-0.00888214094346,0.71593217088,0.698111097179
1543475414934366000,375,1543475414934366000,/map,1.3340908289,18.5293617249,0.284475803375,0.00179251463246,-0.00875154658389,0.715924765446,0.698120281574
1543475415034671000,376,1543475415034671000,/map,1.33991968632,18.5281639099,0.281623363495,0.00190123995072,-0.00881373475735,0.715976999125,0.698065641677
1543475415134978000,377,1543475415134978000,/map,1.33757352829,18.533613205,0.285196185112,0.00180571956621,-0.00883216981636,0.715871485208,0.698173867184
1543475415235257000,378,1543475415235257000,/map,1.33954656124,18.5282325745,0.280384540558,0.00184046441417,-0.0087015743832,0.715987390618,0.698056553418
1543475415335530000,379,1543475415335530000,/map,1.33458447456,18.5264415741,0.286152362823,0.00187382537284,-0.00883350294248,0.715917805705,0.698126173037
1543475415435781000,380,1543475415435781000,/map,1.33847522736,18.5311069489,0.284516692162,0.0017787895847,-0.00889839783823,0.715966183298,0.698075983542
1543475415536131000,381,1543475415536131000,/map,1.33365011215,18.5277767181,0.283179998398,0.00187807168026,-0.00878946501229,0.715952348483,0.698091292635
1543475415636379000,382,1543475415636379000,/map,1.33632218838,18.5320014954,0.286395907402,0.00178651370483,-0.00880973665467,0.715913333119,0.698131288779
