%time,field.header.seq,field.header.stamp,field.header.frame_id,field.pose.position.x,field.pose.position.y,field.pose.position.z,field.pose.orientation.x,field.pose.orientation.y,field.pose.orientation.z,field.pose.orientation.w
1543475343053827000,0,1543475343053827000,/map,1.3153873682,18.4996433258,2.28479146957,0.00748057507951,-0.00497614586103,0.0123951257878,0.999882813046
1543475377465127000,1,1543475377465127000,/map,1.32188272476,18.5041294098,2.28511452675,0.00759198080743,-0.0049799249885,0.0128594259742,0.999876090992
1543475377565285000,2,1543475377565285000,/map,1.31842565536,18.499879837,2.28176522255,0.00748447962958,-0.00492623657032,0.0126829896498,0.999879420996
1543475377665405000,3,1543475377665405000,/map,1.32054316998,18.5023269653,2.28616189957,0.00751802626178,-0.00494436298437,0.0126216201541,0.999879856413
1543475377765557000,4,1543475377765557000,/map,1.31560492516,18.4992542267,2.28255796432,0.00740858301374,-0.00489583659151,0.0125855838339,0.999881366344
1543475377865710000,5,1543475377865710000,/map,1.31829631329,18.502948761,2.282787323,0.00750832326121,-0.0049304828034,0.0125904379075,0.999880390994
1543475377965843000,6,1543475377965843000,/map,1.31480896473,18.5001182556,2.28347182274,0.00760629778281,-0.00491627351187,0.0126459671987,0.999879019683
1543475378065967000,7,1543475378065967000,/map,1.32004535198,18.5032444,2.28494334221,0.00748766441933,-0.0049229052769,0.0125694431368,0.999880847394
1543475378166117000,8,1543475378166117000,/map,1.31425595284,18.501958847,2.28012013435,0.00752305000223,-0.0049355047981,0.0126134621996,0.999879965337
1543475378266268000,9,1543475378266268000,/map,1.3165627718,18.5041694641,2.28802633286,0.00756326051962,-0.00498571385466,0.0125775487952,0.999879865291
1543475378366397000,10,1543475378366397000,/map,1.31577515602,18.4982452393,2.28095722198,0.00749031033686,-0.00491764896184,0.0125617341384,0.999880950321
1543475378466568000,11,1543475378466568000,/map,1.31713581085,18.5015869141,2.28616642952,0.00748718820314,-0.00494466035742,0.0125464797688,0.999881032019
1543475378566688000,12,1543475378566688000,/map,1.31974124908,18.4992351532,2.28907370567,0.00761509787028,-0.00506189452003,0.012832940932,0.99987584386
1543475378666809000,13,1543475378666809000,/map,1.3160918951,18.5067501068,2.28237628937,0.00747362495024,-0.00498376770764,0.0125702954265,0.999880640208
1543475378766960000,14,1543475378766960000,/map,1.31820213795,18.5059776306,2.2865884304,0.00749764287055,-0.00490293198351,0.0127172155402,0.999879002199
1543475378867125000,15,1543475378867125000,/map,1.31596672535,18.50157547,2.27994203568,0.00746602232215,-0.00487681279721,0.0124080940508,0.99988325039
1543475378967243000,16,1543475378967243000,/map,1.31978082657,18.5027751923,2.28216314316,0.00748675412981,-0.00493360452007,0.0126314937699,0.999880019514
1543475379067373000,17,1543475379067373000,/map,1.31489884853,18.5001010895,2.28311634064,0.0075320069611,-0.00489020226143,0.0124418346701,0.999882270841
1543475379167541000,18,1543475379167541000,/map,1.31617963314,18.5044803619,2.28073692322,0.00747437285574,-0.0049024145801,0.0126567553599,0.999879946106
1543475379267703000,19,1543475379267703000,/map,1.31770443916,18.501039505,2.28791666031,0.00754229851112,-0.00509471316866,0.0125481792919,0.999879843195
1543475379367846000,20,1543475379367846000,/map,1.31258535385,18.5061531067,2.28263068199,0.00750311566554,-0.0049215112145,0.0125941900065,0.999880427032
1543475379467978000,21,1543475379467978000,/map,1.31424200535,18.501909256,2.28430604935,0.00750828824115,-0.00490159181154,0.0126490306336,0.99987979379
1543475379568094000,22,1543475379568094000,/map,1.31920838356,18.5045280457,2.27995276451,0.0075197752231,-0.00495174114996,0.0125651429537,0.999880518073
1543475379668259000,23,1543475379668259000,/map,1.31329286098,18.5002269745,2.2868950367,0.00749985720147,-0.00500614650723,0.0125494959942,0.999880593266
1543475379768449000,24,1543475379768449000,/map,1.31664788723,18.4988002777,2.28412485123,0.00753638098929,-0.0049620962514,0.0126624676586,0.999879113931
1543475379868556000,25,1543475379868556000,/map,1.3182040453,18.5058517456,2.27937340736,0.0074956745691,-0.00489390071311,0.0125028179393,0.999881765081
1543475379968707000,26,1543475379968707000,/map,1.31595659256,18.4995441437,2.28736877441,0.00750448922716,-0.00503590955664,0.0125371762908,0.999880563601
1543475380068863000,27,1543475380068863000,/map,1.31691014767,18.5061588287,2.2823600769,0.00752561050014,-0.00489940185268,0.0126240781732,0.999879989648
1543475380169015000,28,1543475380169015000,/map,1.31763315201,18.499792099,2.28679537773,0.00752432161027,-0.00500517958176,0.0125542278422,0.999880354905
1543475380269180000,29,1543475380269180000,/map,1.31736016273,18.5021038055,2.28020429611,0.00748247178969,-0.00494398189961,0.0126405802767,0.999879885481
1543475380369333000,30,1543475380369333000,/map,1.31567728519,18.5011253357,2.28662490845,0.0074975100555,-0.00498756258972,0.0126214594224,0.999879797938
1543475380469465000,31,1543475380469465000,/map,1.31605422497,18.5048446655,2.28281736374,0.00758214824272,-0.00496918213528,0.0125500428431,0.999880150159
1543475380569623000,32,1543475380569623000,/map,1.31921970844,18.4998207092,2.28776502609,0.00754213552702,-0.00501465997074,0.0125886056381,0.999879740961
1543475380669759000,33,1543475380669759000,/map,1.31689715385,18.5036525726,2.28314518929,0.00751841830847,-0.00493611942053,0.0125552811389,0.999880729401
1543475380769900000,34,1543475380769900000,/map,1.31690263748,18.4987506866,2.28363251686,0.00751936430052,-0.00493285108217,0.0125697219738,0.999880556982
1543475380870054000,35,1543475380870054000,/map,1.31685614586,18.5036582947,2.28659176826,0.00744280659782,-0.00507123415724,0.0125684566227,0.99988045341
1543475380970180000,36,1543475380970180000,/map,1.31795680523,18.5061454773,2.27866959572,0.00756537798099,-0.00480021168054,0.0126365963609,0.99988001253
1543475381070331000,37,1543475381070331000,/map,1.31669533253,18.5023174286,2.28743934631,0.00755685479288,-0.00504575397543,0.0126093085467,0.99987921253
1543475381170497000,38,1543475381170497000,/map,1.31676876545,18.5029697418,2.28160190582,0.0075202349435,-0.00490739641042,0.0125973308244,0.999880328231
1543475381270636000,39,1543475381270636000,/map,1.3229804039,18.4981899261,2.28349947929,0.00748622430207,-0.00491394826917,0.0126201862931,0.99988026306
1543475381370793000,40,1543475381370793000,/map,1.31707346439,18.5017204285,2.28298616409,0.00748569017926,-0.00495250444353,0.0125946937831,0.999880398263
1543475381470957000,41,1543475381470957000,/map,1.31934905052,18.5010166168,2.28711056709,0.00752387379888,-0.00494754237381,0.0126011046424,0.999880055461
1543475381571129000,42,1543475381571129000,/map,1.31609368324,18.4965629578,2.28375554085,0.00750021684754,-0.00508146515333,0.0126080605502,0.999879473871
1543475381671243000,43,1543475381671243000,/map,1.31927657127,18.5024681091,2.28029870987,0.00751377269859,-0.00491379376203,0.0126215190527,0.999880040359
1543475381771436000,44,1543475381771436000,/map,1.31387197971,18.5020713806,2.28565311432,0.00750821959587,-0.00505218968861,0.012604518127,0.999879606823
1543475381871543000,45,1543475381871543000,/map,1.31805598736,18.5067424774,2.28355622292,0.00752879684092,-0.00501216410983,0.0126154610906,0.999879515527
1543475381971704000,46,1543475381971704000,/map,1.31727170944,18.5005779266,2.28082704544,0.00750024277177,-0.00481417646255,0.0126215516656,0.999880626123
1543475382071855000,47,1543475382071855000,/map,1.31871819496,18.5073413849,2.28620672226,0.00753272918073,-0.00496753536397,0.0126188498553,0.999879665866
1543475382172006000,48,1543475382172006000,/map,1.31844580173,18.5025424957,2.28185987473,0.00751913779123,-0.00492861723376,0.012601313667,0.999880181918
1543475382272179000,49,1543475382272179000,/map,1.31690442562,18.5083332062,2.28368020058,0.00748616437539,-0.00491785854636,0.0125852858406,0.999880684177
1543475382372364000,50,1543475382372364000,/map,1.31479167938,18.5004711151,2.28516411781,0.00749680832713,-0.00501528735267,0.0125410358842,0.999880676469
1543475382472505000,51,1543475382472505000,/map,1.31875765324,18.5026454926,2.28439807892,0.00755782479512,-0.00499332812204,0.0125877527112,0.999879739989
1543475382572650000,52,1543475382572650000,/map,1.3135112524,18.5017299652,2.28609347343,0.00751588441189,-0.00496159006249,0.0125825326905,0.999880279822
1543475382672799000,53,1543475382672799000,/map,1.32131552696,18.5013790131,2.28625822067,0.00749909092588,-0.00502713768756,0.0125979599146,0.99987988425
1543475382772980000,54,1543475382772980000,/map,1.31741201878,18.4935817719,2.28545641899,0.00748119122359,-0.00504012544822,0.0125919245233,0.999880028979
1543475382873116000,55,1543475382873116000,/map,1.31651675701,18.5007705688,2.28343296051,0.0074712038384,-0.00498595150198,0.0126149341247,0.999880085229
1543475382973286000,56,1543475382973286000,/map,1.32127797604,18.4971122742,2.28392410278,0.00760938634282,-0.00497268347152,0.0125704748952,0.99987966917
1543475383073434000,57,1543475383073434000,/map,1.31808888912,18.5035133362,2.28366017342,0.00745897802303,-0.00494959786677,0.0125756362653,0.999880852152
1543475383173590000,58,1543475383173590000,/map,1.31907653809,18.4997253418,2.28587508202,0.00755188288009,-0.00499269703568,0.0126261918023,0.999879303377
1543475383273766000,59,1543475383273766000,/map,1.31692171097,18.5039672852,2.28207182884,0.00752197176452,-0.00489526736839,0.0125753177658,0.999880651719
1543475383373920000,60,1543475383373920000,/map,1.31989455223,18.5002193451,2.28745412827,0.0074452908445,-0.00506192295953,0.012602515272,0.999880053401
1543475383474041000,61,1543475383474041000,/map,1.31808745861,18.5030975342,2.28217220306,0.00752822684818,-0.00492428260116,0.0125678200214,0.999880556437
1543475383574227000,62,1543475383574227000,/map,1.31505274773,18.5069942474,2.27773118019,0.00750429586368,-0.00490355385907,0.0126820224776,0.999879396232
1543475383674386000,63,1543475383674386000,/map,1.31549572945,18.4974060059,2.28441691399,0.00754466244836,-0.00499288281178,0.0125942813826,0.999879759404
1543475383774522000,64,1543475383774522000,/map,1.31945598125,18.5019073486,2.28604316711,0.00751346897404,-0.00504902381414,0.0126048312308,0.999879579436
1543475383874688000,65,1543475383874688000,/map,1.31569468975,18.4992332458,2.28308486938,0.00750254952523,-0.00495098853592,0.0125856354283,0.999880393469
1543475383974849000,66,1543475383974849000,/map,1.32170295715,18.5006961823,2.28627228737,0.00756116503657,-0.00503589265251,0.012552516768,0.999879944239
1543475384075064000,67,1543475384075064000,/map,1.31744003296,18.5034046173,2.28314423561,0.0074976657165,-0.00498874288601,0.0125907376122,0.999880178211
1543475384175162000,68,1543475384175162000,/map,1.32116222382,18.5013713837,2.2833814621,0.00753757989655,-0.00484988045288,0.0125916636038,0.999880549644
1543475384275334000,69,1543475384275334000,/map,1.31491041183,18.5030555725,2.2851319313,0.00740027744881,-0.00504291858662,0.0125654654483,0.999880949885
1543475384375485000,70,1543475384375485000,/map,1.32220220566,18.4985389709,2.282548666,0.00757119911236,-0.00495103116194,0.0126091114979,0.99987958002
1543475384475672000,71,1543475384475672000,/map,1.3181899786,18.5060844421,2.28469252586,0.0074960939383,-0.00491381884995,0.0125857467929,0.999880623843
1543475384575796000,72,1543475384575796000,/map,1.31547045708,18.5022602081,2.28600215912,0.00742730453946,-0.00504761590499,0.0125622981605,0.999880765585
1543475384675977000,73,1543475384675977000,/map,1.31868195534,18.5036430359,2.28127932549,0.00762426858386,-0.00494644725968,0.0127659456308,0.999877209371
1543475384776107000,74,1543475384776107000,/map,1.31806063652,18.5001659393,2.28417921066,0.00747985713363,-0.00497625607831,0.0124599967063,0.999882011587
1543475384876261000,75,1543475384876261000,/map,1.31480896473,18.5017757416,2.28608798981,0.00765795427034,-0.00498614376129,0.0127017640936,0.999877572154
1543475384976428000,76,1543475384976428000,/map,1.32022535801,18.4980258942,2.2794148922,0.00748967890291,-0.0049074524548,0.0126045945678,0.999880465764
1543475385076592000,77,1543475385076592000,/map,1.31822240353,18.4998016357,2.2820930481,0.0075352621341,-0.00491202077285,0.0126475127837,0.999879558895
1543475385176802000,78,1543475385176802000,/map,1.31514906883,18.5104465485,2.28055000305,0.00746938955334,-0.00502260790939,0.0125830806101,0.999880316694
1543475385276946000,79,1543475385276946000,/map,1.31980633736,18.504108429,2.27946162224,0.00751339696169,-0.00487801071101,0.0125825646626,0.999880709357
1543475385377093000,80,1543475385377093000,/map,1.31260728836,18.5015449524,2.27866172791,0.00746667745082,-0.00486229563762,0.0126434836002,0.99988036741
1543475385477255000,81,1543475385477255000,/map,1.32069730759,18.5018463135,2.28146219254,0.00750792029364,-0.00490751685234,0.0125974907745,0.999880418169
1543475385577426000,82,1543475385577426000,/map,1.31369423866,18.5079040527,2.27958703041,0.00747583992527,-0.00492916552985,0.0125844782585,0.999880715911
1543475385677551000,83,1543475385677551000,/map,1.31813049316,18.5034427643,2.28191518784,0.0075260964679,-0.00487568762135,0.0126208630971,0.999880142496
1543475385777728000,84,1543475385777728000,/map,1.32228386402,18.497341156,2.28492951393,0.00750985442442,-0.0049691686632,0.0125674562005,0.999880477104
1543475385877895000,85,1543475385877895000,/map,1.31675946712,18.5023593903,2.28285765648,0.00744652994424,-0.00495291226697,0.012618240491,0.999880391776
1543475385978099000,86,1543475385978099000,/map,1.32145869732,18.5017738342,2.28468847275,0.00755468544848,-0.00500739038768,0.0126234631923,0.999879243182
1543475386078222000,87,1543475386078222000,/map,1.31735122204,18.5052642822,2.28254199028,0.00752510720797,-0.00501458063553,0.0126417319338,0.999879199382
1543475386178416000,88,1543475386178416000,/map,1.32212126255,18.4994812012,2.28238964081,0.00748613966619,-0.00486068144407,0.0125779474526,0.99988105629
1543475386278561000,89,1543475386278561000,/map,1.32119333744,18.5043239594,2.28139424324,0.00755528480902,-0.00497489260614,0.0126350291027,0.999879254788
1543475386378741000,90,1543475386378741000,/map,1.3145802021,18.5022296906,2.28476667404,0.00741363217325,-0.00494716576656,0.0125470796384,0.999881560187
1543475386478909000,91,1543475386478909000,/map,1.31925463676,18.498462677,2.27823495865,0.00758219135891,-0.00488192139665,0.0125977114212,0.99987998024
1543475386579031000,92,1543475386579031000,/map,1.31667554379,18.506696701,2.28367328644,0.00747829917096,-0.00493532107257,0.0125895457354,0.999880603365
1543475386679210000,93,1543475386679210000,/map,1.31740272045,18.4997253418,2.28197216988,0.00753481002422,-0.00496211191863,0.0125853754549,0.999880099016
1543475386779388000,94,1543475386779388000,/map,1.31266403198,18.5027885437,2.2889380455,0.00749692421085,-0.00504737745528,0.0125952785696,0.999879832313
1543475386879575000,95,1543475386879575000,/map,1.31694352627,18.499162674,2.28396844864,0.00748646476139,-0.00495743883554,0.0126498359496,0.999879671909
1543475386979747000,96,1543475386979747000,/map,1.31456792355,18.5021324158,2.28280687332,0.00757624185903,-0.00487349956902,0.0124880126375,0.999881442523
1543475387079914000,97,1543475387079914000,/map,1.31186282635,18.4997692108,2.28902769089,0.00745450158294,-0.0051243534623,0.012628009035,0.999879345119
1543475387180041000,98,1543475387180041000,/map,1.31722307205,18.5043907166,2.2823445797,0.00753445915617,-0.00489613159685,0.012566538596,0.999880663844
1543475387280185000,99,1543475387280185000,/map,1.31665956974,18.4993133545,2.28606939316,0.00747609736486,-0.00509829082478,0.012515111723,0.999880736577
1543475387380389000,100,1543475387380389000,/map,1.31424474716,18.5018558502,2.28059625626,0.00748422587457,-0.00481571130324,0.0125831192923,0.999881223144
1543475387480504000,101,1543475387480504000,/map,1.32095968723,18.5038948059,2.28590035439,0.00757022697614,-0.00498317717073,0.0126074515449,0.999879448621
1543475387580729000,102,1543475387580729000,/map,1.31785392761,18.5028686523,2.28128123283,0.00748912908894,-0.00493303447681,0.0125841401433,0.999880601639
1543475387680908000,103,1543475387680908000,/map,1.31744682789,18.4967327118,2.28636646271,0.00757887317241,-0.00494411105678,0.0126450116603,0.999879102756
1543475387781033000,104,1543475387781033000,/map,1.31996393204,18.5049591064,2.28429245949,0.0075230299937,-0.00493353506208,0.0126157656397,0.999879946148
1543475387881170000,105,1543475387881170000,/map,1.31876897812,18.4993667603,2.28194689751,0.00750330600284,-0.00494625992813,0.0126346213707,0.999879793402
1543475387981348000,106,1543475387981348000,/map,1.31872713566,18.5023441315,2.28535032272,0.00753924508226,-0.00498492578123,0.0125941689036,0.999879841385
1543475388081549000,107,1543475388081549000,/map,1.31593620777,18.5010204315,2.27893948555,0.00750592431333,-0.00486677446039,0.0126568468233,0.999879882703
1543475388181707000,108,1543475388181707000,/map,1.32116961479,18.5050506592,2.28451919556,0.00753975283714,-0.00495391548213,0.0126506405818,0.999879278784
1543475388281877000,109,1543475388281877000,/map,1.3170260191,18.5022373199,2.28268718719,0.00749797547457,-0.00487442699551,0.0125955489813,0.999880679117
1543475388382042000,110,1543475388382042000,/map,1.31624937057,18.5011882782,2.28956341743,0.00740749819638,-0.00493299439463,0.0125870965093,0.999881172709
1543475388482259000,111,1543475388482259000,/map,1.32054245472,18.5016441345,2.28204369545,0.00751831874941,-0.00491184721136,0.0126158812399,0.999880086901
1543475388582391000,112,1543475388582391000,/map,1.3158146143,18.5015544891,2.2867205143,0.00754982997383,-0.00500213835135,0.0126333683194,0.999879181043
1543475388682521000,113,1543475388682521000,/map,1.31700122356,18.5045700073,2.28176355362,0.00748058998712,-0.00494311959636,0.0126516565657,0.999879763736
1543475388782726000,114,1543475388782726000,/map,1.32101118565,18.4978713989,2.28449749947,0.00752703845793,-0.00488905695,0.0125848881922,0.999880523564
1543475388882894000,115,1543475388882894000,/map,1.31505584717,18.5009384155,2.28647446632,0.00751463150763,-0.00501575925176,0.0126169127031,0.999879585743
1543475388983042000,116,1543475388983042000,/map,1.31833684444,18.4961547852,2.28770542145,0.00752759516172,-0.00505521132248,0.0125848134933,0.999879694073
1543475389083190000,117,1543475389083190000,/map,1.31881737709,18.5015487671,2.28418397903,0.00750827376521,-0.00494643826389,0.0126016435563,0.999880171397
1543475389183402000,118,1543475389183402000,/map,1.31940042973,18.5046482086,2.2811589241,0.00749027231653,-0.0049686620199,0.0126050574006,0.999880153192
1543475389283532000,119,1543475389283532000,/map,1.31561231613,18.5000610352,2.28284072876,0.00747911167749,-0.00482177100404,0.0125978416066,0.999881046825
1543475389383729000,120,1543475389383729000,/map,1.319865942,18.5000076294,2.28235530853,0.0075282332219,-0.00496716686027,0.0125850253453,0.999880127863
1543475389483904000,121,1543475389483904000,/map,1.31536471844,18.5023078918,2.28482151031,0.00746392780303,-0.00487795122299,0.0125795797297,0.999881117707
1543475389584040000,122,1543475389584040000,/map,1.31995892525,18.5008010864,2.2861623764,0.00750026192481,-0.00511367187332,0.0125774073453,0.999879695391
1543475389684225000,123,1543475389684225000,/map,1.31370091438,18.4997901917,2.28085660934,0.00754649674117,-0.00490608357286,0.0125812499986,0.99988033928
1543475389784403000,124,1543475389784403000,/map,1.31541740894,18.5058631897,2.28582525253,0.00753037696487,-0.00498184372827,0.0125882342949,0.999879998306
1543475389884570000,125,1543475389884570000,/map,1.31304562092,18.5018959045,2.28079223633,0.00745741179433,-0.00491227519522,0.012560556989,0.999881237433
1543475389984767000,126,1543475389984767000,/map,1.31907427311,18.5036945343,2.28388047218,0.00754010409172,-0.00486433567622,0.0125734222518,0.999880689943
1543475390084885000,127,1543475390084885000,/map,1.31791567802,18.4991130829,2.28539991379,0.00754816789252,-0.00502818018309,0.0126233339712,0.999879189705
1543475390185095000,128,1543475390185095000,/map,1.31578433514,18.5063114166,2.28244423866,0.00746420220613,-0.0048676628484,0.0125614372613,0.999881393885
1543475390285264000,129,1543475390285264000,/map,1.31877601147,18.5009365082,2.28389191628,0.0075205434648,-0.00495485868018,0.0126146208255,0.999879873856
1543475390385424000,130,1543475390385424000,/map,1.31795942783,18.5053443909,2.2834584713,0.00759988360962,-0.00500626773204,0.0126544153885,0.999878515033
1543475390485565000,131,1543475390485565000,/map,1.3189047575,18.4993839264,2.27895069122,0.00753691248748,-0.00482399674622,0.0125990691266,0.999880586602
1543475390585779000,132,1543475390585779000,/map,1.31242692471,18.5015773773,2.2854475975,0.0074941785791,-0.00493269489218,0.0126038197029,0.999880317607
1543475390685960000,133,1543475390685960000,/map,1.31792509556,18.4986572266,2.28458213806,0.00747248194874,-0.00504647688666,0.0125825706784,0.999880179821
1543475390786103000,134,1543475390786103000,/map,1.31652343273,18.5013217926,2.28252124786,0.00755907026464,-0.00485929348996,0.0125741581594,0.999880562002
1543475390886319000,135,1543475390886319000,/map,1.3133494854,18.5021762848,2.28856754303,0.00760234262048,-0.00505600369438,0.0127709166374,0.999876764857
1543475390986459000,136,1543475390986459000,/map,1.32047379017,18.5023956299,2.28287744522,0.00751190109198,-0.00488224825352,0.012611099818,0.999880340418
1543475391086673000,137,1543475391086673000,/map,1.31258547306,18.5017108917,2.28534531593,0.0075537650603,-0.00500367970427,0.0125810879863,0.9998798028
1543475391186789000,138,1543475391186789000,/map,1.31675326824,18.5022068024,2.28029060364,0.00751053435183,-0.00491837647451,0.0126388138011,0.999879823695
1543475391286983000,139,1543475391286983000,/map,1.31867218018,18.4953269958,2.28286933899,0.00748374615757,-0.00486654015269,0.0125796273415,0.999881024576
1543475391387133000,140,1543475391387133000,/map,1.32169485092,18.5008583069,2.28057527542,0.00755154911711,-0.00485063773848,0.0125468627575,0.999881003747
1543475391487294000,141,1543475391487294000,/map,1.31813216209,18.4994277954,2.28399348259,0.0075087602483,-0.00494797741927,0.0126023339233,0.999880151427
1543475391587482000,142,1543475391587482000,/map,1.32093453407,18.5050315857,2.28251266479,0.00748145305989,-0.0049699404845,0.0126356218474,0.999879827085
1543475391687723000,143,1543475391687723000,/map,1.32067298889,18.4998912811,2.28272223473,0.00754567220171,-0.00495963933182,0.0126134634483,0.999879675435
1543475391787837000,144,1543475391787837000,/map,1.31381118298,18.5039863586,2.28605675697,0.00743902863389,-0.0050112430452,0.0125522282686,0.999880987849
1543475391887998000,145,1543475391887998000,/map,1.31864762306,18.500869751,2.28277635574,0.0074958954373,-0.00484710631514,0.0125997097341,0.999880775106
1543475391988193000,146,1543475391988193000,/map,1.32390058041,18.4983539581,2.28178477287,0.00748246890674,-0.00470299445749,0.0126406911208,0.99988104664
1543475392088334000,147,1543475392088334000,/map,1.31675446033,18.5043869019,2.28379869461,0.00746181048298,-0.00501265143479,0.0126249011061,0.999879896079
1543475392188537000,148,1543475392188537000,/map,1.31851887703,18.4981975555,2.28351140022,0.0075474813371,-0.00495692489063,0.0125744883898,0.999880166151
1543475392288726000,149,1543475392288726000,/map,1.31718766689,18.5030517578,2.28498744965,0.00747737055868,-0.00493513267751,0.0126041494273,0.999880427257
1543475392388857000,150,1543475392388857000,/map,1.31302928925,18.4990406036,2.28242015839,0.00754418750837,-0.00498290130481,0.0125678174016,0.999880145765
1543475392489065000,151,1543475392489065000,/map,1.31904244423,18.5015144348,2.28545403481,0.00753985943244,-0.00492998072027,0.0126122898589,0.999879880763
1543475392589217000,152,1543475392589217000,/map,1.31330299377,18.4964485168,2.28528213501,0.00754252518593,-0.00504568798003,0.0126023694404,0.999879408544
1543475392689393000,153,1543475392689393000,/map,1.31987702847,18.5039463043,2.28411769867,0.00755049251073,-0.00493987053105,0.0126030688981,0.999879867982
1543475392789560000,154,1543475392789560000,/map,1.31382250786,18.5020217896,2.28405714035,0.00751036492111,-0.00499350916224,0.0126176638604,0.999879719688
1543475392889742000,155,1543475392889742000,/map,1.321377635,18.5007171631,2.28178572655,0.00754215936923,-0.0048566837641,0.012592200126,0.999880475332
1543475392989943000,156,1543475392989943000,/map,1.31546354294,18.5003757477,2.28660750389,0.00757584197072,-0.00500058928738,0.0126166646537,0.999879202953
1543475393090075000,157,1543475393090075000,/map,1.31897032261,18.5032463074,2.28338170052,0.00752594520206,-0.005064921709,0.0125720586314,0.999879817807
1543475393190282000,158,1543475393190282000,/map,1.31571638584,18.4990558624,2.28377771378,0.00743060701583,-0.00483790091202,0.0127375332454,0.999879560768
1543475393290470000,159,1543475393290470000,/map,1.32172143459,18.5031700134,2.28349804878,0.00758803625495,-0.00490031764286,0.0125800406588,0.999880068393
1543475393390622000,160,1543475393390622000,/map,1.31586968899,18.5002479553,2.28514480591,0.00757775760053,-0.00499390283059,0.0126323556803,0.999879023739
1543475393490816000,161,1543475393490816000,/map,1.31818223,18.5061130524,2.28467655182,0.00754593670457,-0.00492782935004,0.0125734788716,0.999880334323
1543475393590992000,162,1543475393590992000,/map,1.31391596794,18.5002670288,2.28714823723,0.00750187340372,-0.00505255570049,0.0125842577998,0.999879907805
1543475393691202000,163,1543475393691202000,/map,1.31773090363,18.5044059753,2.28346371651,0.00750785901171,-0.00494280916607,0.0126176853667,0.999879990152
1543475393791325000,164,1543475393791325000,/map,1.31446444988,18.5012626648,2.27981805801,0.00755828502886,-0.00487398217971,0.0125738436315,0.999880500401
1543475393891522000,165,1543475393891522000,/map,1.31709349155,18.5007019043,2.28684711456,0.00741957127195,-0.00507542046717,0.0126614887808,0.999879431117
1543475393991683000,166,1543475393991683000,/map,1.3203805685,18.4979820251,2.28064870834,0.00755352479075,-0.00492654976348,0.0126354649308,0.999879501938
1543475394091854000,167,1543475394091854000,/map,1.31655812263,18.5066604614,2.28383207321,0.00755442820362,-0.0049246693419,0.0126033414818,0.999879909804
1543475394192030000,168,1543475394192030000,/map,1.32190465927,18.5007610321,2.2844247818,0.00752143716164,-0.00496155253256,0.0126424030036,0.999879483051
1543475394292216000,169,1543475394292216000,/map,1.32086789608,18.5040302277,2.28303790092,0.00750908088347,-0.00499730147011,0.0126671920582,0.999879084154
1543475394392392000,170,1543475394392392000,/map,1.31469905376,18.497297287,2.28830480576,0.0075217618406,-0.00504979953202,0.0125985001927,0.999879592959
1543475394492558000,171,1543475394492558000,/map,1.31544911861,18.498456955,2.28099966049,0.00748478965024,-0.00488534056753,0.012586344071,0.999880840558
1543475394592751000,172,1543475394592751000,/map,1.32068586349,18.5000705719,2.28691411018,0.00753162459431,-0.00501709167647,0.0126543249087,0.999878978418
1543475394692913000,173,1543475394692913000,/map,1.31518149376,18.5002174377,2.28318309784,0.00748790470974,-0.00492348253898,0.0126290815886,0.999880091261
1543475394793063000,174,1543475394793063000,/map,1.32442486286,18.500579834,2.28358006477,0.00756731998574,-0.00493413500545,0.0126723806723,0.999878893041
1543475394893286000,175,1543475394893286000,/map,1.31609249115,18.4998626709,2.28488445282,0.00747096970712,-0.00496168719055,0.0125818094273,0.999880625047
1543475394993443000,176,1543475394993443000,/map,1.32068026066,18.5014152527,2.28139209747,0.00757021141571,-0.00497206105441,0.0126396824186,0.999879097159
1543475395093645000,177,1543475395093645000,/map,1.31552124023,18.5010204315,2.28980493546,0.00749706149305,-0.00507029713139,0.0126357389018,0.999879204833
1543475395193769000,178,1543475395193769000,/map,1.31646704674,18.4998874664,2.28344988823,0.00743913901093,-0.00497253756258,0.0126520000331,0.999879922779
1543475395293961000,179,1543475395293961000,/map,1.32407295704,18.5032520294,2.28177309036,0.00753318088967,-0.00488682230301,0.0125224824527,0.999881271745
1543475395394169000,180,1543475395394169000,/map,1.31753432751,18.4998703003,2.28258633614,0.00756411343393,-0.00500005049224,0.0126101900967,0.999879376119
1543475395494344000,181,1543475395494344000,/map,1.31924891472,18.5038433075,2.28760409355,0.00747077113035,-0.00507442318997,0.0125398579244,0.999880587756
1543475395594556000,182,1543475395594556000,/map,1.32067883015,18.5019416809,2.28341984749,0.00755456766869,-0.00487697641498,0.012685889511,0.999879098599
1543475395694710000,183,1543475395694710000,/map,1.31236565113,18.5031585693,2.28552365303,0.00752162583718,-0.00499651313126,0.0125742574687,0.999880166845
1543475395794856000,184,1543475395794856000,/map,1.32055056095,18.5051383972,2.28273820877,0.00752025927187,-0.00490171724923,0.0126253323586,0.999880002726
1543475395895075000,185,1543475395895075000,/map,1.31754410267,18.4980545044,2.28270053864,0.00745758465386,-0.00496348200185,0.0126080559983,0.999880385447
1543475395995230000,186,1543475395995230000,/map,1.32017993927,18.5057468414,2.28437256813,0.00754849130427,-0.0049545230101,0.0126707852467,0.999878954765
1543475396095416000,187,1543475396095416000,/map,1.31714689732,18.4996166229,2.28678274155,0.00749956535252,-0.00496892780128,0.0126007063071,0.999880137055
1543475396195591000,188,1543475396195591000,/map,1.31922209263,18.5040054321,2.28512835503,0.00757845752331,-0.00494547839964,0.0126651064508,0.999878844812
1543475396295788000,189,1543475396295788000,/map,1.31527090073,18.5008411407,2.28487610817,0.00749151269201,-0.00496255200046,0.0125489451873,0.99988088005
1543475396395950000,190,1543475396395950000,/map,1.31608307362,18.5056495667,2.28752541542,0.00752093794787,-0.00503430330644,0.0126683908089,0.999878794233
1543475396496109000,191,1543475396496109000,/map,1.32148551941,18.4999828339,2.28516721725,0.00758026543983,-0.0049959135681,0.0126263949519,0.999879069975
1543475396596339000,192,1543475396596339000,/map,1.31667256355,18.5024318695,2.28342437744,0.00746906036193,-0.00485173567667,0.0125956202837,0.999881004994
1543475396696514000,193,1543475396696514000,/map,1.32153689861,18.5052471161,2.28603243828,0.00755924803122,-0.00501874218502,0.0126468489256,0.999878856266
1543475396796677000,194,1543475396796677000,/map,1.31343889236,18.4997234344,2.28332614899,0.00745068902805,-0.00495851830097,0.0126106455043,0.999880428826
1543475396896877000,195,1543475396896877000,/map,1.31870496273,18.4993572235,2.28234004974,0.00757222173725,-0.00488082203898,0.0125486354548,0.999880678272
1543475396997050000,196,1543475396997050000,/map,1.31539273262,18.5001735687,2.2876739502,0.00749908285731,-0.00504334300216,0.0126014440432,0.999879758799
1543475397097198000,197,1543475397097198000,/map,1.31908106804,18.4996395111,2.28286933899,0.00746718233317,-0.00495317700303,0.0126268294657,0.999880128017
1543475397197382000,198,1543475397197382000,/map,1.31396794319,18.4990215302,2.28310513496,0.00755481338504,-0.00498037202446,0.012573403495,0.999880007908
1543475397297583000,199,1543475397297583000,/map,1.31940031052,18.5033092499,2.28048014641,0.00747448317834,-0.00485971594805,0.0126267567433,0.999880533002
1543475397397759000,200,1543475397397759000,/map,1.31777834892,18.4996414185,2.2845864296,0.00754035318178,-0.00500832791995,0.0125955207291,0.999879699055
1543475397497934000,201,1543475397497934000,/map,1.31232202053,18.4990196228,2.28657078743,0.00758058924676,-0.00499373645652,0.0125498891042,0.999880041578
1543475397598107000,202,1543475397598107000,/map,1.31717026234,18.5038604736,2.28380155563,0.0074628867489,-0.00498486652069,0.01260551334,0.999880271563
1543475397698309000,203,1543475397698309000,/map,1.31558799744,18.5002269745,2.28481698036,0.00751098918983,-0.00486817141863,0.012617792134,0.999880331475
1543475397798485000,204,1543475397798485000,/map,1.32063114643,18.5049495697,2.28508853912,0.00757385223326,-0.00500474684592,0.0126799528834,0.999878396639
1543475397898657000,205,1543475397898657000,/map,1.317045331,18.5030536652,2.28168749809,0.00749197538636,-0.00484412728193,0.012601418867,0.999880797384
1543475397998831000,206,1543475397998831000,/map,1.3174905777,18.4979076385,2.288428545,0.00752461017314,-0.00506827345468,0.0126861655767,0.999878369627
1543475398099009000,207,1543475398099009000,/map,1.3154489994,18.5035743713,2.28238081932,0.00745234680792,-0.00490930498715,0.0126128398019,0.999880631637
1543475398199198000,208,1543475398199198000,/map,1.31685161591,18.5010986328,2.2847366333,0.00753856749652,-0.00486392085482,0.0126325893653,0.999879957775
1543475398299401000,209,1543475398299401000,/map,1.31846559048,18.4952831268,2.28814220428,0.00754621179694,-0.00497933334408,0.0126354289602,0.999879296146
1543475398399568000,210,1543475398399568000,/map,1.31751954556,18.5015029907,2.28057193756,0.00747692225847,-0.0048775935508,0.012623283583,0.99988047157
1543475398499723000,211,1543475398499723000,/map,1.31997406483,18.5020618439,2.28862953186,0.00755342166191,-0.00504088400442,0.0126009362293,0.999879368582
1543475398599922000,212,1543475398599922000,/map,1.31379985809,18.5025558472,2.28515410423,0.00745527436059,-0.00495225417103,0.0125616013961,0.999881043041
1543475398700075000,213,1543475398700075000,/map,1.31898891926,18.5036849976,2.28584194183,0.00747662881204,-0.00509534933691,0.0125632713864,0.999880143642
1543475398800273000,214,1543475398800273000,/map,1.31625473499,18.5045089722,2.28205347061,0.00752787341792,-0.00495561661016,0.0126283196088,0.999879642022
1543475398900433000,215,1543475398900433000,/map,1.31398141384,18.4977169037,2.28630614281,0.00747318206501,-0.00509320827069,0.0125951327275,0.999879779479
1543475399000665000,216,1543475399000665000,/map,1.32052195072,18.5019798279,2.28397727013,0.0075433028597,-0.00499314012395,0.0126147102318,0.999879510851
1543475399100848000,217,1543475399100848000,/map,1.3177241087,18.4980278015,2.28770804405,0.00746844620806,-0.00517198278812,0.0125686236222,0.999879744072
1543475399200988000,218,1543475399200988000,/map,1.31554484367,18.5026321411,2.28289675713,0.00750177920147,-0.00491672950885,0.012619551643,0.999880140815
1543475399301187000,219,1543475399301187000,/map,1.31656527519,18.4964160919,2.28553771973,0.00748871647775,-0.004961221989,0.0125865611291,0.999880434792
1543475399401330000,220,1543475399401330000,/map,1.31591057777,18.5038890839,2.28245234489,0.00748802440319,-0.00496873722318,0.0126361751377,0.999879776883
1543475399501541000,221,1543475399501541000,/map,1.3161251545,18.4984989166,2.2847225666,0.00754148978424,-0.00499511270416,0.0126291874625,0.999879331922
1543475399601708000,222,1543475399601708000,/map,1.31868851185,18.50532341,2.28635168076,0.00752686214014,-0.00503906291333,0.0126102161951,0.999879461055
1543475399701904000,223,1543475399701904000,/map,1.3126565218,18.4997520447,2.28392863274,0.00744983317507,-0.00503836070428,0.0125942335508,0.999880242923
1543475399802099000,224,1543475399802099000,/map,1.32055401802,18.4996242523,2.28371143341,0.00752500735529,-0.00501786150522,0.0126436738933,0.999879159119
1543475399902269000,225,1543475399902269000,/map,1.31587338448,18.5029945374,2.2832839489,0.00746107361233,-0.00496348804288,0.0126100600539,0.999880334116
1543475400002460000,226,1543475400002460000,/map,1.31986963749,18.502746582,2.2880320549,0.00758014417733,-0.00499445038598,0.012698192129,0.999878168977
1543475400102644000,227,1543475400102644000,/map,1.31553161144,18.5045509338,2.27998542786,0.00750337305485,-0.00490260103672,0.0125656260995,0.999880877373
1543475400202788000,228,1543475400202788000,/map,1.31917178631,18.5007972717,2.28458094597,0.0075581308897,-0.00492551225508,0.0126209963563,0.999879654977
1543475400303007000,229,1543475400303007000,/map,1.31454658508,18.5015792847,2.28424572945,0.00753367407273,-0.00510914113586,0.0125172207463,0.999880222635
1543475400403211000,230,1543475400403211000,/map,1.32039749622,18.50141716,2.28896045685,0.00755547111638,-0.00506413988481,0.0127306263794,0.999877592756
1543475400503417000,231,1543475400503417000,/map,1.31614005566,18.5009078979,2.28250432014,0.00749013175666,-0.00497395065306,0.012645695636,0.999879614815
1543475400603547000,232,1543475400603547000,/map,1.32290780544,18.4972496033,2.28464984894,0.00754687665259,-0.00503265013272,0.0126360379858,0.999879016496
1543475400703759000,233,1543475400703759000,/map,1.31734979153,18.4999790192,2.28528833389,0.00744637757246,-0.0049481302352,0.0125577614553,0.999881177988
1543475400803917000,234,1543475400803917000,/map,1.31497132778,18.4944915771,2.28605127335,0.007466597941,-0.00499508640736,0.0126596033384,0.999879509476
1543475400904102000,235,1543475400904102000,/map,1.32068896294,18.5025157928,2.2854487896,0.00755231055724,-0.00496757629678,0.0126896713751,0.999878621649
1543475401004311000,236,1543475401004311000,/map,1.31617236137,18.504076004,2.28457331657,0.00749462661583,-0.00498424513724,0.0125570516857,0.99988064704
1543475401104479000,237,1543475401104479000,/map,1.31910324097,18.4974918365,2.28295898438,0.00748411088867,-0.00499231472635,0.0126480301381,0.99987953885
1543475401204624000,238,1543475401204624000,/map,1.32208395004,18.5000324249,2.28518223763,0.00750117001698,-0.00500663550333,0.0126579761855,0.999879213549
1543475401304840000,239,1543475401304840000,/map,1.31422305107,18.5002555847,2.28082323074,0.00745808637878,-0.00494853850744,0.0126271177774,0.999880215231
1543475401405015000,240,1543475401405015000,/map,1.32128167152,18.497674942,2.28270483017,0.00754902433718,-0.00495596426228,0.0126088281488,0.999879726818
1543475401505167000,241,1543475401505167000,/map,1.31615912914,18.5041332245,2.28563523293,0.00752580293996,-0.00499504015947,0.0125648523861,0.999880261006
1543475401605367000,242,1543475401605367000,/map,1.31613922119,18.500120163,2.28035140038,0.00747790600924,-0.00493272270972,0.0126198586794,0.999880236996
1543475401705566000,243,1543475401705566000,/map,1.31682395935,18.5045070648,2.28548312187,0.00754672588874,-0.00497152522858,0.0125428740841,0.999880496447
1543475401805748000,244,1543475401805748000,/map,1.31736910343,18.502248764,2.27744555473,0.00744748274379,-0.00492536372717,0.0125869530362,0.999880915112
1543475401905958000,245,1543475401905958000,/map,1.31891489029,18.5026741028,2.28687739372,0.00751701382571,-0.00502007365618,0.0126155933244,0.999879562832
1543475402006176000,246,1543475402006176000,/map,1.3140707016,18.5030136108,2.28169393539,0.00745892660958,-0.00498575887921,0.0125702455349,0.999880740663
1543475402106290000,247,1543475402106290000,/map,1.32057213783,18.5033397675,2.28262448311,0.0075162181456,-0.00484492782209,0.0126033520428,0.999880587199
1543475402206541000,248,1543475402206541000,/map,1.3158608675,18.4989681244,2.28596568108,0.00750323466926,-0.00502311908633,0.0125869352719,0.999880012204
1543475402306668000,249,1543475402306668000,/map,1.31782507896,18.5015029907,2.28387188911,0.0075210529062,-0.00489570866053,0.0126283933882,0.999879987539
1543475402406857000,250,1543475402406857000,/map,1.32028722763,18.5011444092,2.28160762787,0.00752631795776,-0.00484055227435,0.0126430558608,0.999880031169
1543475402507031000,251,1543475402507031000,/map,1.31628465652,18.4994373322,2.28679132462,0.00747200176306,-0.00497049342913,0.0125581583196,0.999880870926
1543475402607292000,252,1543475402607292000,/map,1.32038342953,18.4971618652,2.28303933144,0.00753304619468,-0.00501529436768,0.0126567319265,0.99987894626
1543475402707471000,253,1543475402707471000,/map,1.31330406666,18.50050354,2.28654813766,0.00748139227149,-0.00499136882117,0.0125611333904,0.999880659346
1543475402807556000,254,1543475402807556000,/map,1.31984758377,18.503786087,2.28430747986,0.00752062040274,-0.00499570523424,0.0126246946703,0.999879542886
1543475402907787000,255,1543475402907787000,/map,1.31626725197,18.5026321411,2.28139877319,0.00752620528996,-0.00492009974536,0.0126057330739,0.999880114987
1543475403007958000,256,1543475403007958000,/map,1.32295739651,18.4998435974,2.28632593155,0.00751232947719,-0.00503139422919,0.0126383065471,0.999879254303
1543475403108126000,257,1543475403108126000,/map,1.31794607639,18.5041255951,2.28226518631,0.00751507509743,-0.00491157062021,0.0126279091229,0.999879960811
1543475403208344000,258,1543475403208344000,/map,1.31999874115,18.5006790161,2.28667807579,0.00753663918246,-0.00502757265319,0.0126645256674,0.999878758837
1543475403308565000,259,1543475403308565000,/map,1.31861639023,18.5009670258,2.28303360939,0.00751121472836,-0.00494213938347,0.0126006489723,0.999880183101
1543475403408709000,260,1543475403408709000,/map,1.31773209572,18.5060634613,2.28773069382,0.00752896255691,-0.00493114193855,0.0126665437431,0.999879271328
1543475403508908000,261,1543475403508908000,/map,1.32179057598,18.49958992,2.28598427773,0.00752291374793,-0.00498961569479,0.0125906935598,0.999879984768
1543475403609066000,262,1543475403609066000,/map,1.31672811508,18.5026817322,2.28316235542,0.00753376556985,-0.00499292486527,0.0125823476921,0.999879991601
1543475403709228000,263,1543475403709228000,/map,1.31659817696,18.4961490631,2.28018450737,0.00747264897355,-0.00495885437938,0.0125598972845,0.999880902038
1543475403809475000,264,1543475403809475000,/map,1.32015454769,18.5004920959,2.28477478027,0.00752857991402,-0.00500443348722,0.0126448296008,0.999879184909
1543475403909637000,265,1543475403909637000,/map,1.31573867798,18.5022220612,2.27946138382,0.00747133097246,-0.00494866049188,0.0126011589077,0.999880443237
1543475404009792000,266,1543475404009792000,/map,1.31955754757,18.5000915527,2.28691315651,0.00756078368697,-0.00502448696118,0.012633334329,0.99987898665
1543475404110001000,267,1543475404110001000,/map,1.31335604191,18.5055618286,2.28636026382,0.00749007995907,-0.00507755251098,0.012606790109,0.999879585753
1543475404210175000,268,1543475404210175000,/map,1.31632304192,18.5019378662,2.28325843811,0.00753411714581,-0.00497230679042,0.0125670842484,0.999880283653
1543475404310354000,269,1543475404310354000,/map,1.32261443138,18.5058135986,2.2828400135,0.00758956778715,-0.0050367640049,0.0127324946832,0.999877449015
1543475404410562000,270,1543475404410562000,/map,1.31969118118,18.4984722137,2.28365945816,0.0075154324398,-0.00508518552377,0.012678118557,0.99987845485
1543475404510756000,271,1543475404510756000,/map,1.3188431263,18.5014877319,2.28074097633,0.00752030127841,-0.00489400377797,0.012599611996,0.99988036463
1543475404610893000,272,1543475404610893000,/map,1.31827485561,18.5016269684,2.28795146942,0.00755934047822,-0.00501548279266,0.0127442573605,0.999877635118
1543475404711100000,273,1543475404711100000,/map,1.31628227234,18.5015563965,2.28151583672,0.00748649390314,-0.00495059692884,0.0125674781776,0.999880744135
1543475404811278000,274,1543475404811278000,/map,1.31902873516,18.4984054565,2.28609585762,0.00753197286089,-0.00496789115635,0.0126992432207,0.999878651969
1543475404911450000,275,1543475404911450000,/map,1.31453990936,18.5063381195,2.28519940376,0.0075625800888,-0.00500275352734,0.0126437526943,0.999878950352
1543475405011686000,276,1543475405011686000,/map,1.31849086285,18.5037937164,2.28281617165,0.00755928545315,-0.00503382730712,0.0126177549379,0.999879147721
1543475405111849000,277,1543475405111849000,/map,1.31297659874,18.5035953522,2.28084588051,0.00754463963966,-0.00497255965926,0.0125858745866,0.999879966708
1543475405212050000,278,1543475405212050000,/map,1.31725430489,18.5039558411,2.28177404404,0.00748929158808,-0.00491267716004,0.0126161365851,0.999880297442
1543475405312241000,279,1543475405312241000,/map,1.31948709488,18.498506546,2.28068828583,0.00749873229791,-0.00486492360755,0.0126199697028,0.999880411798
1543475405412400000,280,1543475405412400000,/map,1.31698405743,18.5039596558,2.2840116024,0.00756096128887,-0.0049647725438,0.0127020981371,0.999878412409
1543475405516808000,281,1543475405516808000,/map,1.31517696381,18.5002307892,2.28240609169,0.00749533662377,-0.00499365720637,0.0125560845053,0.999880606902
1543475405612785000,282,1543475405612785000,/map,1.32072377205,18.501663208,2.28537106514,0.0075173177671,-0.00496129215132,0.0127850575704,0.99987770143
1543475405712963000,283,1543475405712963000,/map,1.31782793999,18.4998455048,2.2851331234,0.00749975732438,-0.00497499303127,0.0125303128482,0.99988099009
1543475405813169000,284,1543475405813169000,/map,1.3171954155,18.5051059723,2.27834892273,0.00747995581729,-0.00498736126032,0.0126914438248,0.999879044556
1543475405913357000,285,1543475405913357000,/map,1.32034611702,18.5004329681,2.28354907036,0.00753680025195,-0.00493345471197,0.0126319983968,0.999879637898
1543475406013560000,286,1543475406013560000,/map,1.31675887108,18.5006771088,2.28235173225,0.00753299575266,-0.00489278626742,0.0126780661857,0.999879283341
1543475406113692000,287,1543475406113692000,/map,1.31283783913,18.4998130798,2.28250670433,0.00753500466153,-0.00476113450795,0.0125396338645,0.999881649439
1543475406213895000,288,1543475406213895000,/map,1.31953692436,18.5034980774,2.28044724464,0.00753748290104,-0.00489751832811,0.0126245351027,0.999879903678
1543475406314054000,289,1543475406314054000,/map,1.3214597702,18.5008182526,2.28582048416,0.00744855509014,-0.00493157941652,0.0125959001424,0.999880763817
1543475406414259000,290,1543475406414259000,/map,1.31685912609,18.5012779236,2.27772688866,0.00749278859817,-0.00493650855763,0.0126079499931,0.99988025713
1543475406514485000,291,1543475406514485000,/map,1.31696677208,18.5051403046,2.28498029709,0.00751238999921,-0.00483346903263,0.0126228099155,0.999880425973
1543475406614655000,292,1543475406614655000,/map,1.31861913204,18.4981174469,2.28421401978,0.00752770979085,-0.00504441670631,0.01265323943,0.999878884154
1543475406714848000,293,1543475406714848000,/map,1.3125,18.5006847382,2.2801463604,0.00749495818137,-0.00490739827759,0.0126052739432,0.999880417906
1543475406815018000,294,1543475406815018000,/map,1.31964159012,18.5024356842,2.28420376778,0.0075394945151,-0.00489134512943,0.0126053897656,0.999880160276
1543475406915199000,295,1543475406915199000,/map,1.31839799881,18.4979286194,2.2846660614,0.00747207010345,-0.00500339782941,0.0125807012367,0.999880422918
1543475407015398000,296,1543475407015398000,/map,1.31725549698,18.5045871735,2.28253054619,0.00748144706679,-0.00496190574155,0.0125934511434,0.999880399063
1543475407115568000,297,1543475407115568000,/map,1.32127988338,18.4999313354,2.28240585327,0.00749446742275,-0.00488522215317,0.0126175078398,0.999880375874
1543475407215739000,298,1543475407215739000,/map,1.31593346596,18.5037441254,2.28210473061,0.00755237343648,-0.00497248095792,0.0125515294469,0.999880340439
1543475407315945000,299,1543475407315945000,/map,1.32171702385,18.4988479614,2.28479981422,0.00751365756747,-0.00498790441075,0.0125900653291,0.999880070816
1543475407416151000,300,1543475407416151000,/map,1.31817698479,18.4999713898,2.28224420547,0.00757916193589,-0.00493194948334,0.0126606953905,0.99987896216
1543475407516336000,301,1543475407516336000,/map,1.31445252895,18.5044364929,2.28108000755,0.00750262114287,-0.00502729111711,0.0124398748333,0.999881836286
1543475407616512000,302,1543475407616512000,/map,1.31882441044,18.4984874725,2.28550887108,0.00755547148307,-0.00498097244257,0.0125860867672,0.999879840373
1543475407716700000,303,1543475407716700000,/map,1.31665313244,18.5029830933,2.28223967552,0.00747729165641,-0.0049844327346,0.0126455594999,0.999879660442
1543475407816925000,304,1543475407816925000,/map,1.31593108177,18.4973602295,2.28380465508,0.00749997870865,-0.00498237183274,0.0125689111542,0.999880467237
1543475407917098000,305,1543475407917098000,/map,1.31690096855,18.5027217865,2.28003644943,0.00746214817527,-0.00492507034779,0.012576046935,0.999880944448
1543475408017269000,306,1543475408017269000,/map,1.31749629974,18.5021438599,2.28606653214,0.00756113830228,-0.00493953299552,0.0125781974213,0.999880102388
1543475408117434000,307,1543475408117434000,/map,1.32100367546,18.5001049042,2.27836441994,0.00747916038553,-0.00486774036953,0.0127002512338,0.999879528184
1543475408217678000,308,1543475408217678000,/map,1.31581223011,18.5033779144,2.28746795654,0.00754338760225,-0.00500157328794,0.0126660230412,0.999878819372
1543475408317846000,309,1543475408317846000,/map,1.31793045998,18.5029640198,2.28233337402,0.0074689278495,-0.00495040286889,0.0125860479385,0.99988064289
1543475408417984000,310,1543475408417984000,/map,1.31347751617,18.5063743591,2.28395009041,0.00761858520802,-0.00495794393712,0.0126344898473,0.999878865472
1543475408518218000,311,1543475408518218000,/map,1.31544673443,18.4969787598,2.28016257286,0.00748578881809,-0.00488541046844,0.0126364581173,0.999880200652
1543475408618417000,312,1543475408618417000,/map,1.31838548183,18.5029258728,2.28068852425,0.00749504930722,-0.00487026255801,0.0126084345941,0.999880558945
1543475408718591000,313,1543475408718591000,/map,1.31421649456,18.5010032654,2.28151416779,0.00753020443426,-0.00488595375102,0.0125370553618,0.999881115793
1543475408818771000,314,1543475408818771000,/map,1.31929981709,18.5011806488,2.27944755554,0.00744181251429,-0.00488466361022,0.0126194572641,0.999880747283
1543475408918928000,315,1543475408918928000,/map,1.31633198261,18.5012779236,2.28294324875,0.00755221461501,-0.00490299907084,0.0124616418097,0.999881809084
1543475409019199000,316,1543475409019199000,/map,1.31167912483,18.5033473969,2.2866601944,0.00753192503865,-0.00487518588333,0.0126314479052,0.999879967392
1543475409119322000,317,1543475409119322000,/map,1.32140576839,18.500579834,2.27867674828,0.00749719572019,-0.00479920049352,0.0126475644552,0.999880392269
1543475409219533000,318,1543475409219533000,/map,1.31690597534,18.4994125366,2.2829875946,0.00752236244191,-0.00492268139039,0.0125471531976,0.999880868013
1543475409319732000,319,1543475409319732000,/map,1.32108652592,18.4954338074,2.2794342041,0.00751371996747,-0.00491370766827,0.0125851676323,0.999880499382
1543475409419886000,320,1543475409419886000,/map,1.31802356243,18.5005702972,2.28380441666,0.00753696426221,-0.00492044410441,0.012640071585,0.999879598747
1543475409520125000,321,1543475409520125000,/map,1.31290435791,18.4994049072,2.28586125374,0.00739409386219,-0.00488247514522,0.0123956437153,0.999883911676
1543475409620273000,322,1543475409620273000,/map,1.32104289532,18.5011482239,2.28146982193,0.00756078184327,-0.00489456592105,0.0126587211653,0.999879310007
1543475409720484000,323,1543475409720484000,/map,1.31762635708,18.4981441498,2.28366756439,0.00752360506673,-0.00497945695855,0.0126051688094,0.999879847829
1543475409820668000,324,1543475409820668000,/map,1.3154784441,18.5040569305,2.27774310112,0.00750557932433,-0.0049530885024,0.0126131853745,0.999880013176
1543475409920824000,325,1543475409920824000,/map,1.31886029243,18.4999332428,2.2864382267,0.00755492446443,-0.00505877336856,0.0126298387952,0.999878902218
1543475410021019000,326,1543475410021019000,/map,1.3177189827,18.5000648499,2.28075504303,0.00757253530792,-0.00492722929092,0.0125910475959,0.99987991511
1543475410121218000,327,1543475410121218000,/map,1.32176697254,18.4994659424,2.28669643402,0.00754010167886,-0.00505690977588,0.0126363951084,0.999878940697
1543475410221406000,328,1543475410221406000,/map,1.31786727905,18.5016117096,2.28027963638,0.00745895273415,-0.00492114045782,0.012641657949,0.999880160262
1543475410321590000,329,1543475410321590000,/map,1.31925880909,18.503993988,2.28644633293,0.00750180405454,-0.00501110815307,0.0125448121788,0.999880612583
1543475410421787000,330,1543475410421787000,/map,1.31845903397,18.5014228821,2.2791864872,0.00749851367763,-0.00487985987819,0.0127025676819,0.999879294732
1543475410521996000,331,1543475410521996000,/map,1.31664764881,18.5039329529,2.2854449749,0.00752854809975,-0.0049417544293,0.0124815240133,0.999881548777
1543475410622189000,332,1543475410622189000,/map,1.31979453564,18.5042285919,2.27759027481,0.00745475844757,-0.00493773684416,0.0126107418198,0.999880500121
1543475410722354000,333,1543475410722354000,/map,1.31590664387,18.499584198,2.2860648632,0.00750761051071,-0.00496740699264,0.0125473162912,0.999880755643
1543475410822566000,334,1543475410822566000,/map,1.31791782379,18.5043373108,2.28165411949,0.00748463846317,-0.00496422803666,0.0126101760339,0.999880152862
1543475410922737000,335,1543475410922737000,/map,1.31511616707,18.500164032,2.28267359734,0.00752815303501,-0.00486672252891,0.0125442215633,0.99988113515
1543475411022990000,336,1543475411022990000,/map,1.31836855412,18.5045700073,2.28039646149,0.00747407372863,-0.00496749001326,0.0126144624715,0.99988016162
1543475411123327000,337,1543475411123327000,/map,1.31490600109,18.4988651276,2.2852139473,0.00752569176118,-0.004937893743,0.0125475254514,0.999880763278
1543475411223558000,338,1543475411223558000,/map,1.31905579567,18.5030460358,2.27722883224,0.00744981154458,-0.00491266760771,0.0126021456649,0.999880768857
1543475411323932000,339,1543475411323932000,/map,1.31759619713,18.497253418,2.28282165527,0.00753319842167,-0.00490280680573,0.0126006351198,0.999880211526
1543475411424180000,340,1543475411424180000,/map,1.3164191246,18.5053215027,2.28437066078,0.0075083895352,-0.00498272776575,0.0126412350248,0.999879490583
1543475411524478000,341,1543475411524478000,/map,1.32204413414,18.5001029968,2.28006577492,0.00752864946996,-0.00486519893366,0.0126440026819,0.999879882022
1543475411624770000,342,1543475411624770000,/map,1.31377792358,18.4999008179,2.28381705284,0.00752380343102,-0.00496174432992,0.0125383109434,0.99988077501
1543475411725066000,343,1543475411725066000,/map,1.31771695614,18.507232666,2.28366827965,0.00757227967136,-0.00498026580074,0.0126892323348,0.999878413066
1543475411825375000,344,1543475411825375000,/map,1.31505072117,18.501663208,2.28254675865,0.00746447549098,-0.00499489778772,0.0126041452032,0.99988022689
1543475411925636000,345,1543475411925636000,/map,1.32160198689,18.5021629333,2.28165173531,0.00754622055288,-0.00489593603101,0.0126284096563,0.999879796593
1543475412025962000,346,1543475412025962000,/map,1.31575477123,18.5010166168,2.28581380844,0.00751190939699,-0.00504517652125,0.0126018229393,0.999879648493
1543475412126240000,347,1543475412126240000,/map,1.31988143921,18.4964179993,2.28098320961,0.00752558696691,-0.00487872045055,0.0125934598078,0.999880477056
1543475412226535000,348,1543475412226535000,/map,1.31808829308,18.5030345917,2.28689742088,0.00758583189682,-0.00503169302287,0.0126327065998,0.999878768623
1543475412326813000,349,1543475412326813000,/map,1.31893515587,18.4984455109,2.28312849998,0.00748172602612,-0.00498559830057,0.0125938554908,0.999880274027
1543475412427080000,350,1543475412427080000,/map,1.31417369843,18.5014381409,2.28477406502,0.00750283790701,-0.00492253433726,0.012678281506,0.999879361352
1543475412527425000,351,1543475412527425000,/map,1.31951320171,18.4970035553,2.27794766426,0.00751556461706,-0.00479892801545,0.0126017522479,0.999880834109
1543475412627689000,352,1543475412627689000,/map,1.31880199909,18.5018978119,2.28411340714,0.00752032567556,-0.00501810873672,0.0126448535049,0.999879178184
1543475412727997000,353,1543475412727997000,/map,1.31991839409,18.4982089996,2.28019356728,0.00755104780096,-0.00493865551159,0.0126284310742,0.99987954979
1543475412828321000,354,1543475412828321000,/map,1.31890845299,18.500005722,2.28887319565,0.00756353824243,-0.00507454411592,0.0126023091891,0.999879104539
1543475412928572000,355,1543475412928572000,/map,1.31517291069,18.500585556,2.28119540215,0.00751428714318,-0.00486698561622,0.0125405067121,0.999881284769
1543475413028885000,356,1543475413028885000,/map,1.31853878498,18.500213623,2.28732991219,0.00748863774497,-0.00502433079223,0.012655897353,0.999879245043
1543475413129138000,357,1543475413129138000,/map,1.31418931484,18.5076541901,2.28307318687,0.00751456846932,-0.00500884109279,0.0125821776508,0.999880058596
1543475413229434000,358,1543475413229434000,/map,1.31630551815,18.4980602264,2.2797935009,0.00751492005342,-0.00487259894822,0.012605991224,0.999880429222
1543475413329790000,359,1543475413329790000,/map,1.3167090416,18.5020236969,2.28348374367,0.00753685113824,-0.00490209656762,0.0125673358234,0.99988060657
1543475413430041000,360,1543475413430041000,/map,1.32261240482,18.5006008148,2.28472423553,0.00755285637355,-0.00501915525356,0.0127661166022,0.999877386837
1543475413530354000,361,1543475413530354000,/map,1.31675326824,18.5019226074,2.28163480759,0.00750166912116,-0.00490856273636,0.0126177652791,0.99988020431
1543475413630608000,362,1543475413630608000,/map,1.3163895607,18.4999866486,2.28821563721,0.00750709097639,-0.00506732057152,0.0126043854214,0.999879540402
1543475413730956000,363,1543475413730956000,/map,1.31778001785,18.498632431,2.28006196022,0.00755321384742,-0.00491332681391,0.0126293962343,0.999879646023
1543475413831226000,364,1543475413831226000,/map,1.31483995914,18.5055351257,2.28767824173,0.00755488509119,-0.00503785804542,0.0125878683345,0.999879537379
1543475413931475000,365,1543475413931475000,/map,1.3154964447,18.5007514954,2.28485226631,0.00750900554651,-0.00495151782798,0.0125520271682,0.999880764852
1543475414031770000,366,1543475414031770000,/map,1.31596159935,18.4967823029,2.28193807602,0.00750616697536,-0.00498635416484,0.0125295434516,0.999880895042
1543475414132093000,367,1543475414132093000,/map,1.31381952763,18.5027275085,2.28822135925,0.00756831994846,-0.00503709565983,0.012662010623,0.999878503463
1543475414232351000,368,1543475414232351000,/map,1.32046163082,18.4980010986,2.28323936462,0.00753155530586,-0.00494946891571,0.0126356518222,0.999879552114
1543475414332656000,369,1543475414332656000,/map,1.31436610222,18.5003223419,2.28381705284,0.00750542721478,-0.00495620181719,0.0125761027467,0.999880465989
1543475414432945000,370,1543475414432945000,/map,1.31738519669,18.5029964447,2.28767967224,0.0075132921891,-0.00506906475371,0.0127194457247,0.999878027923
1543475414533260000,371,1543475414533260000,/map,1.31592333317,18.5036888123,2.28022265434,0.00749462241195,-0.00497253594216,0.0125745822377,0.999880485059
1543475414633517000,372,1543475414633517000,/map,1.31996047497,18.4990787506,2.28375148773,0.0074924768747,-0.00483995754333,0.0126405594802,0.999880319767
1543475414733810000,373,1543475414733810000,/map,1.31457602978,18.5039539337,2.28089141846,0.00758656235186,-0.00494619900859,0.0126103925897,0.999879471329
1543475414834088000,374,1543475414834088000,/map,1.3183825016,18.5019397736,2.28573250771,0.00753167499241,-0.00502956843096,0.0126013827815,0.999879583983
1543475414934366000,375,1543475414934366000,/map,1.3147854805,18.499294281,2.2841565609,0.00745577719332,-0.00492077799053,0.0125896507782,0.999880841913
1543475415034671000,376,1543475415034671000,/map,1.32075440884,18.4976139069,2.28129816055,0.0075766312172,-0.00488787131985,0.0126652196722,0.999879140488
1543475415134978000,377,1543475415134978000,/map,1.31807863712,18.5032787323,2.28487110138,0.0075221236486,-0.004968449983,0.0125140840896,0.999881057856
1543475415235257000,378,1543475415235257000,/map,1.32052075863,18.49817276,2.2800681591,0.00745434687725,-0.0048515368689,0.0126789965052,0.999880061983
1543475415335530000,379,1543475415335530000,/map,1.31528294086,18.4959125519,2.28582620621,0.00757122430111,-0.00492123463365,0.0125805623303,0.999880086542
1543475415435781000,380,1543475415435781000,/map,1.31872236729,18.5006561279,2.28418731689,0.00754991148823,-0.00503432268249,0.0126502603658,0.999878805328
1543475415536131000,381,1543475415536131000,/map,1.3144851923,18.4973602295,2.28285694122,0.00754308715909,-0.00488709266986,0.0126296522711,0.999879847804
1543475415636379000,382,1543475415636379000,/map,1.31683671474,18.5017852783,2.28607273102,0.00749268023521,-0.00496616806057,0.0125737825812,0.999880541319
