%time,field.header.seq,field.header.stamp,field.header.frame_id,field.pose.position.x,field.pose.position.y,field.pose.position.z,field.pose.orientation.x,field.pose.orientation.y,field.pose.orientation.z,field.pose.orientation.w
1543475343053827000,0,1543475343053827000,/map,1.33987796307,18.5373268127,0.25870347023,0.0,0.0,0.707106796641,0.707106765732
1543475377465127000,1,1543475377465127000,/map,1.32995951176,18.5222892762,0.311525344849,0.00188027618434,-0.00878553349685,0.724414899479,0.689305688628
1543475377565285000,2,1543475377565285000,/map,1.34790015221,18.539691925,0.285774350166,0.00185113492992,-0.00888882048593,0.716436612393,0.697593106755
1543475377665405000,3,1543475377665405000,/map,1.33408761024,18.5253772736,0.278728365898,0.00180739355714,-0.00877602290442,0.715865897286,0.698180300391
1543475377765557000,4,1543475377765557000,/map,1.34212875366,18.5352249146,0.290885210037,0.00181931615209,-0.00881235155862,0.715904041341,0.698140699387
1543475377865710000,5,1543475377865710000,/map,1.32968735695,18.5256175995,0.279260993004,0.00177645800081,-0.00870060473266,0.715896449723,0.698149996024
1543475377965843000,6,1543475377965843000,/map,1.34046256542,18.5373210907,0.283346891403,0.00182285727257,-0.00879555430284,0.715928933142,0.698115375927
1543475378065967000,7,1543475378065967000,/map,1.33053600788,18.5283508301,0.284489631653,0.00190262959078,-0.00885468919376,0.716002350885,0.698039116388
1543475378166117000,8,1543475378166117000,/map,1.34462952614,18.5360908508,0.286729097366,0.00181288179902,-0.00877573835041,0.715856648234,0.698189772953
1543475378266268000,9,1543475378266268000,/map,1.32787382603,18.5311546326,0.275623321533,0.00183006092759,-0.00880944806183,0.715971911351,0.6980711043
1543475378366397000,10,1543475378366397000,/map,1.33862948418,18.5370426178,0.296265125275,0.00182228711939,-0.00887352982484,0.71589085146,0.69815344197
1543475378466568000,11,1543475378466568000,/map,1.3340113163,18.5222301483,0.274202466011,0.00181899883068,-0.00877378297279,0.715893436498,0.698152060482
1543475378566688000,12,1543475378566688000,/map,1.33800578117,18.5351104736,0.291698336601,0.00179770606207,-0.00879067205908,0.715883852628,0.698161730464
1543475378666809000,13,1543475378666809000,/map,1.34265446663,18.5281219482,0.292328000069,0.0018079688952,-0.00896346733132,0.716294282714,0.697738409473
1543475378766960000,14,1543475378766960000,/map,1.33170211315,18.5438327789,0.275990009308,0.00175826866716,-0.00880917182236,0.715726592296,0.698322813649
1543475378867125000,15,1543475378867125000,/map,1.33921146393,18.5355377197,0.291119813919,0.00183602151775,-0.00876826224241,0.71611589713,0.697923898774
1543475378967243000,16,1543475378967243000,/map,1.33277213573,18.5271396637,0.273610949516,0.00182814543134,-0.00872826913566,0.715581929087,0.698471887742
1543475379067373000,17,1543475379067373000,/map,1.34316802025,18.5342597961,0.284709334373,0.00180731568382,-0.00878211574273,0.716110098293,0.697929749456
1543475379167541000,18,1543475379167541000,/map,1.32903039455,18.5279712677,0.284393072128,0.00186637065517,-0.0087841832412,0.7156887332,0.6983616484
1543475379267703000,19,1543475379267703000,/map,1.33673465252,18.5387744904,0.278674125671,0.00182052815076,-0.00875132008164,0.716121475065,0.697918428633
1543475379367846000,20,1543475379367846000,/map,1.33999598026,18.528301239,0.295439600945,0.0017297493113,-0.00893590194254,0.715820165404,0.698225356476
1543475379467978000,21,1543475379467978000,/map,1.32607984543,18.5413570404,0.27765750885,0.00182586063521,-0.00878545713021,0.715958759946,0.698084906034
1543475379568094000,22,1543475379568094000,/map,1.33504128456,18.5279636383,0.286302566528,0.00184369250364,-0.00877500993544,0.716004216398,0.698038367211
1543475379668259000,23,1543475379668259000,/map,1.34380400181,18.537519455,0.275926351547,0.00181513797781,-0.00881884585501,0.715848934634,0.698197132632
1543475379768449000,24,1543475379768449000,/map,1.32724201679,18.5260944366,0.2941634655,0.00176318380219,-0.0088431076345,0.715885479571,0.698159488061
1543475379868556000,25,1543475379868556000,/map,1.33928573132,18.5279140472,0.281681060791,0.00182129066191,-0.00883755294397,0.71605380765,0.697986765711
1543475379968707000,26,1543475379968707000,/map,1.33869278431,18.5429573059,0.274937272072,0.00183832634716,-0.00876104816316,0.715752025709,0.698297144692
1543475380068863000,27,1543475380068863000,/map,1.33404052258,18.5235481262,0.295696854591,0.00174586390555,-0.00886733968073,0.71591222412,0.698131799592
1543475380169015000,28,1543475380169015000,/map,1.33652925491,18.5431976318,0.277669906616,0.00185776514449,-0.00878565122526,0.716008547288,0.698033753662
1543475380269180000,29,1543475380269180000,/map,1.33842182159,18.523771286,0.291561365128,0.00178069017971,-0.00885981883149,0.715851143575,0.698194437814
1543475380369333000,30,1543475380369333000,/map,1.33623719215,18.5344219208,0.273930072784,0.00179573591418,-0.00878667631276,0.716019919864,0.698022237476
1543475380469465000,31,1543475380469465000,/map,1.33373773098,18.5304489136,0.293372511864,0.00177463518125,-0.00882831325738,0.7159334504,0.698110454121
1543475380569623000,32,1543475380569623000,/map,1.33584928513,18.5394744873,0.279343008995,0.00184701427335,-0.00887526267225,0.71584661602,0.698198711387
1543475380669759000,33,1543475380669759000,/map,1.34224438667,18.5250549316,0.293040275574,0.00178753810019,-0.00887892654161,0.715950265091,0.698092534903
1543475380769900000,34,1543475380769900000,/map,1.33362734318,18.5377025604,0.278844237328,0.0018256610806,-0.00880675077036,0.715876618581,0.698168872889
1543475380870054000,35,1543475380870054000,/map,1.3362455368,18.5241737366,0.28444314003,0.00182906802653,-0.00880502013502,0.715920540667,0.69812384688
1543475380970180000,36,1543475380970180000,/map,1.33727526665,18.5382881165,0.289876580238,0.00167694876968,-0.00884876464421,0.715909057322,0.69813545165
1543475381070331000,37,1543475381070331000,/map,1.33678138256,18.5396118164,0.271065235138,0.00195585110846,-0.00874366220043,0.716003982677,0.698038695066
1543475381170497000,38,1543475381170497000,/map,1.33621668816,18.5289440155,0.296548366547,0.00177538912331,-0.00891143594018,0.715919716768,0.698123480085
1543475381270636000,39,1543475381270636000,/map,1.33553922176,18.5337944031,0.276079416275,0.00184743929988,-0.00878768728134,0.715920614278,0.698123941412
1543475381370793000,40,1543475381370793000,/map,1.34849488735,18.5234642029,0.285716056824,0.00181907266282,-0.00876820524856,0.715961817414,0.698082004894
1543475381470957000,41,1543475381470957000,/map,1.33075201511,18.5354404449,0.282796740532,0.00179101031493,-0.00879517736202,0.715910416646,0.698134451574
1543475381571129000,42,1543475381571129000,/map,1.34101128578,18.5308074951,0.291561365128,0.00182179896751,-0.00881861146063,0.715936899406,0.698106918179
1543475381671243000,43,1543475381671243000,/map,1.33332002163,18.5222759247,0.280732750893,0.0017103850163,-0.00889657978407,0.71594228254,0.698100690103
1543475381771436000,44,1543475381771436000,/map,1.34106135368,18.5387191772,0.277158498764,0.00183857010748,-0.00878759439878,0.715955309008,0.698088385054
1543475381871543000,45,1543475381871543000,/map,1.32884931564,18.5319442749,0.291340231895,0.00173653295634,-0.00888157888727,0.715923234669,0.698120350707
1543475381971704000,46,1543475381971704000,/map,1.34174489975,18.5418586731,0.281786203384,0.00177962303843,-0.00886777989745,0.715949586323,0.698093392939
1543475382071855000,47,1543475382071855000,/map,1.33457255363,18.5245304108,0.278406023979,0.00189937438639,-0.00870760138475,0.715950290205,0.698094371851
1543475382172006000,48,1543475382172006000,/map,1.34026396275,18.5446205139,0.29192006588,0.0018138532757,-0.00883902485471,0.715943610416,0.698099798224
1543475382272179000,49,1543475382272179000,/map,1.33735215664,18.5280075073,0.277833938599,0.00183161681254,-0.00880192530542,0.715920047955,0.698124384495
1543475382372364000,50,1543475382372364000,/map,1.3346143961,18.5441818237,0.285819292068,0.00181592277958,-0.00877099870588,0.715910200313,0.698134913247
1543475382472505000,51,1543475382472505000,/map,1.33275198936,18.5228900909,0.286977648735,0.00175431573171,-0.00884746457401,0.715859918163,0.698185664644
1543475382572650000,52,1543475382572650000,/map,1.34222173691,18.5355434418,0.283963322639,0.00181378835965,-0.00887492075283,0.715955375409,0.698087277048
1543475382672799000,53,1543475382672799000,/map,1.32760584354,18.530954361,0.288109540939,0.00180610810672,-0.00882291753228,0.7159153697,0.698128983446
1543475382772980000,54,1543475382772980000,/map,1.34911048412,18.531211853,0.286750555038,0.0017480747412,-0.00885735403709,0.715941015056,0.698102395408
1543475382873116000,55,1543475382873116000,/map,1.3333427906,18.5158863068,0.284979701042,0.00172604002711,-0.00885391880593,0.715921584736,0.698122420078
1543475382973286000,56,1543475382973286000,/map,1.33496904373,18.5380496979,0.281729340553,0.00175753718782,-0.0088084998977,0.715957855642,0.698085718474
1543475383073434000,57,1543475383073434000,/map,1.3454862833,18.5246887207,0.284753680229,0.00186403992321,-0.00889694907994,0.7158797733,0.698164393128
1543475383173590000,58,1543475383173590000,/map,1.33423578739,18.5393924713,0.283706784248,0.00177443616449,-0.00877418120394,0.715917795538,0.698127191243
1543475383273766000,59,1543475383273766000,/map,1.33981716633,18.5267696381,0.288425326347,0.00181007251324,-0.00887026496991,0.715985379098,0.698056572889
1543475383373920000,60,1543475383373920000,/map,1.33358061314,18.5384140015,0.278585076332,0.00185690540223,-0.00878041059992,0.715878355607,0.698167341162
1543475383474041000,61,1543475383474041000,/map,1.34340691566,18.5262069702,0.293162703514,0.00168554304975,-0.00884388894294,0.715952875544,0.698090556141
1543475383574227000,62,1543475383574227000,/map,1.3350430727,18.5366573334,0.277213573456,0.00184095521948,-0.00880531928343,0.715884492174,0.698160777401
1543475383674386000,63,1543475383674386000,/map,1.33116412163,18.5410575867,0.273609399796,0.00184000131287,-0.00877346553677,0.716068592078,0.697972357717
1543475383774522000,64,1543475383774522000,/map,1.33588564396,18.5184078217,0.291436076164,0.00180360985314,-0.00886554045772,0.715866622635,0.698178435488
1543475383874688000,65,1543475383874688000,/map,1.34345686436,18.5365905762,0.287997364998,0.00174272182944,-0.00888300558323,0.715942149551,0.698100919373
1543475383974849000,66,1543475383974849000,/map,1.33096623421,18.5267677307,0.280445218086,0.00180404986333,-0.00880601779782,0.715907658012,0.698137110211
1543475384075064000,67,1543475384075064000,/map,1.34781050682,18.5328922272,0.289796710014,0.00178535036565,-0.00890752291934,0.715875404717,0.698168943366
1543475384175162000,68,1543475384175162000,/map,1.33256554604,18.5360965729,0.280335068703,0.00177440707823,-0.00882915804776,0.715951270174,0.698092168832
1543475384275334000,69,1543475384275334000,/map,1.34334456921,18.529882431,0.283936738968,0.00190049136708,-0.0087592575942,0.715926052029,0.698118579873
1543475384375485000,70,1543475384375485000,/map,1.32923567295,18.5340518951,0.287202715874,0.00166667973664,-0.00879871129503,0.715889943477,0.698155708769
1543475384475672000,71,1543475384475672000,/map,1.34853649139,18.5252323151,0.280299305916,0.00185312662742,-0.00885447315368,0.715968261761,0.698074216955
1543475384575796000,72,1543475384575796000,/map,1.33330893517,18.543554306,0.287151813507,0.00182573279451,-0.008775177846,0.715905071905,0.698140094088
1543475384675977000,73,1543475384675977000,/map,1.33310508728,18.5281257629,0.287635564804,0.00168249223018,-0.00882113976076,0.715889434385,0.698155909844
1543475384776107000,74,1543475384776107000,/map,1.34086668491,18.5365600586,0.276894807816,0.00189531797627,-0.00888845248048,0.716189208274,0.697846989772
1543475384876261000,75,1543475384876261000,/map,1.33710491657,18.5262718201,0.287394285202,0.00176761308115,-0.00880834489914,0.715619854352,0.698432181863
1543475384976428000,76,1543475384976428000,/map,1.33113360405,18.5349845886,0.288341999054,0.00189142587663,-0.00894026896437,0.716171203987,0.697864815476
1543475385076592000,77,1543475385076592000,/map,1.34458827972,18.5237998962,0.273049116135,0.00182504481638,-0.00876627628732,0.715866189844,0.69818007695
1543475385176802000,78,1543475385176802000,/map,1.3354985714,18.5321464539,0.285097837448,0.00185529150959,-0.00880147850825,0.715994927041,0.698047531563
1543475385276946000,79,1543475385276946000,/map,1.33223545551,18.5509586334,0.279331564903,0.00172957027433,-0.00883328723867,0.715875091835,0.698170347776
1543475385377093000,80,1543475385377093000,/map,1.34301459789,18.5282363892,0.2786911726,0.00186348701474,-0.00876205139816,0.715918711441,0.698126172322
1543475385477255000,81,1543475385477255000,/map,1.3244150877,18.5289039612,0.27817595005,0.00184210372895,-0.00871778942136,0.71600477731,0.698038513028
1543475385577426000,82,1543475385577426000,/map,1.3482170105,18.5325889587,0.284588813782,0.00183836331468,-0.00877912382251,0.715898280399,0.698146975591
1543475385677551000,83,1543475385677551000,/map,1.32611775398,18.5439815521,0.278031349182,0.00180065645367,-0.00877168748907,0.715911928222,0.698133172228
1543475385777728000,84,1543475385777728000,/map,1.3414696455,18.5295295715,0.284566164017,0.00187443925295,-0.00876931811238,0.715971649746,0.698071760135
1543475385877895000,85,1543475385877895000,/map,1.34631037712,18.5214614868,0.288270831108,0.00179606982476,-0.00882409720304,0.71587194993,0.698173517649
1543475385978099000,86,1543475385978099000,/map,1.33060503006,18.5371589661,0.281101346016,0.00176369485494,-0.00876764138655,0.715979804885,0.698063705433
1543475386078222000,87,1543475386078222000,/map,1.34601593018,18.5320911407,0.286856412888,0.0018012645277,-0.00888271839726,0.715951870885,0.698090804506
1543475386178416000,88,1543475386178416000,/map,1.3329488039,18.5389862061,0.280721187592,0.00177537102473,-0.00886686655627,0.715973113598,0.698069285487
1543475386278561000,89,1543475386278561000,/map,1.34534358978,18.5237197876,0.282547473907,0.00185591036808,-0.00873064237575,0.715871163643,0.698175342264
1543475386378741000,90,1543475386378741000,/map,1.34023213387,18.5399169922,0.28073489666,0.00182512891407,-0.00886006752669,0.715996427196,0.698045331157
1543475386478909000,91,1543475386478909000,/map,1.32728016376,18.529466629,0.288447141647,0.00174327790749,-0.00874055962131,0.715833097628,0.698214537187
1543475386579031000,92,1543475386579031000,/map,1.34280133247,18.5259380341,0.272036194801,0.00190982843851,-0.00881336168918,0.715965477947,0.698077439543
1543475386679210000,93,1543475386679210000,/map,1.33367788792,18.5446777344,0.289428591728,0.00179808372583,-0.00877777047931,0.715918725516,0.698126131939
1543475386779388000,94,1543475386779388000,/map,1.33770108223,18.5233669281,0.280601263046,0.00181913901397,-0.00883666537169,0.715918650903,0.698125410917
1543475386879575000,95,1543475386879575000,/map,1.32807731628,18.535943985,0.296231746674,0.0017321823483,-0.00887014335273,0.715935250568,0.698108184378
1543475386979747000,96,1543475386979747000,/map,1.34031069279,18.5256843567,0.27931702137,0.00178876493708,-0.00879907285652,0.716004080677,0.698038346433
1543475387079914000,97,1543475387079914000,/map,1.33097016811,18.5359973907,0.281972050667,0.00190970082206,-0.00880360658659,0.715740200909,0.698308538081
1543475387180041000,98,1543475387180041000,/map,1.33028125763,18.5270080566,0.295578598976,0.00164891930767,-0.00889436139019,0.716049423987,0.697990969718
1543475387280185000,99,1543475387280185000,/map,1.34087181091,18.5396995544,0.275979995728,0.00186502749736,-0.00878987258979,0.715864487437,0.698181420148
1543475387380389000,100,1543475387380389000,/map,1.33692550659,18.5241661072,0.290126204491,0.00168091637734,-0.00889152019039,0.71583690681,0.698208878659
1543475387480504000,101,1543475387480504000,/map,1.32958114147,18.5345954895,0.275429368019,0.00188749794579,-0.00869724496756,0.715966467015,0.698077942204
1543475387580729000,102,1543475387580729000,/map,1.34788787365,18.5368156433,0.291544675827,0.00182955130107,-0.00887655009905,0.715954542291,0.69808806964
1543475387680908000,103,1543475387680908000,/map,1.33390522003,18.5317153931,0.276976823807,0.00180721992664,-0.00878384023709,0.715903863493,0.698141272482
1543475387781033000,104,1543475387781033000,/map,1.33646833897,18.5215187073,0.291785240173,0.00186360155098,-0.00885497306831,0.716005564722,0.698035921518
1543475387881170000,105,1543475387881170000,/map,1.34179449081,18.5433006287,0.282538175583,0.00183078856783,-0.00880817643663,0.715921919612,0.698122388454
1543475387981348000,106,1543475387981348000,/map,1.33702886105,18.5239562988,0.279924035072,0.00180826969945,-0.00880313882609,0.715968982537,0.698074244584
1543475388081549000,107,1543475388081549000,/map,1.33839678764,18.5358715057,0.289084076881,0.00180582210236,-0.00885599886975,0.715899340883,0.698145002141
1543475388181707000,108,1543475388181707000,/map,1.33175742626,18.5298233032,0.272842049599,0.00186669967922,-0.00874870470094,0.716014622528,0.698027962136
1543475388281877000,109,1543475388281877000,/map,1.34618163109,18.5396289825,0.29042994976,0.00182841522293,-0.0088343679368,0.715963030366,0.698079902297
1543475388382042000,110,1543475388382042000,/map,1.33168590069,18.5294837952,0.281169295311,0.0018546398174,-0.00874871395832,0.715889790973,0.698156019451
1543475388482259000,111,1543475388482259000,/map,1.33506858349,18.5296554565,0.296753525734,0.00174966380183,-0.00872606133684,0.715917264754,0.698128401197
1543475388582391000,112,1543475388582391000,/map,1.34401011467,18.5328598022,0.274852275848,0.00184331020418,-0.00878940133079,0.715963171153,0.698080286345
1543475388682521000,113,1543475388682521000,/map,1.33107030392,18.5320453644,0.291731119156,0.00180165190445,-0.00887554933717,0.715967298619,0.698075071881
1543475388782726000,114,1543475388782726000,/map,1.33734631538,18.5374736786,0.277121663094,0.00179441555837,-0.00878485838687,0.715980055003,0.698063154144
1543475388882894000,115,1543475388882894000,/map,1.34397947788,18.5217037201,0.287554264069,0.00186474663533,-0.00877963062032,0.715874440067,0.698171344919
1543475388983042000,116,1543475388983042000,/map,1.32928824425,18.5342712402,0.28878223896,0.00176726075993,-0.00886026662831,0.715966130315,0.698076552182
1543475389083190000,117,1543475389083190000,/map,1.34161555767,18.5217857361,0.289267420769,0.00174795703636,-0.00889744387532,0.715898372267,0.698145615702
1543475389183402000,118,1543475389183402000,/map,1.33826816082,18.5371398926,0.280980587006,0.00181163088087,-0.00880678296729,0.715943884776,0.69809993011
1543475389283532000,119,1543475389283532000,/map,1.3395678997,18.5378856659,0.278456807137,0.00178307806356,-0.00880979124387,0.715937606845,0.698106404007
1543475389383729000,120,1543475389383729000,/map,1.33014535904,18.5255756378,0.284832835197,0.00187895053609,-0.00869805378611,0.715924862748,0.698120623033
1543475389483904000,121,1543475389483904000,/map,1.34418618679,18.5305175781,0.282203793526,0.00181084588074,-0.00883560348894,0.715912974047,0.698131267412
1543475389584040000,122,1543475389584040000,/map,1.32964408398,18.534444809,0.287598490715,0.00182850484384,-0.00872703861781,0.715913340242,0.698132211426
1543475389684225000,123,1543475389684225000,/map,1.34556889534,18.5297050476,0.287844419479,0.00168757160396,-0.00891939903526,0.715915136933,0.698128292747
1543475389784403000,124,1543475389784403000,/map,1.3258523941,18.529384613,0.275869488716,0.00186707582005,-0.00880529970905,0.715920241851,0.698124049173
1543475389884570000,125,1543475389884570000,/map,1.3369833231,18.5422439575,0.291121840477,0.00180215114596,-0.00884746320319,0.715928381645,0.698115339326
1543475389984767000,126,1543475389984767000,/map,1.32967221737,18.5277061462,0.276071190834,0.00179943287569,-0.00874674146986,0.715884519205,0.698161594273
1543475390084885000,127,1543475390084885000,/map,1.34398233891,18.5362224579,0.28729391098,0.00189216695773,-0.00877123946014,0.715922217313,0.698122384557
1543475390185095000,128,1543475390185095000,/map,1.33713960648,18.5250167847,0.28725528717,0.00178235529372,-0.00889273030935,0.715983147488,0.6980586473
1543475390285264000,129,1543475390285264000,/map,1.33211040497,18.5432624817,0.279794931412,0.00183547589759,-0.00872006251037,0.715860843697,0.698186109859
1543475390385424000,130,1543475390385424000,/map,1.34154951572,18.5261211395,0.285670638084,0.00181469059474,-0.00882134379741,0.715979527362,0.698063182807
1543475390485565000,131,1543475390485565000,/map,1.33698117733,18.5407218933,0.283363223076,0.00183432494887,-0.00891382114236,0.715997258376,0.698043770148
1543475390585779000,132,1543475390585779000,/map,1.33803987503,18.5235500336,0.274752259254,0.00191782209501,-0.00874059265541,0.715891418217,0.698154281891
1543475390685960000,133,1543475390685960000,/map,1.32573652267,18.533826828,0.292268157005,0.00181128903092,-0.00878711733108,0.715938142345,0.69810606797
1543475390786103000,134,1543475390786103000,/map,1.34368729591,18.5257949829,0.284045100212,0.0017152626715,-0.00885227642038,0.715904963038,0.698139512543
1543475390886319000,135,1543475390886319000,/map,1.33342373371,18.5348014832,0.280781030655,0.00190894829688,-0.00878112764286,0.715907082835,0.698137734592
1543475390986459000,136,1543475390986459000,/map,1.33078730106,18.5338821411,0.294957756996,0.00180230984313,-0.00895044546797,0.716188589531,0.697847078829
1543475391086673000,137,1543475391086673000,/map,1.34606039524,18.5325317383,0.277495980263,0.00185802867604,-0.00876428798907,0.715826740927,0.698220460857
1543475391186789000,138,1543475391186789000,/map,1.32481384277,18.5316638947,0.288148760796,0.00180292612813,-0.00887950701741,0.715897806435,0.698146284494
1543475391286983000,139,1543475391286983000,/map,1.33987164497,18.5328121185,0.275552272797,0.00183343212693,-0.00878846341988,0.715998510552,0.698044077637
1543475391387133000,140,1543475391387133000,/map,1.33947432041,18.5185127258,0.285763263702,0.00185012219068,-0.00873308220671,0.715876113215,0.698170252052
1543475391487294000,141,1543475391487294000,/map,1.34367275238,18.537103653,0.278606891632,0.00190954700521,-0.00876973307206,0.715871905224,0.698173947325
1543475391587482000,142,1543475391587482000,/map,1.33437013626,18.5281143188,0.287736296654,0.00181123985749,-0.00880814283183,0.715972328136,0.698070742384
1543475391687723000,143,1543475391687723000,/map,1.34332454205,18.5407028198,0.281353831291,0.0017762005133,-0.00880440614299,0.715979812175,0.698063203515
1543475391787837000,144,1543475391787837000,/map,1.33982300758,18.5254364014,0.283261418343,0.00182840725531,-0.0088426311388,0.715925486498,0.698118301281
1543475391887998000,145,1543475391887998000,/map,1.32683205605,18.5376605988,0.289708614349,0.00171616284357,-0.00880377751627,0.715855525616,0.698190815417
1543475391988193000,146,1543475391988193000,/map,1.3418315649,18.5281963348,0.279811739922,0.0018733826843,-0.00872773348678,0.715964339937,0.698079781288
1543475392088334000,147,1543475392088334000,/map,1.34700810909,18.5259437561,0.281099081039,0.00196572865763,-0.00861634602767,0.715988819736,0.698055803289
1543475392188537000,148,1543475392188537000,/map,1.330519557,18.5404472351,0.286146879196,0.0017316962746,-0.00882080063458,0.715939524489,0.698104427703
1543475392288726000,149,1543475392288726000,/map,1.33950328827,18.5227832794,0.283553123474,0.00183135412271,-0.00884204321936,0.715878391067,0.698166594458
1543475392388857000,150,1543475392388857000,/map,1.33513307571,18.5377807617,0.286779403687,0.0017978891828,-0.00877691336774,0.715955064884,0.698088875755
1543475392489065000,151,1543475392489065000,/map,1.32860970497,18.5257225037,0.280185818672,0.00181078678968,-0.00885805447786,0.715883957962,0.698160736976
1543475392589217000,152,1543475392589217000,/map,1.34417998791,18.5343742371,0.288810133934,0.00184585115056,-0.008817427725,0.715970853951,0.698072046492
1543475392689393000,153,1543475392689393000,/map,1.32782649994,18.521818161,0.285444378853,0.00176544975257,-0.00890122739019,0.715926432031,0.698116749016
1543475392789560000,154,1543475392789560000,/map,1.34540402889,18.5419178009,0.283275008202,0.00184598810391,-0.00883202108054,0.715933530018,0.698110140542
1543475392889742000,155,1543475392889742000,/map,1.32757651806,18.5302314758,0.284321665764,0.00177981633613,-0.00884154838476,0.715954102576,0.698089093369
1543475392989943000,156,1543475392989943000,/map,1.34742927551,18.5299396515,0.279832959175,0.00189868645676,-0.00876735646152,0.715907933027,0.69813706382
1543475393090075000,157,1543475393090075000,/map,1.32974004745,18.5307292938,0.291766524315,0.00182120696057,-0.00889283348149,0.715960665434,0.698081604305
1543475393190282000,158,1543475393190282000,/map,1.34261703491,18.5362758636,0.28048479557,0.00173981041329,-0.00890316507747,0.715880607111,0.698163779549
1543475393290470000,159,1543475393290470000,/map,1.33052515984,18.524438858,0.284473419189,0.00183473647895,-0.00867484613618,0.716142414558,0.697897859903
1543475393390622000,160,1543475393390622000,/map,1.34719002247,18.5385112762,0.283556461334,0.00189912441347,-0.00883089713126,0.715808341163,0.69823837427
1543475393490816000,161,1543475393490816000,/map,1.32998132706,18.5278491974,0.287124276161,0.00182753154547,-0.00888941002132,0.715990654507,0.698050872914
1543475393590992000,162,1543475393590992000,/map,1.33956336975,18.5422744751,0.2845287323,0.00185075558517,-0.00882039524475,0.715871397647,0.698173987887
1543475393691202000,163,1543475393691202000,/map,1.32998073101,18.5245094299,0.289949417114,0.00173203066712,-0.0088773025904,0.715928303769,0.698115217876
1543475393791325000,164,1543475393791325000,/map,1.3404955864,18.5388412476,0.280098319054,0.00181405133481,-0.00880389320073,0.715966779874,0.698076479191
1543475393891522000,165,1543475393891522000,/map,1.33003485203,18.528793335,0.276496291161,0.00189770070008,-0.00879102465434,0.715882557455,0.698162789434
1543475393991683000,166,1543475393991683000,/map,1.34045600891,18.5295295715,0.294198989868,0.00165834610856,-0.00883514734998,0.716036289052,0.69800517392
1543475394091854000,167,1543475394091854000,/map,1.34238827229,18.5262508392,0.274777770042,0.00185731824034,-0.00882479492628,0.715937766361,0.698105857347
1543475394192030000,168,1543475394192030000,/map,1.33204460144,18.5458030701,0.287340521812,0.00185923675472,-0.00882411483267,0.715911350852,0.698132950059
1543475394292216000,169,1543475394292216000,/map,1.34686255455,18.5250644684,0.285341739655,0.00181045734197,-0.00882673628138,0.715988452412,0.698053971397
1543475394392392000,170,1543475394392392000,/map,1.33958041668,18.5375404358,0.281977176666,0.00177631691825,-0.00884330388581,0.715995800145,0.698046312826
1543475394492558000,171,1543475394492558000,/map,1.32855927944,18.5209541321,0.293902873993,0.0017473343206,-0.00888955608712,0.715882495235,0.698161998129
1543475394592751000,172,1543475394592751000,/map,1.33470582962,18.5296421051,0.274005413055,0.00183796880339,-0.00874702837872,0.715912951108,0.69813233545
1543475394692913000,173,1543475394692913000,/map,1.34612977505,18.5322551727,0.293164134026,0.00177865708052,-0.00887315979582,0.716017494871,0.698023674708
1543475394793063000,174,1543475394793063000,/map,1.32861912251,18.5303821564,0.279767036438,0.00181309013527,-0.00877622402563,0.715933846682,0.698110605686
1543475394893286000,175,1543475394893286000,/map,1.35305595398,18.5317764282,0.284308552742,0.00186232997314,-0.00883978258711,0.716012459516,0.69802904509
1543475394993443000,176,1543475394993443000,/map,1.32734644413,18.5288906097,0.286505937576,0.00177353129281,-0.00879137772643,0.715855616117,0.6981907355
1543475395093645000,177,1543475395093645000,/map,1.34480583668,18.5338954926,0.278234362602,0.00183768775691,-0.00886861891705,0.71599973392,0.698041797838
1543475395193769000,178,1543475395193769000,/map,1.33065879345,18.5305786133,0.298544764519,0.00171594952396,-0.0088864712458,0.715953686464,0.698089109631
1543475395293961000,179,1543475395293961000,/map,1.3365354538,18.5285224915,0.277407646179,0.00174428424732,-0.00877635467229,0.71597883575,0.698064638718
1543475395394169000,180,1543475395394169000,/map,1.35050296783,18.537361145,0.280421257019,0.00187011854006,-0.00878251153656,0.715787026546,0.698260913109
1543475395494344000,181,1543475395494344000,/map,1.33106052876,18.5271224976,0.283734798431,0.00181385410408,-0.00888404508604,0.716000194453,0.698041191635
1543475395594556000,182,1543475395594556000,/map,1.34118843079,18.5375804901,0.292945504189,0.00169384992503,-0.00887091154614,0.715840306272,0.698205624238
1543475395694710000,183,1543475395694710000,/map,1.34043264389,18.5308303833,0.279556155205,0.00189461740937,-0.00879015497032,0.716092808621,0.697947156339
1543475395794856000,184,1543475395794856000,/map,1.32414102554,18.5345821381,0.287956357002,0.00178454207637,-0.00885185947778,0.715835957313,0.698210098904
1543475395895075000,185,1543475395895075000,/map,1.34757959843,18.5374336243,0.280271291733,0.00185203082077,-0.00878357105297,0.715984564733,0.698058394352
1543475395995230000,186,1543475395995230000,/map,1.33426380157,18.5207996368,0.282982349396,0.00176344637327,-0.00878305128523,0.715925487524,0.698119219461
1543475396095416000,187,1543475396095416000,/map,1.34220659733,18.5442447662,0.286375999451,0.00183477029425,-0.00884085083332,0.71602488209,0.698016361701
1543475396195591000,188,1543475396195591000,/map,1.33367145061,18.5235347748,0.289514303207,0.00178881117522,-0.00881668221093,0.715883047533,0.698162250859
1543475396295788000,189,1543475396295788000,/map,1.34059309959,18.5392723083,0.283805370331,0.00186236945354,-0.0088556401254,0.716021836908,0.69801922487
1543475396395950000,190,1543475396395950000,/map,1.33086764812,18.5275402069,0.284942150116,0.00178721917067,-0.00880656243748,0.715814666395,0.698232492569
1543475396496109000,191,1543475396496109000,/map,1.33693087101,18.5409145355,0.290506958961,0.00175938275567,-0.00887768545446,0.716062863444,0.69797712489
1543475396596339000,192,1543475396596339000,/map,1.34633100033,18.5251197815,0.283140897751,0.00182703884117,-0.00889277862952,0.715920189816,0.698123099626
1543475396696514000,193,1543475396696514000,/map,1.33031785488,18.5345458984,0.281986236572,0.00185044550567,-0.00871217902837,0.715906459162,0.698139395477
1543475396796677000,194,1543475396796677000,/map,1.34675323963,18.5389194489,0.28898203373,0.00179687928543,-0.00889388750618,0.716000772164,0.698040517628
1543475396896877000,195,1543475396896877000,/map,1.32456254959,18.523809433,0.280931353569,0.00176190361709,-0.00877470074039,0.715913327163,0.698131798669
1543475396997050000,196,1543475396997050000,/map,1.34279680252,18.5300045013,0.281682729721,0.00190256114511,-0.00880575014743,0.715852385349,0.698193527194
1543475397097198000,197,1543475397097198000,/map,1.33252549171,18.5309524536,0.293336749077,0.00173694542941,-0.00886874167655,0.715969788752,0.698072768439
1543475397197382000,198,1543475397197382000,/map,1.34184277058,18.529088974,0.278380274773,0.00177788558331,-0.00878247719239,0.715967689293,0.698075909272
1543475397297583000,199,1543475397297583000,/map,1.32849991322,18.5292205811,0.283674955368,0.00181993653498,-0.0088638111142,0.715875845594,0.698168958332
1543475397397759000,200,1543475397397759000,/map,1.34341168404,18.5374107361,0.278163433075,0.00184937320863,-0.00872150012269,0.715987114147,0.698056564778
1543475397497934000,201,1543475397497934000,/map,1.336399436,18.5266551971,0.289030432701,0.0017901472565,-0.00887331129805,0.715907310967,0.698136649821
1543475397598107000,202,1543475397598107000,/map,1.32639873028,18.5291252136,0.288886547089,0.00182877593638,-0.00889147476194,0.715864294806,0.698180427022
1543475397698309000,203,1543475397698309000,/map,1.34154808521,18.5383319855,0.281346917152,0.00175270848083,-0.00880179502672,0.715973935101,0.698069323687
1543475397798485000,204,1543475397798485000,/map,1.33262741566,18.5270671844,0.286151170731,0.00186885623016,-0.00875336713429,0.715952447655,0.698091669222
1543475397898657000,205,1543475397898657000,/map,1.34584796429,18.5404777527,0.285698890686,0.00181719659182,-0.0088942978323,0.716031229037,0.698009217923
1543475397998831000,206,1543475397998831000,/map,1.33182024956,18.5310287476,0.278593659401,0.00187161153807,-0.00872309241264,0.715877083886,0.698169324373
1543475398099009000,207,1543475398099009000,/map,1.33871674538,18.5232563019,0.295509696007,0.00173766296757,-0.00890436346249,0.716051709877,0.697988281865
1543475398199198000,208,1543475398199198000,/map,1.332036376,18.5389976501,0.276640892029,0.00179754719963,-0.00874114299921,0.715888725646,0.698157356
1543475398299401000,209,1543475398299401000,/map,1.33714020252,18.5293598175,0.287417888641,0.00189143444806,-0.00876984653314,0.715968366318,0.69807507526
1543475398399568000,210,1543475398399568000,/map,1.34007418156,18.5199394226,0.29187977314,0.00181508982725,-0.00885689159346,0.715958657378,0.698084136653
1543475398499723000,211,1543475398499723000,/map,1.33530092239,18.5375881195,0.273312449455,0.00183788624698,-0.00873598671516,0.715939023821,0.698105736175
1543475398599922000,212,1543475398599922000,/map,1.34285891056,18.5333995819,0.297028183937,0.00177644693259,-0.00890555619976,0.71591723077,0.698126101784
1543475398700075000,213,1543475398700075000,/map,1.32670938969,18.5327167511,0.281989574432,0.0017695466543,-0.00877351977389,0.715876785262,0.698169264848
1543475398800273000,214,1543475398800273000,/map,1.34475231171,18.5350666046,0.286864280701,0.0016838437116,-0.00888972672025,0.715907604312,0.698136404664
1543475398900433000,215,1543475398900433000,/map,1.3323969841,18.5358886719,0.278587460518,0.00181942711003,-0.00882704396797,0.715996137946,0.698046061106
1543475399000665000,216,1543475399000665000,/map,1.33225607872,18.5208587646,0.29088807106,0.00168260705484,-0.0088858349921,0.715905231652,0.698138890239
1543475399100848000,217,1543475399100848000,/map,1.34624767303,18.5369415283,0.281975984573,0.00180340720324,-0.00886456970735,0.715954952996,0.698087868686
1543475399200988000,218,1543475399200988000,/map,1.33595657349,18.5239143372,0.291771650314,0.00162344088856,-0.00893820692855,0.715877589116,0.698166706666
1543475399301187000,219,1543475399301187000,/map,1.33162748814,18.5376110077,0.27839910984,0.00182833775414,-0.00878112220117,0.715979772525,0.698063402857
1543475399401330000,220,1543475399401330000,/map,1.33723068237,18.5203495026,0.288502454758,0.00178691978065,-0.00880349489499,0.715899439696,0.698145613492
1543475399501541000,221,1543475399501541000,/map,1.33477854729,18.5415592194,0.279690265656,0.00178184215131,-0.00880817261036,0.71599158707,0.698051064306
1543475399601708000,222,1543475399601708000,/map,1.33603978157,18.5237388611,0.28732419014,0.00180050275628,-0.00886472892363,0.715947109944,0.698095917861
1543475399701904000,223,1543475399701904000,/map,1.34120321274,18.5424480438,0.288309931755,0.00175897298585,-0.00888548426825,0.715925260328,0.69811816751
1543475399802099000,224,1543475399802099000,/map,1.32640182972,18.5239238739,0.281824469566,0.0017050233943,-0.00883051506122,0.71591613376,0.698128358055
1543475399902269000,225,1543475399902269000,/map,1.3480527401,18.5301456451,0.283825159073,0.00177326017312,-0.00886906002346,0.715996465505,0.698045311356
1543475400002460000,226,1543475400002460000,/map,1.33045470715,18.536195755,0.283171534538,0.00176575777246,-0.00878555303658,0.715914851896,0.698130088875
1543475400102644000,227,1543475400102644000,/map,1.34357142448,18.5335502625,0.293118238449,0.00182915260436,-0.00889141883787,0.716061749123,0.697977913916
1543475400202788000,228,1543475400202788000,/map,1.33006513119,18.5362968445,0.272251963615,0.00183785030274,-0.00877259463826,0.715814470932,0.698232989119
1543475400303007000,229,1543475400303007000,/map,1.34221720695,18.5277423859,0.289506196976,0.00186203493492,-0.00882716526362,0.715985068341,0.698057301295
1543475400403211000,230,1543475400403211000,/map,1.330717206,18.5326557159,0.284247994423,0.00171348620157,-0.00893999658355,0.715801513573,0.698244465494
1543475400503417000,231,1543475400503417000,/map,1.34593009949,18.5318202972,0.294005513191,0.00176353943449,-0.0089230372148,0.716170966659,0.697865614464
1543475400603547000,232,1543475400603547000,/map,1.33104240894,18.5303401947,0.276364088058,0.00177845049733,-0.00881359059032,0.715903513427,0.698141330389
1543475400703759000,233,1543475400703759000,/map,1.3496543169,18.5242576599,0.287130236626,0.00177774689716,-0.00889508506387,0.715950048341,0.698092576495
1543475400803917000,234,1543475400803917000,/map,1.33087730408,18.532333374,0.286237359047,0.00176583050502,-0.00876438126587,0.715846986501,0.698199942266
1543475400904102000,235,1543475400904102000,/map,1.33237636089,18.519203186,0.287140011787,0.00174852364571,-0.00881156316939,0.716044701576,0.69799662203
1543475401004311000,236,1543475401004311000,/map,1.34577584267,18.5413417816,0.285177230835,0.00182795115275,-0.00885284196822,0.716015087708,0.698026274547
1543475401104479000,237,1543475401104479000,/map,1.33128762245,18.5356292725,0.284018993378,0.00177393559459,-0.0088241310687,0.715808844629,0.698238272951
1543475401204624000,238,1543475401204624000,/map,1.34165239334,18.5210533142,0.281668186188,0.00176276820886,-0.00882200528521,0.716028641305,0.698012929467
1543475401304840000,239,1543475401304840000,/map,1.34476518631,18.5328960419,0.287732362747,0.00176399173671,-0.00884433672431,0.71597901208,0.698063550332
1543475401405015000,240,1543475401405015000,/map,1.32554805279,18.5303821564,0.27678000927,0.0017742409403,-0.00877286494844,0.715928809637,0.698115913328
1543475401505167000,241,1543475401505167000,/map,1.34780669212,18.5259017944,0.284918427467,0.00183341259468,-0.0088423952536,0.71592513694,0.698118649616
1543475401605367000,242,1543475401605367000,/map,1.33079493046,18.5408477783,0.288892149925,0.00178913107948,-0.00885365193737,0.715876231667,0.698168770994
1543475401705566000,243,1543475401705566000,/map,1.33522176743,18.5260715485,0.275383234024,0.00180019242917,-0.00877554247412,0.715983605101,0.698059615211
1543475401805748000,244,1543475401805748000,/map,1.33716797829,18.539604187,0.290947318077,0.00182026534992,-0.00885187970216,0.715838141254,0.698207767349
1543475401905958000,245,1543475401905958000,/map,1.33705747128,18.5296268463,0.269719004631,0.00178378530591,-0.00874884707119,0.71595308349,0.69809129634
1543475402006176000,246,1543475402006176000,/map,1.34053349495,18.5336990356,0.296644091606,0.00176586617687,-0.00886500758965,0.71596294767,0.698079759713
1543475402106290000,247,1543475402106290000,/map,1.32865917683,18.5332012177,0.276827573776,0.00174838921244,-0.00879980229466,0.715878915433,0.698166803174
1543475402206541000,248,1543475402206541000,/map,1.34550499916,18.5341949463,0.283872723579,0.00188917016472,-0.0087405895289,0.715956867289,0.698087241906
1543475402306668000,249,1543475402306668000,/map,1.3315757513,18.5248146057,0.289639353752,0.00175357175983,-0.00885749675644,0.715911675567,0.698132467748
1543475402406857000,250,1543475402406857000,/map,1.33847808838,18.5344333649,0.282096147537,0.00185675503481,-0.0087799014509,0.715979902878,0.698063209506
1543475402507031000,251,1543475402507031000,/map,1.34150743484,18.5311489105,0.279661893845,0.00189924765482,-0.00874467116952,0.715971927563,0.698071717323
1543475402607292000,252,1543475402607292000,/map,1.33231139183,18.5276527405,0.292299151421,0.0017680917731,-0.00879832212988,0.715843713192,0.698202865694
1543475402707471000,253,1543475402707471000,/map,1.34433269501,18.52551651,0.279620289803,0.00178119966729,-0.00887284050129,0.716040133737,0.698000449074
1543475402807556000,254,1543475402807556000,/map,1.32572162151,18.5338077545,0.290376663208,0.00175986436759,-0.00881974347423,0.71583740285,0.698209085936
1543475402907787000,255,1543475402907787000,/map,1.34600520134,18.5375576019,0.282395482063,0.00178594863377,-0.00885026523228,0.715993171429,0.698048896325
1543475403007958000,256,1543475403007958000,/map,1.33168339729,18.5318470001,0.278810739517,0.00184262288758,-0.00880090312532,0.715922010099,0.698122356253
1543475403108126000,257,1543475403108126000,/map,1.34983563423,18.527305603,0.291583657265,0.00175458151521,-0.00886969412886,0.715981319631,0.698060885532
1543475403208344000,258,1543475403208344000,/map,1.33172011375,18.5387153625,0.278522133827,0.00184085647095,-0.00878698677231,0.715943321902,0.698100680372
1543475403308565000,259,1543475403308565000,/map,1.34223914146,18.5277233124,0.291425228119,0.00177451168772,-0.00888417319366,0.716002484411,0.698038942247
1543475403408709000,260,1543475403408709000,/map,1.33628320694,18.5314388275,0.279707431793,0.00181604122736,-0.00880596914986,0.71588693778,0.698158326755
1543475403508908000,261,1543475403508908000,/map,1.33614170551,18.5415916443,0.292752504349,0.00183751697024,-0.00881050378373,0.716024039574,0.698017602434
1543475403609066000,262,1543475403609066000,/map,1.34566259384,18.5234355927,0.284565925598,0.0017906439124,-0.00884783001579,0.715872216429,0.698172957972
1543475403709228000,263,1543475403709228000,/map,1.33126878738,18.5361976624,0.280667901039,0.0017965721071,-0.00885772311097,0.715913230197,0.698130761318
1543475403809475000,264,1543475403809475000,/map,1.33579325676,18.5195064545,0.277523398399,0.00177731832588,-0.00879044174541,0.715887692418,0.698157848282
1543475403909637000,265,1543475403909637000,/map,1.34352231026,18.5354251862,0.289697289467,0.0017855986783,-0.00886202642839,0.716022349033,0.698018819095
1543475404009792000,266,1543475404009792000,/map,1.33051979542,18.5338497162,0.274463534355,0.00178340702513,-0.00878233986032,0.715901627182,0.698143645795
1543475404110001000,267,1543475404110001000,/map,1.34338748455,18.5288162231,0.294702887535,0.00179372798908,-0.00889907118064,0.715977530134,0.698064298911
1543475404210175000,268,1543475404210175000,/map,1.3273011446,18.5409641266,0.286132931709,0.00170567817633,-0.00888670387012,0.715917477761,0.698126265222
1543475404310354000,269,1543475404310354000,/map,1.33837628365,18.5288658142,0.280480861664,0.00181111719026,-0.00884345063629,0.715880304499,0.698164667443
1543475404410562000,270,1543475404410562000,/map,1.348913908,18.5405292511,0.282759428024,0.00180658845403,-0.00892786519955,0.716139379936,0.697897856399
1543475404510756000,271,1543475404510756000,/map,1.33692419529,18.521150589,0.284805774689,0.00171795880665,-0.00891007641879,0.715947646581,0.698094998199
1543475404610893000,272,1543475404610893000,/map,1.33642709255,18.5348377228,0.278137326241,0.00185637053318,-0.00877838811708,0.71587567803,0.698170113508
1543475404711100000,273,1543475404711100000,/map,1.33786034584,18.5324192047,0.295498371124,0.00180007461583,-0.00889148095206,0.716133569825,0.697904299649
1543475404811278000,274,1543475404811278000,/map,1.33346295357,18.5313796997,0.275395393372,0.00179158704776,-0.00879467023452,0.715784966471,0.698263077761
1543475404911450000,275,1543475404911450000,/map,1.34132456779,18.5258159637,0.291004776955,0.00181424760813,-0.00883849950888,0.716092951602,0.697946612641
1543475405011686000,276,1543475405011686000,/map,1.32981681824,18.5448951721,0.284635186195,0.00180958090195,-0.0088851327915,0.71592323288,0.698120121795
1543475405111849000,277,1543475405111849000,/map,1.34231829643,18.5317230225,0.280763983727,0.00178553843598,-0.00890472195289,0.715925440081,0.698117670615
1543475405212050000,278,1543475405212050000,/map,1.32672703266,18.5337619781,0.279198884964,0.0018184477122,-0.0088510559422,0.715898843426,0.69814554216
1543475405312241000,279,1543475405312241000,/map,1.34056484699,18.5342922211,0.283017396927,0.0018222000668,-0.00876946289466,0.715963722776,0.698080026771
1543475405412400000,280,1543475405412400000,/map,1.34060716629,18.5233306885,0.279920816422,0.00186241447142,-0.00874241885744,0.715948364703,0.698096011021
1543475405516808000,281,1543475405516808000,/map,1.33434712887,18.5401611328,0.28766977787,0.00183651948833,-0.0088568790863,0.716060642345,0.697979469163
1543475405612785000,282,1543475405612785000,/map,1.33308887482,18.5264644623,0.281122326851,0.00176766322416,-0.0088313111899,0.715798812658,0.698248482352
1543475405712963000,283,1543475405712963000,/map,1.3455914259,18.5335063934,0.288660526276,0.00180940227219,-0.00882329630615,0.716220454077,0.697815976219
1543475405813169000,284,1543475405813169000,/map,1.33451724052,18.5281982422,0.285218715668,0.00178303009934,-0.00882143561714,0.715705016651,0.698344708735
1543475405913357000,285,1543475405913357000,/map,1.33617568016,18.5404586792,0.271887302399,0.00176395071048,-0.00881544083001,0.716107948347,0.697931646219
1543475406013560000,286,1543475406013560000,/map,1.34263086319,18.5263786316,0.289074897766,0.00184031812714,-0.00881791204413,0.715912280887,0.698132124838
1543475406113692000,287,1543475406113692000,/map,1.33219444752,18.5312805176,0.281475305557,0.00186731184264,-0.00878626984908,0.71601811825,0.698023902848
1543475406213895000,288,1543475406213895000,/map,1.32705879211,18.5293216705,0.282974600792,0.00196020960513,-0.00869495725215,0.715792620053,0.69825602781
1543475406314054000,289,1543475406314054000,/map,1.34598588943,18.5375957489,0.278716564178,0.00186749177972,-0.00879271364765,0.716008765528,0.698033414923
1543475406414259000,290,1543475406414259000,/map,1.34287273884,18.5278224945,0.29150891304,0.00177951750123,-0.00875412888589,0.715908988752,0.698136461137
1543475406514485000,291,1543475406514485000,/map,1.33164143562,18.5321311951,0.269958257675,0.00180767059708,-0.00878881850148,0.715945890829,0.698098109438
1543475406614655000,292,1543475406614655000,/map,1.33561313152,18.5393676758,0.292549848557,0.00189440708511,-0.00872981430904,0.715957829828,0.698086375366
1543475406714848000,293,1543475406714848000,/map,1.34090769291,18.5215301514,0.283785700798,0.00175623786842,-0.00888977999917,0.715990744004,0.698050959415
1543475406815018000,294,1543475406815018000,/map,1.32508528233,18.5333366394,0.276392221451,0.00182924961865,-0.00876988080786,0.715901189373,0.698144132748
1543475406915199000,295,1543475406915199000,/map,1.34589970112,18.5347652435,0.288586497307,0.00187252559067,-0.00878993100942,0.715935570979,0.698108508018
1543475407015398000,296,1543475407015398000,/map,1.33724188805,18.5232925415,0.285452246666,0.00174540065055,-0.00882153069705,0.715901237744,0.698143647089
1543475407115568000,297,1543475407115568000,/map,1.33541464806,18.5414543152,0.280716180801,0.00178169443871,-0.0087987574304,0.715935860217,0.698108337931
1543475407215739000,298,1543475407215739000,/map,1.34415638447,18.5255432129,0.282599210739,0.00184522063439,-0.00875371942769,0.715960582246,0.698083384867
1543475407315945000,299,1543475407315945000,/map,1.33044350147,18.5382461548,0.282137393951,0.00182368339379,-0.00885652866671,0.715852047527,0.69819344177
1543475407416151000,300,1543475407416151000,/map,1.34713387489,18.5241012573,0.287818551064,0.00178631682948,-0.00883987109006,0.715951358644,0.698091912149
1543475407516336000,301,1543475407516336000,/map,1.33374929428,18.5319194794,0.280017495155,0.0018724855962,-0.0088465600957,0.716022928551,0.698018193145
1543475407616512000,302,1543475407616512000,/map,1.33085334301,18.5388507843,0.280241250992,0.00174836813536,-0.00886037222981,0.715665554685,0.698384744142
1543475407716700000,303,1543475407716700000,/map,1.34254515171,18.5232219696,0.290266633034,0.00182174103912,-0.00886433883617,0.716023571738,0.698017442097
1543475407816925000,304,1543475407816925000,/map,1.3340549469,18.537322998,0.279289007187,0.0017632376852,-0.00881166611508,0.71600471828,0.69803759851
1543475407917098000,305,1543475407917098000,/map,1.33475208282,18.5220737457,0.285695314407,0.00177954047371,-0.00882649143414,0.715856385066,0.698189488782
1543475408017269000,306,1543475408017269000,/map,1.33696579933,18.5380210876,0.276583313942,0.00179404180872,-0.00875907507593,0.71591976551,0.69812531065
1543475408117434000,307,1543475408117434000,/map,1.3375197649,18.5324516296,0.292429447174,0.00185377910474,-0.00883930480779,0.715918082975,0.698125868782
1543475408217678000,308,1543475408217678000,/map,1.34331297874,18.5278987885,0.270973086357,0.00184760981024,-0.0087303540614,0.716086577168,0.697954426346
1543475408317846000,309,1543475408317846000,/map,1.33077561855,18.5373382568,0.296908140182,0.00179704231833,-0.00887068662606,0.715954371442,0.698088403836
1543475408417984000,310,1543475408417984000,/map,1.33927345276,18.5323677063,0.277513504028,0.00178015658597,-0.00878193728664,0.715865694625,0.698180503795
1543475408518218000,311,1543475408518218000,/map,1.32849001884,18.5411071777,0.285906791687,0.00188179518037,-0.00889285674356,0.715989484521,0.698051884892
1543475408618417000,312,1543475408618417000,/map,1.33629333973,18.5172328949,0.276683688164,0.00183875129774,-0.00874775808124,0.715957921427,0.698086205614
1543475408718591000,313,1543475408718591000,/map,1.3403646946,18.5391311646,0.281534075737,0.00185575844798,-0.00874364849808,0.715918236111,0.698126911081
1543475408818771000,314,1543475408818771000,/map,1.32927453518,18.5295848846,0.282664895058,0.0018691429421,-0.00877968302536,0.715838135188,0.698208556007
1543475408918928000,315,1543475408918928000,/map,1.34354054928,18.5310153961,0.277692556381,0.00180889115586,-0.00871598715015,0.716002978937,0.698040467046
1543475409019199000,316,1543475409019199000,/map,1.33266997337,18.5322628021,0.286770701408,0.00187189373614,-0.00880746074991,0.715725214741,0.698323951782
1543475409119322000,317,1543475409119322000,/map,1.32602870464,18.5357093811,0.290696978569,0.00188008460568,-0.00877283409641,0.716072031308,0.697968730418
1543475409219533000,318,1543475409219533000,/map,1.34964513779,18.5278968811,0.271005153656,0.00190790401135,-0.00869483629663,0.715976133928,0.698068001967
1543475409319732000,319,1543475409319732000,/map,1.33221256733,18.5286827087,0.287628054619,0.00183737710683,-0.00880015802065,0.715825348007,0.698221492376
1543475409419886000,320,1543475409419886000,/map,1.34450471401,18.5217189789,0.276202201843,0.00183881936759,-0.00878744920991,0.715947818028,0.698096068848
1543475409520125000,321,1543475409520125000,/map,1.33428299427,18.536195755,0.288500547409,0.00185064374128,-0.00880861645959,0.715997992471,0.698044309605
1543475409620273000,322,1543475409620273000,/map,1.32680881023,18.5274772644,0.288222193718,0.0017738508921,-0.00868128136268,0.715618318838,0.698435330256
1543475409720484000,323,1543475409720484000,/map,1.34840655327,18.5340499878,0.277413487434,0.00188762412944,-0.00880676312267,0.716156835092,0.697881268806
1543475409820668000,324,1543475409820668000,/map,1.33408904076,18.5253372192,0.286191821098,0.00179851456398,-0.00884109603471,0.71589795146,0.698146634642
1543475409920824000,325,1543475409920824000,/map,1.33265709877,18.5401630402,0.272140145302,0.00180495100853,-0.00880959501358,0.715946216542,0.698097520556
1543475410021019000,326,1543475410021019000,/map,1.34251272678,18.5264854431,0.295471191406,0.00176520288155,-0.00891920052411,0.715964172295,0.698077815083
1543475410121218000,327,1543475410121218000,/map,1.33537697792,18.5307941437,0.275394201279,0.00187016253271,-0.0088387430273,0.715897389484,0.698147052449
1543475410221406000,328,1543475410221406000,/map,1.3461779356,18.5291576385,0.292970776558,0.00175629245629,-0.00890735166416,0.71598869352,0.698052838455
1543475410321590000,329,1543475410321590000,/map,1.33273351192,18.5335063934,0.274172067642,0.00179453711648,-0.00875404144023,0.715963728954,0.698080285653
1543475410421787000,330,1543475410421787000,/map,1.3406765461,18.5368041992,0.292944669724,0.00176033844675,-0.00884813455986,0.715825894395,0.69822052436
1543475410521996000,331,1543475410521996000,/map,1.33626580238,18.5290756226,0.272241473198,0.00185303967811,-0.0087525419351,0.716112951219,0.697927073805
1543475410622189000,332,1543475410622189000,/map,1.33447778225,18.5369186401,0.292032003403,0.00182719513369,-0.00881823904987,0.715694868286,0.698355035442
1543475410722354000,333,1543475410722354000,/map,1.34229779243,18.5342941284,0.270050883293,0.00178093143454,-0.00876258860161,0.716029363023,0.698012891438
1543475410822566000,334,1543475410822566000,/map,1.33162713051,18.5254268646,0.29486811161,0.00179563918158,-0.00882128294351,0.715850827914,0.698195211114
1543475410922737000,335,1543475410922737000,/map,1.33939254284,18.5391864777,0.277564525604,0.00178275089167,-0.0088025665908,0.715982579164,0.698060371998
1543475411022990000,336,1543475411022990000,/map,1.33101117611,18.526512146,0.284013152122,0.00188133286873,-0.00876462616747,0.715846445566,0.698200192126
1543475411123327000,337,1543475411123327000,/map,1.34151506424,18.5389099121,0.278442382812,0.00177304382623,-0.0087973891802,0.715991196944,0.698051622846
1543475411223558000,338,1543475411223558000,/map,1.33069598675,18.5237121582,0.290357470512,0.00182925937405,-0.00881320868278,0.715848218295,0.698197901406
1543475411323932000,339,1543475411323932000,/map,1.34237968922,18.5369644165,0.269556641579,0.00179450380419,-0.00874149638674,0.715971277427,0.69807270101
1543475411424180000,340,1543475411424180000,/map,1.33532214165,18.5221710205,0.28874206543,0.00185995767876,-0.00879358634749,0.715931284051,0.698112891955
1543475411524478000,341,1543475411524478000,/map,1.33511066437,18.5435752869,0.286246061325,0.00178627536924,-0.00883248097152,0.71598895663,0.69805344386
1543475411624770000,342,1543475411624770000,/map,1.34627556801,18.5253181458,0.276078939438,0.00188336117774,-0.00876377100276,0.715963915606,0.698079738152
1543475411725066000,343,1543475411725066000,/map,1.3253685236,18.5300216675,0.287896871567,0.00181072162321,-0.0088288061517,0.715815096102,0.698231710581
1543475411825375000,344,1543475411825375000,/map,1.34125745296,18.5453014374,0.283851623535,0.00183417359796,-0.0088757130851,0.71609909454,0.6979397856
1543475411925636000,345,1543475411925636000,/map,1.33205187321,18.5257663727,0.281742095947,0.00174550085249,-0.00881025720398,0.715874846774,0.698170850402
1543475412025962000,346,1543475412025962000,/map,1.34695279598,18.5334129333,0.281081318855,0.00187424464311,-0.00879788890461,0.715968158946,0.698074981455
1543475412126240000,347,1543475412126240000,/map,1.33030653,18.5300388336,0.290307164192,0.00174401564406,-0.0088792459197,0.715914616357,0.69812919971
1543475412226535000,348,1543475412226535000,/map,1.34247541428,18.5222091675,0.276468634605,0.00187153327975,-0.00877118824233,0.715920544596,0.698124156183
1543475412326813000,349,1543475412326813000,/map,1.33664381504,18.5404949188,0.293152689934,0.00180641205923,-0.00892186444182,0.715982168158,0.698059218183
1543475412427080000,350,1543475412427080000,/map,1.33916711807,18.5236110687,0.279675006866,0.00176467765126,-0.00881580018202,0.715899583929,0.69814536689
1543475412527425000,351,1543475412527425000,/map,1.32846367359,18.5347728729,0.286740422249,0.0018252885028,-0.00878591203462,0.716045081044,0.697996359579
1543475412627689000,352,1543475412627689000,/map,1.34317457676,18.5229110718,0.271435260773,0.00192027792842,-0.00870781039096,0.715879287371,0.698167123606
1543475412727997000,353,1543475412727997000,/map,1.33865559101,18.537153244,0.290615081787,0.0017697308871,-0.00886593326858,0.715993871237,0.698048021006
1543475412828321000,354,1543475412828321000,/map,1.34008669853,18.5250911713,0.276598095894,0.00184709089796,-0.00883158551385,0.715939507561,0.698104012928
1543475412928572000,355,1543475412928572000,/map,1.33835673332,18.5323638916,0.297890901566,0.00175976026463,-0.00893651829161,0.715915004839,0.698128031046
1543475413028885000,356,1543475413028885000,/map,1.32970035076,18.531255722,0.27382683754,0.00187136773767,-0.00875500155844,0.715845908635,0.698200890161
1543475413129138000,357,1543475413129138000,/map,1.34224748611,18.5299530029,0.293794512749,0.0017435580036,-0.00884780242552,0.716051764412,0.697988930485
1543475413229434000,358,1543475413229434000,/map,1.32943356037,18.545501709,0.279143691063,0.00177116353519,-0.00885551887689,0.715867467742,0.698177779218
1543475413329790000,359,1543475413329790000,/map,1.33698523045,18.5187644958,0.276829361916,0.00186860234833,-0.00875925655047,0.715951946495,0.698092110011
1543475413430041000,360,1543475413430041000,/map,1.33645772934,18.5364646912,0.287499666214,0.00186271555481,-0.00879573621492,0.715882062477,0.698163331849
1543475413530354000,361,1543475413530354000,/map,1.34866559505,18.5297164917,0.286299467087,0.00179337247688,-0.00888939704847,0.716186527831,0.697849998057
1543475413630608000,362,1543475413630608000,/map,1.32971215248,18.5332813263,0.278859138489,0.00183229149117,-0.00877563364884,0.715839843252,0.698206953399
1543475413730956000,363,1543475413730956000,/map,1.33654940128,18.5283622742,0.295131444931,0.00172506937731,-0.00889147316199,0.715925764464,0.698117658863
1543475413831226000,364,1543475413831226000,/map,1.33782076836,18.5279102325,0.272229790688,0.00186689386233,-0.00881513087513,0.715968855235,0.6980740695
1543475413931475000,365,1543475413931475000,/map,1.33216774464,18.5429210663,0.295629382133,0.00177944493171,-0.00890448680622,0.715894241183,0.698149682469
1543475414031770000,366,1543475414031770000,/map,1.33523774147,18.5260601044,0.282343506813,0.0018080932685,-0.00881098756481,0.715872463692,0.698173125396
1543475414132093000,367,1543475414132093000,/map,1.3361338377,18.5230751038,0.279350042343,0.00178157980303,-0.00883358653854,0.715866771904,0.698178744023
1543475414232351000,368,1543475414232351000,/map,1.33163583279,18.5394515991,0.294840931892,0.00179103286845,-0.00891313692858,0.716067249658,0.697972092679
1543475414332656000,369,1543475414332656000,/map,1.34617066383,18.5234947205,0.278576731682,0.00182556991402,-0.00882546699725,0.715937382641,0.698106326116
1543475414432945000,370,1543475414432945000,/map,1.32774543762,18.5328063965,0.284717082977,0.00180204834671,-0.008811810341,0.715873280941,0.698172292672
1543475414533260000,371,1543475414533260000,/map,1.34074246883,18.5360183716,0.291875958443,0.00172961241406,-0.00889682098138,0.71611523356,0.697923224489
1543475414633517000,372,1543475414633517000,/map,1.33359146118,18.5345249176,0.273084044456,0.00178209984958,-0.00881587251014,0.715812132862,0.698234985488
1543475414733810000,373,1543475414733810000,/map,1.34244430065,18.5246639252,0.287593126297,0.00187618116375,-0.00872022665692,0.716005763219,0.698037380538
1543475414834088000,374,1543475414834088000,/map,1.32901239395,18.5398025513,0.278369307518,0.00186676253897,-0.00886205500443,0.715918294853,0.698125328485
1543475414934366000,375,1543475414934366000,/map,1.34226155281,18.5300865173,0.290901660919,0.00176917918936,-0.00888215629687,0.71592611259,0.698117310068
1543475415034671000,376,1543475415034671000,/map,1.33006298542,18.5264072418,0.28289103508,0.0017924013882,-0.00875156977811,0.715915731781,0.698129545508
1543475415134978000,377,1543475415134978000,/map,1.34574854374,18.526966095,0.278770923615,0.00190190947443,-0.00881359030556,0.716030025127,0.698011250971
1543475415235257000,378,1543475415235257000,/map,1.33522737026,18.5390625,0.288769006729,0.00180438729803,-0.00883244209126,0.71576616427,0.698281841551
1543475415335530000,379,1543475415335530000,/map,1.34151959419,18.522851944,0.275572896004,0.00184188897205,-0.00870127295405,0.716101663696,0.697939325834
1543475415435781000,380,1543475415435781000,/map,1.32962238789,18.5246505737,0.291920185089,0.00187296565486,-0.00883368526825,0.715849858099,0.698195845493
1543475415536131000,381,1543475415536131000,/map,1.34236598015,18.5357723236,0.2828810215,0.00177941641477,-0.00889827251195,0.716015356452,0.69802554663
1543475415636379000,382,1543475415636379000,/map,1.32882499695,18.5244464874,0.281843304634,0.00187788052316,-0.00878950585523,0.715937165956,0.698106863277
