%time,field.header.seq,field.header.stamp,field.header.frame_id,field.pose.position.x,field.pose.position.y,field.pose.position.z,field.pose.orientation.x,field.pose.orientation.y,field.pose.orientation.z,field.pose.orientation.w
1543475341951127000,0,1543475341951127000,/map,1.14374673367,-1.292329669,1.98607373238,0.0074809732313,-0.00462296372755,0.000503579883232,0.999961204074
1543475342051381000,1,1543475342051381000,/map,1.15328764915,-1.2781560421,1.98300671577,0.00768433891893,-0.004575523147,0.000909459317383,0.999959593387
1543475342151608000,2,1543475342151608000,/map,1.16192030907,-1.27396929264,1.96779894829,0.00781230382299,-0.00437578246594,0.00145321907489,0.999958853449
1543475342251848000,3,1543475342251848000,/map,1.17006897926,-1.26332604885,1.97246623039,0.0077223438605,-0.0043896582641,0.0020829616163,0.999958377922
1543475342352111000,4,1543475342352111000,/map,1.16877758503,-1.23320376873,1.96775817871,0.00799359679838,-0.00426595918573,0.00264308194842,0.999955458068
1543475342452365000,5,1543475342452365000,/map,1.2376434803,-1.13613545895,1.97971236706,0.00765140478137,-0.00458195584651,0.00415634799422,0.999951592057
1543475342552612000,6,1543475342552612000,/map,1.18146979809,-1.05908811092,1.98520183563,0.00741664515799,-0.00454904400847,0.00517739922637,0.999948745742
1543475342652849000,7,1543475342652849000,/map,1.15818452835,-0.992855787277,1.97396624088,0.00761146251005,-0.00444876173771,0.00741266756311,0.999933661058
1543475342753101000,8,1543475342753101000,/map,1.23221278191,-0.848144292831,1.95838224888,0.00776017535474,-0.00418285895451,0.012309891144,0.999885368405
1543475342853360000,9,1543475342853360000,/map,1.26699793339,-0.297245174646,1.97204124928,0.00808302561681,-0.0042137926303,0.0134539121975,0.999867941728
1543475343053827000,10,1543475343053827000,/map,1.21681439877,0.735143840313,1.99022722244,0.00780553973079,-0.00416408687202,0.0129058458778,0.999877579043
1543475343154103000,11,1543475343154103000,/map,1.2331751585,1.28219306469,2.01982855797,0.00758146851951,-0.00460219446111,0.0125295865032,0.999882168359
1543475343254353000,12,1543475343254353000,/map,1.28842055798,1.83398449421,2.02104258537,0.00777805806722,-0.00447384283154,0.0125636464877,0.999880813562
1543475343354558000,13,1543475343354558000,/map,1.30691051483,2.39607143402,2.02371478081,0.00835556341324,-0.00437767683751,0.0128179009561,0.999873352941
1543475343454818000,14,1543475343454818000,/map,1.22299087048,3.4115717411,2.04585027695,0.00791398162311,-0.0044163350436,0.0117916962267,0.999889404274
1543475343655289000,15,1543475343655289000,/map,1.24965083599,5.49365520477,2.08815288544,0.00748619284473,-0.00454842663492,0.0127760685762,0.999880013203
1543475343755589000,16,1543475343755589000,/map,1.24592125416,7.24101114273,2.10889744759,0.00783037167583,-0.00449389136997,0.0130764472483,0.999873740403
1543475344056295000,17,1543475344056295000,/map,1.31028974056,13.2376670837,2.2243771553,0.00732938148432,-0.00492685220494,0.0125476144597,0.999882274903
1543475344357040000,18,1543475344357040000,/map,1.31759953499,18.5109348297,2.28631687164,0.00746746834737,-0.0049556465582,0.0125929787308,0.99988054055
1543475344457324000,19,1543475344457324000,/map,1.31810629368,18.5073566437,2.28429841995,0.00754335016054,-0.00498322218859,0.0126126703393,0.999879585706
1543475344758061000,20,1543475344758061000,/map,1.32345795631,18.504032135,2.28791570663,0.00753803516646,-0.00497693443861,0.0125840410823,0.999880017832
1543475344858272000,21,1543475344858272000,/map,1.31647515297,18.5004920959,2.28596019745,0.00752232705898,-0.0049939033382,0.0126622667846,0.99987906395
1543475344958529000,22,1543475344958529000,/map,1.31737446785,18.5017776489,2.28798913956,0.00754848997377,-0.00492754595834,0.0124755640407,0.99988154293
1543475345058802000,23,1543475345058802000,/map,1.31193983555,18.5006923676,2.28303623199,0.00741863715353,-0.00497309772846,0.0128192410963,0.999877942141
1543475345159055000,24,1543475345159055000,/map,1.32224857807,18.5045127869,2.28630423546,0.00757390187744,-0.00498945352074,0.0126432494759,0.999878937475
1543475345259326000,25,1543475345259326000,/map,1.3168053627,18.5016784668,2.28384304047,0.00748441317736,-0.0049535301442,0.0125990278632,0.999880348139
1543475345359559000,26,1543475345359559000,/map,1.32159698009,18.504983902,2.2852833271,0.00755855585479,-0.00491684500031,0.012609604935,0.999879838147
1543475345459809000,27,1543475345459809000,/map,1.31849944592,18.5006141663,2.28168964386,0.00752351506033,-0.00488448774495,0.0126419784253,0.999879852223
1543475345560047000,28,1543475345560047000,/map,1.31738734245,18.5070343018,2.28381705284,0.00751795771138,-0.00493435536097,0.0126733328542,0.999879252252
1543475345660276000,29,1543475345660276000,/map,1.32216703892,18.500585556,2.28601098061,0.00753271318974,-0.00492809431863,0.0125942393101,0.999880171448
1543475345760509000,30,1543475345760509000,/map,1.31591176987,18.5028858185,2.284044981,0.00746294118669,-0.0049329637314,0.0125735404752,0.99988093114
1543475345860783000,31,1543475345860783000,/map,1.31633603573,18.4968929291,2.28752613068,0.00757072351886,-0.00495374448113,0.012572574503,0.999880030269
1543475345960969000,32,1543475345960969000,/map,1.31675922871,18.5032310486,2.28319883347,0.00756392571083,-0.00492645206172,0.0126532425747,0.999879198979
1543475346060909000,33,1543475346060909000,/map,1.31509304047,18.4980373383,2.28476667404,0.00750427249715,-0.00492359271864,0.0125914651561,0.99988044242
1543475346160694000,34,1543475346160694000,/map,1.32096815109,18.5031280518,2.28456640244,0.00756097094397,-0.00499856749215,0.0126063457055,0.999879455779
1543475346260464000,35,1543475346260464000,/map,1.31657481194,18.5031337738,2.28278231621,0.00745337750902,-0.00490143878795,0.0126388129951,0.999880334574
1543475346360261000,36,1543475346360261000,/map,1.32357227802,18.5013465881,2.28630876541,0.00758619100957,-0.00500124788477,0.0125944636219,0.999879401084
1543475346460020000,37,1543475346460020000,/map,1.31703317165,18.5038700104,2.28225326538,0.00746258966435,-0.00492975499935,0.0125845629256,0.999880810921
1543475346559852000,38,1543475346559852000,/map,1.3198184967,18.5041618347,2.28794503212,0.00752507481214,-0.00495273173092,0.0125758424458,0.999880338783
1543475346659629000,39,1543475346659629000,/map,1.31569349766,18.5029315948,2.28051614761,0.00744838227007,-0.00481226537444,0.0126922818301,0.999880127658
1543475346759360000,40,1543475346759360000,/map,1.31987607479,18.4993419647,2.28605818748,0.00758844090863,-0.00499246024871,0.0125645703271,0.999879804015
1543475346859237000,41,1543475346859237000,/map,1.316603899,18.5045089722,2.28193116188,0.0075254459669,-0.00487240948831,0.0126328607171,0.999880011861
1543475346958952000,42,1543475346958952000,/map,1.31723558903,18.4987773895,2.28517198563,0.00758738256114,-0.00501296320908,0.0126133438617,0.999879095382
1543475347058767000,43,1543475347058767000,/map,1.31606972218,18.5036773682,2.28190112114,0.00753885003394,-0.00484381537328,0.0126871017593,0.999879363044
1543475347158557000,44,1543475347158557000,/map,1.32170343399,18.5003738403,2.28459525108,0.00754516644563,-0.00489061555285,0.0125598691064,0.999880693898
1543475347258381000,45,1543475347258381000,/map,1.31628787518,18.5008239746,2.28731203079,0.00750549157012,-0.00505366881981,0.0126471736879,0.999879081202
1543475347358162000,46,1543475347358162000,/map,1.31869959831,18.5018844604,2.28326225281,0.00761690840423,-0.00487685471848,0.012493531148,0.999881048262
1543475347457982000,47,1543475347457982000,/map,1.31379055977,18.5049362183,2.28726482391,0.00752183332278,-0.00493535816783,0.0128122790663,0.999877447375
1543475347557789000,48,1543475347557789000,/map,1.31799328327,18.5051898956,2.28366374969,0.00757234949895,-0.00495960394357,0.0125818102558,0.999879872736
1543475347657596000,49,1543475347657596000,/map,1.3126373291,18.5025215149,2.28609895706,0.00752661728224,-0.00494865453186,0.01272076376,0.999878514131
1543475347757432000,50,1543475347757432000,/map,1.32190811634,18.5000495911,2.28382492065,0.00754949195483,-0.00494728775128,0.0126248959483,0.999879563506
1543475347857209000,51,1543475347857209000,/map,1.31864857674,18.5032405853,2.28328990936,0.00749884881072,-0.00487598745173,0.0126170791002,0.999880393511
1543475347957020000,52,1543475347957020000,/map,1.31537461281,18.5030021667,2.28523111343,0.00749967119027,-0.00495468142822,0.0127265982929,0.999878612512
1543475348056869000,53,1543475348056869000,/map,1.32040882111,18.4988670349,2.28312897682,0.00758167260435,-0.00496435791232,0.0123470074012,0.999882705521
1543475348156677000,54,1543475348156677000,/map,1.31644415855,18.5048522949,2.28766298294,0.00751788309343,-0.00495046827367,0.0125806944255,0.999880343054
1543475348256489000,55,1543475348256489000,/map,1.31638216972,18.4979839325,2.28672671318,0.0075217337294,-0.00496117882306,0.0126128361464,0.999879856078
1543475348356323000,56,1543475348356323000,/map,1.31522703171,18.501914978,2.28439927101,0.00745757695478,-0.00487608132312,0.0125657964293,0.999881347529
1543475348456199000,57,1543475348456199000,/map,1.32363784313,18.5012874603,2.28113102913,0.00758177351141,-0.00487767884329,0.0126424046555,0.999879440015
1543475348555976000,58,1543475348555976000,/map,1.3132160902,18.5038700104,2.28250598907,0.00749141095536,-0.00494723280373,0.0125909238516,0.999880428994
1543475348655857000,59,1543475348655857000,/map,1.31633591652,18.503572464,2.28575229645,0.00750902471738,-0.00492029981701,0.0125874828311,0.999880473093
1543475348755674000,60,1543475348755674000,/map,1.317024827,18.5023670197,2.27941179276,0.00744819098522,-0.00483149062795,0.0125453568091,0.999881890611
1543475348855479000,61,1543475348855479000,/map,1.3214328289,18.502407074,2.28558015823,0.00755228440208,-0.00491209271874,0.0126203786431,0.999879772967
1543475348955353000,62,1543475348955353000,/map,1.31968092918,18.5012149811,2.28282022476,0.00750680675841,-0.00496623870316,0.012562773662,0.99988057339
1543475349055165000,63,1543475349055165000,/map,1.31515967846,18.5053901672,2.2886929512,0.00759211458519,-0.00498634310361,0.0125616473966,0.999879843378
1543475349155075000,64,1543475349155075000,/map,1.31859922409,18.5028400421,2.27996277809,0.00745422238276,-0.00483601266659,0.0126132118135,0.999880970135
1543475349254937000,65,1543475349254937000,/map,1.31986010075,18.4984512329,2.28676009178,0.00757493639901,-0.00486074841428,0.0125465702881,0.999880781412
1543475349354753000,66,1543475349354753000,/map,1.3141399622,18.5005016327,2.28356337547,0.00748936505148,-0.00499151689102,0.0125854393614,0.999880293278
1543475349454636000,67,1543475349454636000,/map,1.32043278217,18.5074520111,2.28589916229,0.00757466446614,-0.00499862505157,0.012557237279,0.999879969795
1543475349554496000,68,1543475349554496000,/map,1.31822276115,18.5036945343,2.28268289566,0.00746157839006,-0.00488877897286,0.0126118732237,0.999880675552
1543475349654311000,69,1543475349654311000,/map,1.31236600876,18.5069503784,2.28450393677,0.00746467908885,-0.00493524627438,0.0123703832715,0.999883440971
1543475349754175000,70,1543475349754175000,/map,1.32009375095,18.5011825562,2.28170275688,0.00753264766767,-0.00488913239528,0.0126055723126,0.999880220402
1543475349854040000,71,1543475349854040000,/map,1.31644487381,18.4992370605,2.28487372398,0.00761635161189,-0.0050361163262,0.0126275877241,0.999878579003
1543475349953863000,72,1543475349953863000,/map,1.31334400177,18.4992046356,2.28626084328,0.00763010539965,-0.00507139868966,0.0126037090525,0.999878597093
1543475350053766000,73,1543475350053766000,/map,1.31817185879,18.5040988922,2.28223085403,0.00747393888215,-0.00493263518931,0.0125368098936,0.999881311829
1543475350153640000,74,1543475350153640000,/map,1.31707859039,18.5025024414,2.2880730629,0.00755042310232,-0.00492175608178,0.0125689759793,0.999880386982
1543475350253489000,75,1543475350253489000,/map,1.3126090765,18.4957103729,2.28154158592,0.00751768882995,-0.00494782704958,0.0126078895056,0.999880015044
1543475350353404000,76,1543475350353404000,/map,1.3149266243,18.5029525757,2.28558683395,0.00746089162426,-0.00496668826202,0.0125981317863,0.999880469946
1543475350453254000,77,1543475350453254000,/map,1.31700861454,18.5017719269,2.28387403488,0.00755389012391,-0.00489181715774,0.0126138380008,0.999879942773
1543475350553158000,78,1543475350553158000,/map,1.31874132156,18.5004806519,2.2823369503,0.00755110576474,-0.00489367588327,0.0126227412898,0.999879842351
1543475350653011000,79,1543475350653011000,/map,1.31693530083,18.5069046021,2.286714077,0.0075025719492,-0.00500561824186,0.0125664165874,0.999880363031
1543475350752890000,80,1543475350752890000,/map,1.31858968735,18.5005531311,2.28267645836,0.00749591799775,-0.00492745470423,0.0125400309123,0.999881132449
1543475350852768000,81,1543475350852768000,/map,1.31939041615,18.5036907196,2.28422784805,0.00753699189336,-0.00498967914076,0.012621799024,0.999879486261
1543475350952618000,82,1543475350952618000,/map,1.31766533852,18.4980621338,2.28261971474,0.0074282786751,-0.0048430950692,0.012588405827,0.999881441544
1543475351052519000,83,1543475351052519000,/map,1.31943917274,18.5009460449,2.28499674797,0.00759398406531,-0.00498419931602,0.0125486510091,0.999880003061
1543475351152462000,84,1543475351152462000,/map,1.31646966934,18.5055427551,2.27901721001,0.00740717484842,-0.0048306093957,0.0126132446236,0.999881345477
1543475351252313000,85,1543475351252313000,/map,1.32081639767,18.4999732971,2.28581309319,0.00754836889346,-0.00489007554797,0.012601252859,0.999880151675
1543475351352226000,86,1543475351352226000,/map,1.31693661213,18.5036716461,2.2819890976,0.00757852123849,-0.00495823367335,0.0126555352668,0.999878902349
1543475351452112000,87,1543475351452112000,/map,1.32101643085,18.5014247894,2.28527164459,0.00755125778121,-0.00487352109822,0.0125604904147,0.999880723576
1543475351552000000,88,1543475351552000000,/map,1.31569612026,18.5060005188,2.2834148407,0.00750578102169,-0.00497781568108,0.0126368362351,0.999879590237
1543475351651882000,89,1543475351651882000,/map,1.31836092472,18.5021972656,2.28452825546,0.00744002462607,-0.00486402647663,0.0125893470562,0.999881240758
1543475351751811000,90,1543475351751811000,/map,1.31402170658,18.5051174164,2.28296923637,0.00751230870972,-0.00489092433376,0.012669158569,0.999879560996
1543475351851700000,91,1543475351851700000,/map,1.32024157047,18.5029315948,2.28495550156,0.00756031253064,-0.00497799188155,0.0125082880283,0.999880794896
1543475351951641000,92,1543475351951641000,/map,1.31773328781,18.5010986328,2.27896142006,0.0074311130984,-0.00490828251769,0.0126846817979,0.999879885871
1543475352051507000,93,1543475352051507000,/map,1.31753647327,18.5034732819,2.28829574585,0.00756900434439,-0.00496283249959,0.0124965064207,0.999880951811
1543475352151391000,94,1543475352151391000,/map,1.31798458099,18.5021572113,2.28274583817,0.00752325789722,-0.00487205261534,0.012561934257,0.999880923661
1543475352251339000,95,1543475352251339000,/map,1.31641626358,18.5027332306,2.28806519508,0.00751561671586,-0.00503064638378,0.0126587277519,0.999878975034
1543475352351252000,96,1543475352351252000,/map,1.31982004642,18.500995636,2.28416728973,0.00753295706702,-0.00492895629234,0.0124913116453,0.999881456514
1543475352451168000,97,1543475352451168000,/map,1.31554317474,18.505815506,2.28381204605,0.0076029029305,-0.00493355701951,0.0126921765977,0.999878374871
1543475352551093000,98,1543475352551093000,/map,1.3160572052,18.499879837,2.28368830681,0.00746301147426,-0.00485331738631,0.012596748506,0.999881028271
1543475352651008000,99,1543475352651008000,/map,1.31684350967,18.5035552979,2.28462147713,0.0075217229395,-0.00495674119562,0.0125505122963,0.9998806624
1543475352750929000,100,1543475352750929000,/map,1.31419110298,18.5001296997,2.28019976616,0.00753780015792,-0.00488681973448,0.0125742189093,0.999880587661
1543475352850830000,101,1543475352850830000,/map,1.31692683697,18.4998950958,2.28589725494,0.00749318220959,-0.00495948172271,0.0125211575368,0.999881231135
1543475352950729000,102,1543475352950729000,/map,1.31666791439,18.5031681061,2.27836155891,0.00745418121549,-0.0049206476761,0.0125827738825,0.999880941018
1543475353050665000,103,1543475353050665000,/map,1.31814205647,18.5018253326,2.28615140915,0.0075819035965,-0.00488816877484,0.0125131025742,0.999881014325
1543475353150616000,104,1543475353150616000,/map,1.31657075882,18.5012149811,2.27820467949,0.00743222053865,-0.00494718694711,0.0126162739541,0.999880551401
1543475353250566000,105,1543475353250566000,/map,1.32357275486,18.5042457581,2.28449273109,0.00753299200926,-0.00491412984652,0.0125476581554,0.999880823716
1543475353350455000,106,1543475353350455000,/map,1.31559097767,18.5015544891,2.28369927406,0.00751977983156,-0.0048984336713,0.0126322864832,0.999879934591
1543475353450370000,107,1543475353450370000,/map,1.31631028652,18.5052719116,2.2789850235,0.00741689839546,-0.00483007190989,0.0125534519074,0.999882028476
1543475353550328000,108,1543475353550328000,/map,1.31888830662,18.5013771057,2.28473544121,0.00758949771733,-0.00500484139625,0.0126650558841,0.999878466338
1543475353650263000,109,1543475353650263000,/map,1.31608009338,18.5036792755,2.27924203873,0.00756286613948,-0.00484743947703,0.0125771040597,0.999880553786
1543475353750181000,110,1543475353750181000,/map,1.32155108452,18.4987239838,2.28477716446,0.007549053421,-0.00497859124915,0.0125771164296,0.999880013584
1543475353850202000,111,1543475353850202000,/map,1.31556379795,18.5011291504,2.28194141388,0.00753887752599,-0.00488363981437,0.0126038523524,0.999880221973
1543475353950047000,112,1543475353950047000,/map,1.31624186039,18.4995613098,2.27994728088,0.00754289234765,-0.00490843938347,0.0124977670676,0.999881401875
1543475354049970000,113,1543475354049970000,/map,1.31560432911,18.5030136108,2.2865216732,0.00748859321492,-0.00490208685802,0.0126471170838,0.999879963268
1543475354149975000,114,1543475354149975000,/map,1.31538677216,18.5019264221,2.27768039703,0.00753303454575,-0.00484076621544,0.0125411495772,0.999881262921
1543475354249894000,115,1543475354249894000,/map,1.31810820103,18.505739212,2.28457117081,0.00753148887443,-0.00490898572945,0.012561915551,0.999880681288
1543475354349835000,116,1543475354349835000,/map,1.31710159779,18.4979019165,2.28180217743,0.00754131984604,-0.00493361852564,0.0125839337958,0.999880209082
1543475354449795000,117,1543475354449795000,/map,1.31727361679,18.5031814575,2.2786359787,0.00752218366845,-0.00482584164334,0.0126245971502,0.99988036662
1543475354549762000,118,1543475354549762000,/map,1.32043504715,18.5003547668,2.28400063515,0.00750340408964,-0.00491581233604,0.0126190149608,0.999880139906
1543475354649684000,119,1543475354649684000,/map,1.3152629137,18.5060501099,2.28400659561,0.00751245740187,-0.00494086254095,0.0125393392479,0.99988095083
1543475354749629000,120,1543475354749629000,/map,1.31620943546,18.4991970062,2.28169965744,0.00748717375534,-0.00493943335525,0.0126226587844,0.999880099168
1543475354849602000,121,1543475354849602000,/map,1.31955087185,18.5042972565,2.28412699699,0.00753106048117,-0.00489852269286,0.0126162472846,0.99988005176
1543475354949552000,122,1543475354949552000,/map,1.31536340714,18.5030612946,2.28360247612,0.00745962810756,-0.00495994810885,0.0125212928909,0.99988147802
1543475355049516000,123,1543475355049516000,/map,1.32253289223,18.4986438751,2.28524899483,0.00753803924918,-0.00501991977585,0.012593882373,0.99987967901
1543475355149432000,124,1543475355149432000,/map,1.31829822063,18.5060901642,2.28534817696,0.00749276212735,-0.00503792073269,0.0125984400977,0.999879871373
1543475355249406000,125,1543475355249406000,/map,1.31444513798,18.5032348633,2.28001236916,0.00750017443155,-0.00487929813797,0.012573357044,0.999880918173
1543475355349417000,126,1543475355349417000,/map,1.32239699364,18.5012893677,2.28419089317,0.00751062496384,-0.00497703639378,0.0125698870929,0.999880401628
1543475355449326000,127,1543475355449326000,/map,1.3177690506,18.5045852661,2.28161764145,0.00742778366443,-0.00491453861989,0.0126097330291,0.999880827885
1543475355549359000,128,1543475355549359000,/map,1.32166874409,18.4974937439,2.28236246109,0.00754425599898,-0.00490391242839,0.0125993094573,0.999880139439
1543475355649257000,129,1543475355649257000,/map,1.3165293932,18.5058803558,2.27932286263,0.00744885707032,-0.00480336606568,0.012596635092,0.999881376458
1543475355749234000,130,1543475355749234000,/map,1.31815350056,18.5031929016,2.28354883194,0.00752929951038,-0.00493209166715,0.012622367581,0.999879822757
1543475355849176000,131,1543475355849176000,/map,1.31312763691,18.5036087036,2.27654051781,0.00751522296576,-0.00476382648472,0.012592225842,0.999881124549
1543475355949191000,132,1543475355949191000,/map,1.31793034077,18.5001163483,2.284085989,0.00751560519423,-0.00489345553658,0.0125932938247,0.999880482219
1543475356049149000,133,1543475356049149000,/map,1.31354320049,18.504907608,2.27951812744,0.00744530961114,-0.00491803911106,0.0126004377392,0.999880797508
1543475356149128000,134,1543475356149128000,/map,1.32072281837,18.5040302277,2.28448486328,0.00749557313222,-0.00493720454782,0.0126065979136,0.999880249872
1543475356249112000,135,1543475356249112000,/map,1.31727492809,18.5004882812,2.284085989,0.00753778158873,-0.00493460307722,0.0125529964947,0.999880619784
1543475356349070000,136,1543475356349070000,/map,1.31515347958,18.4991531372,2.28440499306,0.00761171248389,-0.00508243076257,0.0126345938047,0.999878291479
1543475356449055000,137,1543475356449055000,/map,1.31927716732,18.5072879791,2.28098344803,0.00748470388372,-0.00491593165564,0.0125537768882,0.999881100686
1543475356549026000,138,1543475356549026000,/map,1.31653439999,18.5028915405,2.28428530693,0.00750759580444,-0.00492922262741,0.0125810208545,0.999880521204
1543475356649005000,139,1543475356649005000,/map,1.31984317303,18.5023994446,2.28023290634,0.00748771823152,-0.00484227504974,0.0124483070322,0.999882756177
1543475356749038000,140,1543475356749038000,/map,1.3154784441,18.504278183,2.28395104408,0.00752062192064,-0.00502541378811,0.0126817463724,0.999878672025
1543475356848988000,141,1543475356848988000,/map,1.32159042358,18.5034198761,2.28111171722,0.00750811984064,-0.00485839739702,0.0125996623339,0.999880629185
1543475356948943000,142,1543475356948943000,/map,1.31846344471,18.4961013794,2.28344202042,0.00748450180562,-0.00493369990962,0.0125629903831,0.999880898963
1543475357048948000,143,1543475357048948000,/map,1.32045209408,18.4984607697,2.28243756294,0.0074938415032,-0.00495561250706,0.0126083933466,0.999880149149
1543475357148962000,144,1543475357148962000,/map,1.31870412827,18.4954299927,2.27934384346,0.00746151588812,-0.00490731707916,0.0125588310297,0.999881252841
1543475357248889000,145,1543475357248889000,/map,1.31464827061,18.5009307861,2.28446936607,0.00748638973642,-0.00498147017774,0.0126110450881,0.999880043038
1543475357348890000,146,1543475357348890000,/map,1.3194668293,18.5059452057,2.28243684769,0.00750302894068,-0.00487738474061,0.012624828783,0.999880257517
1543475357448964000,147,1543475357448964000,/map,1.31918692589,18.4977226257,2.28556752205,0.00754107604263,-0.00500160500092,0.0125705360307,0.999880041677
1543475357548911000,148,1543475357548911000,/map,1.31542348862,18.5008182526,2.28164625168,0.00746328113719,-0.00484381359389,0.0126279548155,0.999880678712
1543475357648884000,149,1543475357648884000,/map,1.3200968504,18.4974803925,2.2855553627,0.00752708007239,-0.0049701192046,0.0125389172108,0.999880701152
1543475357748912000,150,1543475357748912000,/map,1.31993913651,18.5051612854,2.28408837318,0.00752259379855,-0.00486935793473,0.0126430570997,0.999879919312
1543475357848870000,151,1543475357848870000,/map,1.31223618984,18.5016078949,2.2825949192,0.00745993485696,-0.00497166474177,0.0125722872308,0.999880777651
1543475357948859000,152,1543475357948859000,/map,1.32045996189,18.5021133423,2.28442549706,0.00751262160229,-0.00491415500931,0.0126274845442,0.999879971912
1543475358048902000,153,1543475358048902000,/map,1.31925821304,18.5002403259,2.28291606903,0.00754454331757,-0.00488434619673,0.0125189344265,0.999881242603
1543475358148862000,154,1543475358148862000,/map,1.32232046127,18.5064544678,2.28612780571,0.00746263260054,-0.00502244939047,0.0126819130434,0.999879119293
1543475358248870000,155,1543475358248870000,/map,1.32113730907,18.5011501312,2.28410768509,0.00750253144422,-0.00499732360518,0.0125734337116,0.99988031661
1543475358348934000,156,1543475358348934000,/map,1.31975805759,18.4960975647,2.2817902565,0.00761527507284,-0.0051278685956,0.012534752402,0.99987928898
1543475358448902000,157,1543475358448902000,/map,1.31584298611,18.5076904297,2.28810143471,0.00750248507025,-0.00496058040213,0.0126126946336,0.999880005448
1543475358548907000,158,1543475358548907000,/map,1.32168424129,18.5041294098,2.28306126595,0.00747699187776,-0.00492730427397,0.0126373193403,0.999880050018
1543475358648926000,159,1543475358648926000,/map,1.31791138649,18.4989776611,2.28732895851,0.00752539666276,-0.00504158774906,0.0125414036659,0.999880324835
1543475358748882000,160,1543475358748882000,/map,1.31670224667,18.5070343018,2.28461551666,0.00753026279856,-0.00488715870998,0.0126080175381,0.999880217184
1543475358848901000,161,1543475358848901000,/map,1.31476092339,18.503692627,2.28132295609,0.00745216044866,-0.00492499629777,0.0126044616473,0.999880661511
1543475358948944000,162,1543475358948944000,/map,1.31931602955,18.5043792725,2.2855014801,0.00752776676515,-0.00493537917627,0.0126303250235,0.999879717591
1543475359048921000,163,1543475359048921000,/map,1.31244814396,18.5059337616,2.28397536278,0.00752159002233,-0.00497282621424,0.0125976606993,0.999879990613
1543475359148918000,164,1543475359148918000,/map,1.31767082214,18.5002403259,2.28252267838,0.00751640529671,-0.00492115846112,0.0126176186827,0.999880033579
1543475359248970000,165,1543475359248970000,/map,1.31649112701,18.507101059,2.27978849411,0.00744704048378,-0.00484680421419,0.0125867704323,0.999881304599
1543475359348980000,166,1543475359348980000,/map,1.31566727161,18.5025444031,2.28572654724,0.00755945876403,-0.00499459719881,0.0125931591642,0.99987965322
1543475359448969000,167,1543475359448969000,/map,1.31727814674,18.5076236725,2.2838408947,0.00752638316127,-0.00490136531405,0.0126121143527,0.999880125188
1543475359549014000,168,1543475359549014000,/map,1.32090580463,18.5000553131,2.28336977959,0.00747293484074,-0.00493593490506,0.0125497460833,0.999881140769
1543475359649016000,169,1543475359649016000,/map,1.31550908089,18.503528595,2.28709602356,0.00748191547742,-0.00493107942877,0.0126484819041,0.999879853433
1543475359749078000,170,1543475359749078000,/map,1.32226288319,18.4998054504,2.28141760826,0.00749947309961,-0.00492062677216,0.0125367952717,0.999881179991
1543475359849071000,171,1543475359849071000,/map,1.31667113304,18.5019702911,2.28725838661,0.00752136650307,-0.00497813678135,0.0125981803903,0.999879959321
1543475359949103000,172,1543475359949103000,/map,1.32383728027,18.4969997406,2.2822535038,0.00749187325104,-0.00488624761432,0.0126230381137,0.999880320503
1543475360049127000,173,1543475360049127000,/map,1.3173853159,18.5041656494,2.2869310379,0.00749954705552,-0.00501718644398,0.012632509147,0.999879494913
1543475360149151000,174,1543475360149151000,/map,1.31972765923,18.4987869263,2.28133201599,0.00754633595493,-0.00484137324497,0.0125686088212,0.999880814893
1543475360249160000,175,1543475360249160000,/map,1.32206487656,18.5058269501,2.28284239769,0.00753057375812,-0.00488005300466,0.0126553260457,0.99987965189
1543475360349184000,176,1543475360349184000,/map,1.31500077248,18.5037975311,2.27983617783,0.00746769975721,-0.00489903039672,0.0125661045194,0.999881155927
1543475360449207000,177,1543475360449207000,/map,1.32262587547,18.4993515015,2.28038191795,0.00748735035341,-0.0047978010011,0.0126113613315,0.999880930039
1543475360549213000,178,1543475360549213000,/map,1.31636166573,18.5016536713,2.28593969345,0.00747773888395,-0.00492897490885,0.0126035129664,0.9998804629
1543475360649248000,179,1543475360649248000,/map,1.31911754608,18.4980564117,2.28392720222,0.00751614024571,-0.00493153356678,0.0124794995205,0.999881717857
1543475360749319000,180,1543475360749319000,/map,1.32020950317,18.5078144073,2.28074550629,0.00748067295559,-0.00493459245027,0.0125829229238,0.999880672571
1543475360849325000,181,1543475360849325000,/map,1.32164418697,18.499168396,2.28369140625,0.00748417476135,-0.00489332726097,0.012555398832,0.999881195161
1543475360949360000,182,1543475360949360000,/map,1.31644308567,18.5032310486,2.28457927704,0.00752508753905,-0.00500874196829,0.0126021134967,0.999879728916
1543475361049370000,183,1543475361049370000,/map,1.31867659092,18.499130249,2.28482532501,0.00749913703955,-0.00490041933465,0.0125617112024,0.999880969039
1543475361149418000,184,1543475361149418000,/map,1.31627929211,18.5038890839,2.28622603416,0.00755410255831,-0.00506321707837,0.012684041358,0.999878199813
1543475361249464000,185,1543475361249464000,/map,1.31929540634,18.5043487549,2.2795381546,0.00747067051113,-0.00483360769894,0.0126563643724,0.999880313717
1543475361349519000,186,1543475361349519000,/map,1.31840074062,18.5037536621,2.2862496376,0.00751536257149,-0.0049199468323,0.0125356348832,0.999881078582
1543475361449565000,187,1543475361449565000,/map,1.31499278545,18.507818222,2.28933143616,0.0074999164576,-0.00505556821707,0.0128096034487,0.999877045712
1543475361549557000,188,1543475361549557000,/map,1.32301771641,18.5014419556,2.28105688095,0.00749875915932,-0.00490091112421,0.0126509495385,0.99987984436
1543475361649594000,189,1543475361649594000,/map,1.31699502468,18.50623703,2.28293275833,0.00754236888998,-0.00495347654018,0.0126005635614,0.999879893557
1543475361749636000,190,1543475361749636000,/map,1.31919205189,18.5014762878,2.28387069702,0.00754358865268,-0.00492403734058,0.0126106566679,0.999879902521
1543475361849717000,191,1543475361849717000,/map,1.31224262714,18.4977283478,2.28280043602,0.0074627556537,-0.00486402066509,0.012490304563,0.999882313511
1543475361949731000,192,1543475361949731000,/map,1.31791222095,18.4970855713,2.28221201897,0.00751875061158,-0.00488659555293,0.012581040629,0.999880646372
1543475362049791000,193,1543475362049791000,/map,1.31786525249,18.5070114136,2.27941131592,0.00746738101331,-0.00491243030439,0.0126139316841,0.999880490347
1543475362149848000,194,1543475362149848000,/map,1.31335806847,18.5022735596,2.28049635887,0.00752381572529,-0.00487871881598,0.0126223064378,0.999880126655
1543475362249889000,195,1543475362249889000,/map,1.31855988503,18.5053634644,2.28472065926,0.00753591777162,-0.00494914416235,0.0126108700863,0.999879833716
1543475362349919000,196,1543475362349919000,/map,1.3171672821,18.503276825,2.27892065048,0.00750434225087,-0.00486764251666,0.0126086097509,0.999880499792
1543475362449956000,197,1543475362449956000,/map,1.31581246853,18.5100383759,2.28207278252,0.00749343000024,-0.00494148456151,0.0126558469957,0.999879622642
1543475362550010000,198,1543475362550010000,/map,1.31728732586,18.4988822937,2.28501939774,0.00746266797594,-0.00495616664754,0.012532742604,0.99988133064
1543475362650064000,199,1543475362650064000,/map,1.31786048412,18.5061302185,2.28145289421,0.00749050831165,-0.00490959462646,0.0125881083774,0.999880656725
1543475362750134000,200,1543475362750134000,/map,1.31880736351,18.5003185272,2.28168106079,0.0074703834611,-0.00480520415811,0.0125856143353,0.999881345808
1543475362850195000,201,1543475362850195000,/map,1.31908011436,18.5038394928,2.28537201881,0.00750756716062,-0.00496456730793,0.0125638571487,0.999880562367
1543475362950217000,202,1543475362950217000,/map,1.31576085091,18.5091667175,2.28010487556,0.00745515324575,-0.00491591577349,0.0126202524653,0.999880484703
1543475363050314000,203,1543475363050314000,/map,1.31501793861,18.5039234161,2.28534269333,0.0075367029719,-0.00489455668108,0.0126274789433,0.999879886886
1543475363150315000,204,1543475363150315000,/map,1.32196819782,18.5007762909,2.28102970123,0.00750384461305,-0.00488435060033,0.0126235791274,0.999880233171
1543475363250386000,205,1543475363250386000,/map,1.31868505478,18.5007457733,2.28324341774,0.00751216131109,-0.00491904113592,0.01257298666,0.999880638113
1543475363350432000,206,1543475363350432000,/map,1.32545530796,18.4976959229,2.28524231911,0.00749362934646,-0.00498802942056,0.0126137830753,0.99987992157
1543475363450478000,207,1543475363450478000,/map,1.32090687752,18.5029373169,2.28653097153,0.00750575942394,-0.00502405948787,0.0125923008462,0.999879920971
1543475363550592000,208,1543475363550592000,/map,1.32241511345,18.5010890961,2.28112840652,0.00753228367438,-0.00490197834556,0.0125733040287,0.999880566536
1543475363650588000,209,1543475363650588000,/map,1.32070398331,18.5037250519,2.28693318367,0.00750720091147,-0.00496190276661,0.0125733073744,0.999880459554
1543475363750650000,210,1543475363750650000,/map,1.32218277454,18.4984455109,2.28251051903,0.00753920222915,-0.00485307957808,0.0125459687489,0.999881096289
1543475363850700000,211,1543475363850700000,/map,1.31538832188,18.5046234131,2.28446340561,0.00748938009482,-0.00498734034066,0.0125455848522,0.999880814859
1543475363950791000,212,1543475363950791000,/map,1.32170081139,18.5007152557,2.28305411339,0.00749305668746,-0.00488603688797,0.0125980037272,0.999880628399
1543475364050853000,213,1543475364050853000,/map,1.318313241,18.5007457733,2.28484940529,0.0075470208,-0.00500895874311,0.0125902757973,0.999879711648
1543475364150914000,214,1543475364150914000,/map,1.32427632809,18.4984226227,2.28070425987,0.00755940836046,-0.00487419533026,0.0126746466544,0.999879218155
1543475364250987000,215,1543475364250987000,/map,1.31832551956,18.5035610199,2.28697395325,0.00750638647227,-0.00495889683533,0.0126221750989,0.999879864884
1543475364351050000,216,1543475364351050000,/map,1.31943404675,18.4986915588,2.28289079666,0.00748208214155,-0.00493807516213,0.012561838945,0.99988090994
1543475364451156000,217,1543475364451156000,/map,1.31627309322,18.5055122375,2.28083205223,0.00752153999706,-0.0049202990438,0.0125885033751,0.999880366182
1543475364551177000,218,1543475364551177000,/map,1.31896436214,18.5016365051,2.28628730774,0.00753805303034,-0.00500063386078,0.0125842138459,0.999879897277
1543475364651248000,219,1543475364651248000,/map,1.31742846966,18.505815506,2.28672122955,0.00749104663431,-0.00503122330359,0.0125655769006,0.999880331484
1543475364751320000,220,1543475364751320000,/map,1.32006037235,18.5013446808,2.28377866745,0.00749339157864,-0.0049228805188,0.0126164405753,0.999880212704
1543475364851398000,221,1543475364851398000,/map,1.31475687027,18.5053386688,2.28493690491,0.00751197281922,-0.00496150141185,0.0125529494265,0.999880681496
1543475364951462000,222,1543475364951462000,/map,1.3174932003,18.5007724762,2.2850921154,0.00751802451125,-0.00495490023505,0.0125321033798,0.999880930239
1543475365051543000,223,1543475365051543000,/map,1.31780087948,18.5036811829,2.27590703964,0.00748375124367,-0.00478410223027,0.0126447902214,0.999880600429
1543475365151615000,224,1543475365151615000,/map,1.31473708153,18.5017299652,2.28463196754,0.00749900985307,-0.0049635480336,0.0125557017295,0.999880734086
1543475365251688000,225,1543475365251688000,/map,1.31589388847,18.507270813,2.2802054882,0.00746823795223,-0.00488358127164,0.0125643144369,0.999881249979
1543475365351755000,226,1543475365351755000,/map,1.31895029545,18.4986000061,2.28623771667,0.00752016164716,-0.00494277179192,0.0125916404456,0.99988022621
1543475365451875000,227,1543475365451875000,/map,1.31630086899,18.5057563782,2.28413438797,0.00755066468047,-0.00494332230391,0.0126134413352,0.999879718829
1543475365551917000,228,1543475365551917000,/map,1.32181274891,18.4992160797,2.28154921532,0.00750072419429,-0.00487764750331,0.0125966674565,0.999880628705
1543475365651971000,229,1543475365651971000,/map,1.3156234026,18.4989299774,2.28373122215,0.00755892449596,-0.00492376279457,0.0125316745761,0.99988078107
1543475365752015000,230,1543475365752015000,/map,1.31997644901,18.5042953491,2.28305959702,0.00754019849482,-0.00497204533001,0.0126552514208,0.999879127087
1543475365852104000,231,1543475365852104000,/map,1.31505894661,18.5061168671,2.28260064125,0.00750954522882,-0.0049364335467,0.0125387775067,0.999881001626
1543475365952204000,232,1543475365952204000,/map,1.31776130199,18.4961776733,2.28565406799,0.00751574433101,-0.00493746517454,0.0125519896493,0.999880784184
1543475366052269000,233,1543475366052269000,/map,1.31629264355,18.504693985,2.28306531906,0.00753571522231,-0.00495944535937,0.0125849500559,0.999880110778
1543475366152367000,234,1543475366152367000,/map,1.32010126114,18.503911972,2.28741335869,0.00749519140583,-0.00498790954048,0.0125910533612,0.999880196943
1543475366252437000,235,1543475366252437000,/map,1.31607139111,18.5070209503,2.28067660332,0.00752588858064,-0.00486569828873,0.0126777248158,0.999879473374
1543475366352521000,236,1543475366352521000,/map,1.32028841972,18.4987182617,2.28100681305,0.007502939768,-0.0048886027941,0.0125541968772,0.99988109273
1543475366452567000,237,1543475366452567000,/map,1.31437587738,18.5041599274,2.28576207161,0.00752349822316,-0.00495406513847,0.0126101935406,0.999879911405
1543475366552711000,238,1543475366552711000,/map,1.31887817383,18.5010433197,2.27722787857,0.00749514009049,-0.00482417108983,0.0125863293475,0.999881060208
1543475366652754000,239,1543475366652754000,/map,1.31437575817,18.5010814667,2.28795623779,0.00754383989678,-0.0050120005102,0.0125987757849,0.999879613343
1543475366752823000,240,1543475366752823000,/map,1.31815505028,18.4980773926,2.28526329994,0.00752131462603,-0.00497088306813,0.0125719825296,0.999880325541
1543475366852962000,241,1543475366852962000,/map,1.31680631638,18.5062103271,2.28305506706,0.00751127028781,-0.00498130436891,0.0126167467883,0.999879785337
1543475366953008000,242,1543475366953008000,/map,1.31955778599,18.4999160767,2.28346037865,0.00751450916728,-0.00493671221583,0.0125209312454,0.999881186594
1543475367053107000,243,1543475367053107000,/map,1.31882488728,18.5062923431,2.28282666206,0.00751447972764,-0.00500205300574,0.012572590356,0.999880213842
1543475367153164000,244,1543475367153164000,/map,1.31800746918,18.4961280823,2.283659935,0.00749669114408,-0.00491196746201,0.0125391592845,0.999881213786
1543475367253254000,245,1543475367253254000,/map,1.31595730782,18.503824234,2.2829003334,0.00754010412187,-0.00499255985822,0.0125756202628,0.999880030279
1543475367353369000,246,1543475367353369000,/map,1.3189047575,18.5023288727,2.28430080414,0.00753493929543,-0.00495332903199,0.0125441164964,0.99988066006
1543475367453416000,247,1543475367453416000,/map,1.32035386562,18.4962310791,2.28625273705,0.00753584612956,-0.00494921630595,0.0126794756541,0.999878966265
1543475367553522000,248,1543475367553522000,/map,1.31828320026,18.5032043457,2.28367328644,0.00753216067781,-0.00498148265435,0.0125798313823,0.999880092425
1543475367653633000,249,1543475367653633000,/map,1.31326758862,18.5026187897,2.28715491295,0.00750505543105,-0.00500793880409,0.0126056199231,0.9998798393
1543475367753708000,250,1543475367753708000,/map,1.31974220276,18.5047550201,2.28440570831,0.00746731554881,-0.00503017256482,0.0126576270125,0.999879353243
1543475367853802000,251,1543475367853802000,/map,1.31543242931,18.5048866272,2.2797794342,0.00755120091665,-0.00484137326286,0.0125469143716,0.99988105063
1543475367953879000,252,1543475367953879000,/map,1.31778287888,18.496805191,2.28094696999,0.00751945788997,-0.00484497627351,0.0125928340001,0.999880695128
1543475368053972000,253,1543475368053972000,/map,1.31597220898,18.5027217865,2.28344249725,0.00756261696185,-0.0049511717043,0.0126242561954,0.999879453174
1543475368154075000,254,1543475368154075000,/map,1.32062041759,18.4981040955,2.2800385952,0.00750622836782,-0.00486984079324,0.0126161775683,0.99988037947
1543475368254175000,255,1543475368254175000,/map,1.31681549549,18.5068149567,2.28498840332,0.0075741480753,-0.00501605923743,0.0126190292323,0.999879108459
1543475368354311000,256,1543475368354311000,/map,1.31824076176,18.5010147095,2.2829003334,0.00751581152313,-0.00489784260417,0.0126023915495,0.999880344562
1543475368454390000,257,1543475368454390000,/map,1.31728100777,18.5033359528,2.28714060783,0.00756005351633,-0.00510712143579,0.0125885198656,0.999879138731
1543475368554502000,258,1543475368554502000,/map,1.31513547897,18.5030536652,2.28064227104,0.00743436691702,-0.00487997467622,0.0126156780655,0.999880873256
1543475368654608000,259,1543475368654608000,/map,1.32069075108,18.4990386963,2.28606677055,0.00751509896567,-0.00498150544439,0.0125208855303,0.999880960573
1543475368754672000,260,1543475368754672000,/map,1.31580758095,18.5025959015,2.27879190445,0.0074902578917,-0.00486509831233,0.012598900961,0.999880740163
1543475368854722000,261,1543475368854722000,/map,1.31965255737,18.5029563904,2.28617763519,0.00753410762184,-0.004979925594,0.0126163444091,0.999879625464
1543475368954814000,262,1543475368954814000,/map,1.31907916069,18.4939117432,2.28606414795,0.00749666280646,-0.00498624960569,0.0125578229575,0.999880612095
1543475369054917000,263,1543475369054917000,/map,1.31770420074,18.5052394867,2.28249955177,0.00754548022837,-0.00495699613029,0.0126006189372,0.999879851942
1543475369155015000,264,1543475369155015000,/map,1.32068455219,18.5004425049,2.28145551682,0.00750666500362,-0.00486973378726,0.0126115470656,0.999880435129
1543475369255177000,265,1543475369255177000,/map,1.31798768044,18.5038928986,2.28701806068,0.00748315837889,-0.00500380158586,0.0125071146058,0.999881261148
1543475369355222000,266,1543475369355222000,/map,1.31537210941,18.5030860901,2.2794213295,0.00748923426476,-0.00491895106319,0.0125902669345,0.999880593106
1543475369455365000,267,1543475369455365000,/map,1.31873857975,18.4965496063,2.28499603271,0.00754440514895,-0.00492203692604,0.0125024460559,0.999881265124
1543475369555454000,268,1543475369555454000,/map,1.31630575657,18.5049743652,2.28164696693,0.00749413773863,-0.00490495165395,0.0125801797007,0.999880752104
1543475369655566000,269,1543475369655566000,/map,1.31577384472,18.5034275055,2.28676056862,0.00756781978706,-0.00503297915454,0.0125947072769,0.999879378012
1543475369755661000,270,1543475369755661000,/map,1.32069945335,18.5054035187,2.28156733513,0.00754182675139,-0.00482517307772,0.0125554747617,0.999881092234
1543475369855776000,271,1543475369855776000,/map,1.31539726257,18.5057506561,2.28608107567,0.00754038936217,-0.00500493030867,0.0125707522975,0.999880027497
1543475369955886000,272,1543475369955886000,/map,1.3200750351,18.5003261566,2.28334212303,0.00754537485383,-0.00489199254091,0.0126441666471,0.999879623143
1543475370055959000,273,1543475370055959000,/map,1.31696927547,18.5014743805,2.28179764748,0.0074706798457,-0.00490552306759,0.0124473784816,0.999882586885
1543475370156051000,274,1543475370156051000,/map,1.3166821003,18.5103530884,2.284096241,0.00757738603736,-0.00498784418305,0.0129569864569,0.999874902742
1543475370256190000,275,1543475370256190000,/map,1.31792962551,18.5070171356,2.28329539299,0.00749735201698,-0.00492186015551,0.0126289607152,0.999880029982
1543475370356317000,276,1543475370356317000,/map,1.32204544544,18.5019302368,2.28327393532,0.00754117047253,-0.00489087953129,0.0127430169098,0.99987840539
1543475370456388000,277,1543475370456388000,/map,1.3184581995,18.5040931702,2.28095769882,0.007465182052,-0.00489703405926,0.0125193879945,0.99988177053
1543475370556523000,278,1543475370556523000,/map,1.32033777237,18.4985980988,2.27712845802,0.00753941187279,-0.00475398174349,0.012979529584,0.999876036686
1543475370656612000,279,1543475370656612000,/map,1.31811690331,18.5003700256,2.28837442398,0.00749377012088,-0.00503395366346,0.0125037350908,0.999881072592
1543475370756713000,280,1543475370756713000,/map,1.31800341606,18.5054779053,2.28334188461,0.00753927404282,-0.00498513045055,0.0127461955333,0.999877913708
1543475370856831000,281,1543475370856831000,/map,1.32121062279,18.4992656708,2.28053355217,0.00747684260787,-0.0049198125648,0.0126251383248,0.999880241905
1543475370956936000,282,1543475370956936000,/map,1.31617212296,18.5035953522,2.28680896759,0.00752371970842,-0.00495557465648,0.0126242250359,0.999879725199
1543475371057065000,283,1543475371057065000,/map,1.31960296631,18.4966831207,2.28501439095,0.00748753735866,-0.00498434184516,0.0125589301584,0.999880676078
1543475371157154000,284,1543475371157154000,/map,1.31542360783,18.503868103,2.28151774406,0.00750122826916,-0.00482876934512,0.0125881219795,0.999880969789
1543475371257277000,285,1543475371257277000,/map,1.31565225124,18.4993476868,2.28513789177,0.00751614587291,-0.00496463982373,0.0125435861707,0.999880752064
1543475371357410000,286,1543475371357410000,/map,1.31780910492,18.5062084198,2.27986335754,0.00752260194942,-0.00484550267753,0.0126410098435,0.999880061024
1543475371457499000,287,1543475371457499000,/map,1.31820487976,18.5025272369,2.28512525558,0.00752260181439,-0.00495391082983,0.0125851964265,0.999880233858
1543475371557610000,288,1543475371557610000,/map,1.32031095028,18.5059204102,2.28066658974,0.00746692194282,-0.00487218817028,0.0126338233079,0.999880439537
1543475371657756000,289,1543475371657756000,/map,1.31613564491,18.5008888245,2.28202819824,0.0075271880536,-0.00485376043671,0.012613254712,0.999880336968
1543475371757828000,290,1543475371757828000,/map,1.32235813141,18.5008506775,2.28360462189,0.00754357854717,-0.00495948273927,0.0125672015201,0.999880274533
1543475371857917000,291,1543475371857917000,/map,1.31765758991,18.5030841827,2.2850830555,0.00749079408068,-0.00491990952584,0.0126793395979,0.999879451155
1543475371958066000,292,1543475371958066000,/map,1.31473946571,18.5035762787,2.28701710701,0.00749815046083,-0.00488304147804,0.0126803017054,0.999879564545
1543475372058198000,293,1543475372058198000,/map,1.32088029385,18.4968605042,2.28321766853,0.00755052360598,-0.00487201795246,0.0125789112741,0.999880504873
1543475372158291000,294,1543475372158291000,/map,1.31666827202,18.5053920746,2.28568553925,0.00754799227983,-0.00496462814944,0.0126360762418,0.99987934765
1543475372258424000,295,1543475372258424000,/map,1.31563901901,18.5011119843,2.28475570679,0.00751347926245,-0.00491073158408,0.0125432781161,0.999881042184
1543475372358533000,296,1543475372358533000,/map,1.32031583786,18.5037899017,2.28171873093,0.00753535660689,-0.00492141507541,0.0126953220305,0.999878906105
1543475372458677000,297,1543475372458677000,/map,1.31326305866,18.507610321,2.28557777405,0.00755406836133,-0.0049001326039,0.0125651407543,0.999880513856
1543475372558770000,298,1543475372558770000,/map,1.31977057457,18.5044193268,2.28337287903,0.00748373723829,-0.0049560535644,0.0125354675886,0.999881139567
1543475372658892000,299,1543475372658892000,/map,1.31654763222,18.5009250641,2.2793803215,0.0074783826426,-0.00481180705083,0.0126007325955,0.999881063849
1543475372758996000,300,1543475372758996000,/map,1.31974709034,18.5036067963,2.28797340393,0.00752867610336,-0.00496410053283,0.0124732015273,0.999881540977
1543475372859121000,301,1543475372859121000,/map,1.31527483463,18.501493454,2.28399682045,0.00750632372464,-0.0049974756002,0.0126507312219,0.999879312388
1543475372959253000,302,1543475372959253000,/map,1.31819331646,18.5044136047,2.27993607521,0.0074874635608,-0.00483772624676,0.0124586453463,0.99988265134
1543475373059367000,303,1543475373059367000,/map,1.32012581825,18.5019664764,2.28678560257,0.00752225200547,-0.00497485415003,0.01268779312,0.999878835888
1543475373159514000,304,1543475373159514000,/map,1.3141169548,18.5065975189,2.28133416176,0.00752755766658,-0.00484688594485,0.0126116807172,0.999880387387
1543475373259636000,305,1543475373259636000,/map,1.31737732887,18.4989891052,2.28373932838,0.0074928353181,-0.00493820056863,0.0126086829926,0.999880239182
1543475373359712000,306,1543475373359712000,/map,1.31686770916,18.5014762878,2.28178453445,0.0074717522864,-0.00494352769894,0.0125613543146,0.99988096633
1543475373459881000,307,1543475373459881000,/map,1.31385946274,18.5071926117,2.28116893768,0.00755969095362,-0.00488356737826,0.0128050088571,0.999877509293
1543475373559962000,308,1543475373559962000,/map,1.31584918499,18.4991340637,2.28349208832,0.00748669452573,-0.00492522483823,0.0125649022643,0.999880900306
1543475373660103000,309,1543475373660103000,/map,1.31373906136,18.5079536438,2.28361392021,0.00755828558294,-0.00490069248124,0.0126428731591,0.999879499385
1543475373760231000,310,1543475373760231000,/map,1.31827688217,18.5036754608,2.27945923805,0.00753054700212,-0.00482288281466,0.0126396238133,0.999880128102
1543475373860378000,311,1543475373860378000,/map,1.31990754604,18.5020923615,2.28579139709,0.00745111689393,-0.00506292042607,0.012600376243,0.99988003191
1543475373960482000,312,1543475373960482000,/map,1.31941246986,18.5022201538,2.28010559082,0.00753743727748,-0.0048702231532,0.0125664054281,0.999880769602
1543475374060614000,313,1543475374060614000,/map,1.3155272007,18.5000896454,2.28386187553,0.00743075796659,-0.00491017552075,0.0126300834927,0.99988057037
1543475374160709000,314,1543475374160709000,/map,1.31810307503,18.5064983368,2.28561306,0.00754626315413,-0.00500431961685,0.0125006977186,0.99988086453
1543475374260870000,315,1543475374260870000,/map,1.31498074532,18.501750946,2.28212857246,0.00746969779706,-0.00490711518798,0.012590856294,0.999880789981
1543475374360987000,316,1543475374360987000,/map,1.31986558437,18.5027885437,2.28534317017,0.0074706701707,-0.00499868984623,0.0125950062813,0.999880276835
1543475374461079000,317,1543475374461079000,/map,1.32123804092,18.49766922,2.28182125092,0.00754135475522,-0.00491500076853,0.0125775604937,0.9998803807
1543475374561242000,318,1543475374561242000,/map,1.31743693352,18.5042896271,2.28346729279,0.00749608577432,-0.00491984585877,0.0126254081898,0.999880094253
1543475374661338000,319,1543475374661338000,/map,1.3228905201,18.5023612976,2.28222250938,0.00747295937775,-0.00494525270993,0.0125733956514,0.999880797433
1543475374761492000,320,1543475374761492000,/map,1.31774866581,18.4986286163,2.28340244293,0.00753963965437,-0.00485883521176,0.0126315784227,0.999879987189
1543475374861621000,321,1543475374861621000,/map,1.31770431995,18.5026779175,2.27944040298,0.00746071842917,-0.00484377662526,0.0125395187981,0.999881811004
1543475374961710000,322,1543475374961710000,/map,1.31532633305,18.5000534058,2.28645086288,0.0074930149467,-0.00500834983696,0.0125215393038,0.999880984024
1543475375061856000,323,1543475375061856000,/map,1.3182656765,18.5042915344,2.28261876106,0.00748808019817,-0.00493836927437,0.0126440595226,0.999879827241
1543475375161976000,324,1543475375161976000,/map,1.32032430172,18.4967746735,2.28559660912,0.0075068523047,-0.00500291321239,0.0125579091246,0.999880451327
1543475375262111000,325,1543475375262111000,/map,1.31524324417,18.5033893585,2.28341960907,0.00754458728904,-0.00484261721825,0.0126269149721,0.99988008745
1543475375362321000,326,1543475375362321000,/map,1.31560873985,18.498878479,2.28681206703,0.00745317898481,-0.0049784451935,0.0125508679665,0.999881063387
1543475375462386000,327,1543475375462386000,/map,1.31800985336,18.5041904449,2.28129291534,0.00750142539792,-0.00488637460279,0.0125960082417,0.999880589139
1543475375562516000,328,1543475375562516000,/map,1.31763982773,18.4987392426,2.28529644012,0.00749961150357,-0.00500145829839,0.0125659013056,0.999880412533
1543475375662672000,329,1543475375662672000,/map,1.31585490704,18.5020141602,2.27863359451,0.00755038990613,-0.00486373734272,0.0126183031553,0.999880049854
1543475375762800000,330,1543475375762800000,/map,1.31882405281,18.4997711182,2.28673601151,0.00752655283485,-0.00499443937446,0.012515304534,0.99988087977
1543475375862957000,331,1543475375862957000,/map,1.31673455238,18.5006446838,2.27867531776,0.00750044691317,-0.0048759316646,0.0126116086572,0.999880450811
1543475375963085000,332,1543475375963085000,/map,1.31871688366,18.5034694672,2.28802800179,0.00753459920834,-0.00497583833627,0.0125902169743,0.999879971439
1543475376063198000,333,1543475376063198000,/map,1.31956040859,18.4981021881,2.28204321861,0.00747476235297,-0.00489912951418,0.0126078863121,0.999880576699
1543475376163367000,334,1543475376163367000,/map,1.32015073299,18.5027980804,2.28735852242,0.00750632641566,-0.00499970378439,0.0125640610546,0.999880394045
1543475376263474000,335,1543475376263474000,/map,1.31790626049,18.5015068054,2.28313994408,0.00758632513997,-0.00490662914508,0.0127116882226,0.999878385427
1543475376363577000,336,1543475376363577000,/map,1.3191229105,18.5011768341,2.28685879707,0.00739928471189,-0.00507554194967,0.012179854357,0.999885563756
1543475376463731000,337,1543475376463731000,/map,1.31288349628,18.5059661865,2.28236985207,0.00762186382717,-0.00491764224529,0.0128107891008,0.999876796245
1543475376563868000,338,1543475376563868000,/map,1.32069647312,18.5025787354,2.28383469582,0.00753676795641,-0.0049873336506,0.0126693528334,0.999878898232
1543475376663993000,339,1543475376663993000,/map,1.31787848473,18.5030612946,2.28674340248,0.0075928564169,-0.00499334526626,0.0126311074788,0.99987892775
1543475376764149000,340,1543475376764149000,/map,1.31590688229,18.503786087,2.27707099915,0.00741621305497,-0.00478983720133,0.0126027415095,0.999881607067
1543475376864287000,341,1543475376864287000,/map,1.31550323963,18.4990997314,2.28637266159,0.00751696803829,-0.00497763925,0.0125596329974,0.999880479816
1543475376964394000,342,1543475376964394000,/map,1.31339359283,18.5017795563,2.28165864944,0.00751416617213,-0.00486330037771,0.012649042263,0.999879936465
1543475377064535000,343,1543475377064535000,/map,1.32202863693,18.49792099,2.28115105629,0.00749337582826,-0.00497557566308,0.0125907974526,0.999880275226
1543475377164715000,344,1543475377164715000,/map,1.31619906425,18.5006523132,2.28511452675,0.00755780080494,-0.00494408212607,0.0125695689251,0.999880213644
1543475377264860000,345,1543475377264860000,/map,1.3168104887,18.5045204163,2.28191256523,0.00746018592479,-0.00485997002417,0.0127233068896,0.999879414619
1543475377365014000,346,1543475377365014000,/map,1.32392346859,18.4985141754,2.28165173531,0.00749041229063,-0.00495388990568,0.0125633384631,0.999880750502
1543475377465127000,347,1543475377465127000,/map,1.31823348999,18.5010433197,2.28450870514,0.00756990387227,-0.00494404928394,0.0125881013591,0.999879889105
1543475377565285000,348,1543475377565285000,/map,1.32054316998,18.4994468689,2.27916932106,0.00747103792561,-0.00488830193696,0.0126762820998,0.999879792759
1543475377665405000,349,1543475377665405000,/map,1.31808876991,18.5021533966,2.2869617939,0.00750449445234,-0.00494205023875,0.0125617133922,0.999880723916
1543475377765557000,350,1543475377765557000,/map,1.31728029251,18.4990329742,2.28240633011,0.00741433649283,-0.00489450625121,0.0125992903909,0.999881157591
1543475377865710000,351,1543475377865710000,/map,1.31774973869,18.5038604736,2.28408002853,0.00752891407044,-0.00493326062024,0.0125617788846,0.999880582922
1543475377965843000,352,1543475377965843000,/map,1.31585609913,18.4997272491,2.28431415558,0.00759504691815,-0.00491189698199,0.012687743573,0.999878597477
1543475378065967000,353,1543475378065967000,/map,1.31912410259,18.5043354034,2.28456139565,0.00748792109846,-0.00491827449785,0.012521234747,0.999881473123
1543475378166117000,354,1543475378166117000,/map,1.31457340717,18.5013809204,2.27990698814,0.00752110613833,-0.00493560047951,0.0126597274883,0.999879394782
1543475378266268000,355,1543475378266268000,/map,1.31637132168,18.5046100616,2.28774690628,0.00755655279118,-0.00498640694949,0.0125627870052,0.999880098131
1543475378366397000,356,1543475378366397000,/map,1.31527423859,18.4985961914,2.28106808662,0.0074887186161,-0.00491567910504,0.0125585015198,0.999881012537
1543475378466568000,357,1543475378466568000,/map,1.31746768951,18.5016689301,2.28628706932,0.00748710803969,-0.00494519335685,0.0125439529956,0.999881061686
1543475378566688000,358,1543475378566688000,/map,1.31570589542,18.4989471436,2.28785395622,0.00766285068712,-0.00512442359161,0.0129600738913,0.999873520745
1543475378666809000,359,1543475378666809000,/map,1.3160187006,18.5072517395,2.28189110756,0.00743965329275,-0.00496668133984,0.0124414544196,0.999882590031
1543475378766960000,360,1543475378766960000,/map,1.31675219536,18.5058288574,2.28750872612,0.00751466565242,-0.004896333367,0.0128499277039,0.99987721
1543475378867125000,361,1543475378867125000,/map,1.31592810154,18.5014286041,2.28115415573,0.00747948382651,-0.00490393090365,0.0124264772165,0.999882788854
1543475378967243000,362,1543475378967243000,/map,1.32003474236,18.5033321381,2.2823600769,0.00749284508567,-0.00493029927372,0.012707086188,0.999879032375
1543475379067373000,363,1543475379067373000,/map,1.31501686573,18.5010547638,2.28382921219,0.00750723567143,-0.00488485272934,0.0124272833492,0.999882664244
1543475379167541000,364,1543475379167541000,/map,1.31615400314,18.5045681,2.28119087219,0.00747991988382,-0.00493077449214,0.0127418235832,0.999878684738
1543475379267703000,365,1543475379267703000,/map,1.31689369678,18.5009841919,2.2879884243,0.00753480015884,-0.00508726205751,0.0124928468367,0.99988063054
1543475379367846000,366,1543475379367846000,/map,1.31276679039,18.506444931,2.28247237206,0.00751646647476,-0.00492010075395,0.0126125855414,0.999880101825
1543475379467978000,367,1543475379467978000,/map,1.31360840797,18.5015125275,2.28473734856,0.00750127903277,-0.00490503237431,0.0126425429289,0.999879911579
1543475379568094000,368,1543475379568094000,/map,1.31913149357,18.5037994385,2.28014445305,0.00752080075861,-0.00494524638427,0.012593974777,0.999880179768
1543475379668259000,369,1543475379668259000,/map,1.31348621845,18.500202179,2.28702354431,0.00749935350448,-0.00500571171975,0.0125608986753,0.99988045604
1543475379768449000,370,1543475379768449000,/map,1.31670701504,18.4986076355,2.28391766548,0.00753830402558,-0.00496157297995,0.0126712144501,0.999878991224
1543475379868556000,371,1543475379868556000,/map,1.31810688972,18.5060482025,2.28030562401,0.00749403534158,-0.00490528845025,0.0125213239152,0.999881489991
1543475379968707000,372,1543475379968707000,/map,1.31601202488,18.499464035,2.28746914864,0.00750362262313,-0.00503930896748,0.0125375605377,0.99988054816
1543475380068863000,373,1543475380068863000,/map,1.31669521332,18.5060424805,2.28227090836,0.00752784869203,-0.00489923485487,0.0126202781188,0.999880021589
1543475380169015000,374,1543475380169015000,/map,1.31768703461,18.49974823,2.28683066368,0.00752513551262,-0.00500400605436,0.0125519744689,0.999880382944
1543475380269180000,375,1543475380269180000,/map,1.31740617752,18.502122879,2.28014278412,0.0074810838706,-0.0049433939919,0.0126430851048,0.999879867104
1543475380369333000,376,1543475380369333000,/map,1.31567251682,18.5010128021,2.28648877144,0.00749853421453,-0.00498586085497,0.0126165270388,0.999879860994
1543475380469465000,377,1543475380469465000,/map,1.3161509037,18.5052967072,2.28312969208,0.00757667832171,-0.00496819406051,0.0125565834799,0.999880114416
1543475380569623000,378,1543475380569623000,/map,1.3189214468,18.4998722076,2.28763508797,0.00754638907533,-0.00501497378689,0.0125829142866,0.999879778932
1543475380669759000,379,1543475380669759000,/map,1.31698560715,18.5036754608,2.28320622444,0.00751556293526,-0.00493710855095,0.0125586500071,0.999880703676
1543475380769900000,380,1543475380769900000,/map,1.31688070297,18.4986362457,2.28355741501,0.00752053564521,-0.00493219202279,0.01256844775,0.999880567441
1543475380870054000,381,1543475380870054000,/map,1.3168412447,18.5036716461,2.28642296791,0.0074426951876,-0.00506466513878,0.0125731775389,0.999880428182
1543475380970180000,382,1543475380970180000,/map,1.31788372993,18.5060634613,2.27849984169,0.00756927225254,-0.00479817595203,0.0126352750158,0.999880009526
