%time,field.header.seq,field.header.stamp,field.header.frame_id,field.pose.position.x,field.pose.position.y,field.pose.position.z,field.pose.orientation.x,field.pose.orientation.y,field.pose.orientation.z,field.pose.orientation.w
1543475341750597000,577,1543475341750597000,/map,1.33866631985,18.532787323,0.288415551186,0.00186034613979,-0.00885347785641,0.715957944872,0.698084791567
1543475341850859000,578,1543475341850859000,/map,1.33194375038,18.5292930603,0.284846782684,0.00173421021705,-0.0088008744963,0.715878088515,0.698167672918
1543475341951127000,579,1543475341951127000,/map,1.33682024479,18.5337581635,0.286481022835,0.00185549161451,-0.00880531944913,0.71596861301,0.698074472163
1543475342051381000,580,1543475342051381000,/map,1.33471035957,18.5294723511,0.289734363556,0.00180277111346,-0.00888068103082,0.715915884416,0.698127731838
1543475342151608000,581,1543475342151608000,/map,1.33572375774,18.5352859497,0.284740447998,0.00182100011334,-0.00877332264567,0.715975297736,0.698068109714
1543475342251848000,582,1543475342251848000,/map,1.33518481255,18.5312995911,0.285049915314,0.00192837086609,-0.00873874079309,0.715910670159,0.698134534419
1543475342352111000,583,1543475342352111000,/map,1.34208846092,18.5343360901,0.282953500748,0.0018777754163,-0.00880195989794,0.715986288057,0.698056326363
1543475342452365000,584,1543475342452365000,/map,1.33545601368,18.5335426331,0.285413742065,0.00171465051996,-0.00881570418042,0.715932168265,0.698112078234
1543475342552612000,585,1543475342552612000,/map,1.33733534813,18.5345611572,0.282939076424,0.00188764303667,-0.00876785458555,0.715941566601,0.698102596144
1543475342652849000,586,1543475342652849000,/map,1.34316241741,18.5334014893,0.289620399475,0.00164639832339,-0.00882449713794,0.715855720587,0.698190521939
1543475342753101000,587,1543475342753101000,/map,1.33721196651,18.5344333649,0.282198786736,0.00188503860351,-0.00871249052676,0.715925321426,0.698119956225
1543475342853360000,588,1543475342853360000,/map,1.33764278889,18.5320472717,0.285828948021,0.00188080645692,-0.00879285642947,0.715894663167,0.698150398906
1543475342953552000,589,1543475342953552000,/map,1.34239983559,18.5355758667,0.28213095665,0.00162405766303,-0.00904231566827,0.716150945667,0.697884963288
1543475343053827000,590,1543475343053827000,/map,1.33587801456,18.5335674286,0.286643743515,0.0017409907291,-0.00883650635193,0.715903218897,0.69814143716
1543475343154103000,591,1543475343154103000,/map,1.33922243118,18.5351314545,0.284831643105,0.00186072349117,-0.00879809443505,0.715943816104,0.698099980966
1543475343254353000,592,1543475343254353000,/map,1.33534371853,18.5290775299,0.288106322289,0.00170702139366,-0.00880779686161,0.715903962072,0.698141121753
1543475343354558000,593,1543475343354558000,/map,1.34114480019,18.5344238281,0.284185290337,0.00181885095962,-0.00889340539004,0.71598017503,0.698061593333
1543475343454818000,594,1543475343454818000,/map,1.33459234238,18.5336723328,0.285978674889,0.0017911096757,-0.00882561401428,0.715904712964,0.698139916076
1543475343555096000,595,1543475343555096000,/map,1.3393740654,18.5326366425,0.285059928894,0.00182528356846,-0.00883611156017,0.715965581617,0.698077271806
1543475343655289000,596,1543475343655289000,/map,1.33513104916,18.5372962952,0.285368800163,0.00187180541424,-0.00877830600923,0.71591046847,0.698134398825
1543475343755589000,597,1543475343755589000,/map,1.33455085754,18.5306243896,0.285980463028,0.00180991461951,-0.00877296803396,0.715906074762,0.698139134671
1543475343855821000,598,1543475343855821000,/map,1.33819687366,18.5349445343,0.283097267151,0.00184294731052,-0.00886558848152,0.715917954912,0.698125695503
1543475343956071000,599,1543475343956071000,/map,1.3343834877,18.5332679749,0.286369681358,0.00177089609011,-0.00876184507591,0.715871702642,0.698174619529
1543475344056295000,600,1543475344056295000,/map,1.34126770496,18.5290603638,0.284335494041,0.00188401248374,-0.00884618617578,0.715941335333,0.698101854924
1543475344156547000,601,1543475344156547000,/map,1.33607292175,18.5318546295,0.286183953285,0.00169775129037,-0.00880315335104,0.715875560136,0.698170326304
1543475344256839000,602,1543475344256839000,/map,1.34179604053,18.5295524597,0.284311413765,0.00182438757602,-0.00885534931436,0.715972273303,0.698070167146
1543475344357040000,603,1543475344357040000,/map,1.33625245094,18.5367927551,0.287097096443,0.00175731916611,-0.00878731721945,0.715932135398,0.698112363728
1543475344457324000,604,1543475344457324000,/map,1.3380522728,18.5342597961,0.283961772919,0.00181784195797,-0.00887290330674,0.715944011386,0.698098946854
1543475344557556000,605,1543475344557556000,/map,1.33839917183,18.5356330872,0.279662370682,0.00184582032421,-0.00878510432277,0.715940586295,0.698103496471
1543475344657778000,606,1543475344657778000,/map,1.33780789375,18.5299606323,0.283861994743,0.0019299894875,-0.00874195121496,0.715911716672,0.698133416591
1543475344758061000,607,1543475344758061000,/map,1.34313595295,18.5341205597,0.285916805267,0.00179890181407,-0.00886914961612,0.715944867743,0.698098165367
1543475344858272000,608,1543475344858272000,/map,1.33788132668,18.5322322845,0.286320567131,0.00180201851456,-0.0088427962935,0.715937008876,0.698106551327
1543475344958529000,609,1543475344958529000,/map,1.33287751675,18.530166626,0.285831689835,0.00181405656413,-0.00882545278406,0.715925536603,0.698118504713
1543475345058802000,610,1543475345058802000,/map,1.3361672163,18.5338687897,0.285820126534,0.00177062373017,-0.00879114666446,0.715910193738,0.698134782928
1543475345159055000,611,1543475345159055000,/map,1.33873474598,18.5360088348,0.285074114799,0.00169831486595,-0.00874776556979,0.7158842719,0.698162088322
1543475345259326000,612,1543475345259326000,/map,1.33475494385,18.5298786163,0.285086035728,0.00181617404243,-0.00882305350216,0.715964036618,0.698079045315
1543475345359559000,613,1543475345359559000,/map,1.3402993679,18.5352363586,0.28515291214,0.00186589750776,-0.00881803129769,0.715925482557,0.698118517285
1543475345459809000,614,1543475345459809000,/map,1.33770012856,18.5305805206,0.282211780548,0.00187223773795,-0.00876929832444,0.715971031223,0.698072400673
1543475345560047000,615,1543475345560047000,/map,1.33681607246,18.5373744965,0.284001350403,0.001830114726,-0.00880609248596,0.715978065777,0.698064834196
1543475345660276000,616,1543475345660276000,/map,1.34153866768,18.5308418274,0.286501288414,0.00183954603952,-0.00881206156121,0.715929246534,0.698114802592
1543475345760509000,617,1543475345760509000,/map,1.33546042442,18.5331192017,0.284388899803,0.00179030327524,-0.00876512759857,0.715913817172,0.698131344186
1543475345860783000,618,1543475345860783000,/map,1.33564555645,18.5273475647,0.287815093994,0.00184891635917,-0.00885594514067,0.715914513512,0.698129331204
1543475345960969000,619,1543475345960969000,/map,1.33626019955,18.5338306427,0.283719182014,0.00186283335543,-0.00883382559393,0.715967293948,0.698075445331
1543475346060909000,620,1543475346060909000,/map,1.33454668522,18.5283374786,0.284930109978,0.00182497207849,-0.00878710132564,0.715927875202,0.698116561783
1543475346160694000,621,1543475346160694000,/map,1.34064102173,18.5336322784,0.284865021706,0.00181325720176,-0.00888122622744,0.715934666334,0.698108436749
1543475346260464000,622,1543475346260464000,/map,1.33584225178,18.5332317352,0.283084988594,0.00180378297587,-0.0087370049704,0.715959474454,0.69808483872
1543475346360261000,623,1543475346360261000,/map,1.34319913387,18.5321025848,0.286578655243,0.00182909686169,-0.00889880309402,0.715928576253,0.698114417136
1543475346460020000,624,1543475346460020000,/map,1.33635222912,18.5340213776,0.28260576725,0.0017911969697,-0.00876304577489,0.715921473584,0.698123516509
1543475346559852000,625,1543475346559852000,/map,1.33929550648,18.534570694,0.288102388382,0.00182033936044,-0.00881991698983,0.71591349449,0.698130907377
1543475346659629000,626,1543475346659629000,/map,1.33446931839,18.5330142975,0.280792355537,0.00186362828324,-0.00866917215135,0.715998217076,0.698045790395
1543475346759360000,627,1543475346759360000,/map,1.33947980404,18.5297470093,0.286376833916,0.00183481765084,-0.00889646705654,0.715902477749,0.698141195369
1543475346859237000,628,1543475346859237000,/map,1.33592629433,18.5348186493,0.282304525375,0.00187629793299,-0.0087672070086,0.715952896564,0.69809101519
1543475346958952000,629,1543475346958952000,/map,1.33679282665,18.5293197632,0.285447001457,0.00182074967555,-0.00891072391032,0.715938995444,0.698103601675
1543475347058767000,630,1543475347058767000,/map,1.33508503437,18.5340995789,0.282250165939,0.0019055014515,-0.00875617025179,0.715992834258,0.698050112698
1543475347158557000,631,1543475347158557000,/map,1.3408882618,18.5307350159,0.284882068634,0.00187730066051,-0.00879306288626,0.715902095472,0.698142784455
1543475347258381000,632,1543475347258381000,/map,1.33620452881,18.5311355591,0.287619709969,0.00173663370727,-0.00887959191053,0.71596294557,0.69807964984
1543475347358162000,633,1543475347358162000,/map,1.33768129349,18.5324764252,0.28328537941,0.00194066144905,-0.00882912153489,0.715851233228,0.698194308436
1543475347457982000,634,1543475347457982000,/map,1.3339663744,18.5352592468,0.288065314293,0.0018245254451,-0.00881119892732,0.716073484849,0.697966903354
1543475347557789000,635,1543475347557789000,/map,1.3375582695,18.5355033875,0.283809304237,0.00184691302671,-0.00886412129561,0.715915737529,0.69812797754
1543475347657596000,636,1543475347657596000,/map,1.33202958107,18.5331382751,0.286582827568,0.00182761613783,-0.00881719389669,0.716024248197,0.698017329946
1543475347757432000,637,1543475347757432000,/map,1.34136009216,18.5305595398,0.284150123596,0.00183878203567,-0.00883387971444,0.715946900612,0.698096423822
1543475347857209000,638,1543475347857209000,/map,1.33796560764,18.5337562561,0.283670306206,0.00185561059494,-0.00875106268521,0.715947437414,0.698096871839
1543475347957020000,639,1543475347957020000,/map,1.33497166634,18.532699585,0.285486936569,0.00180948543545,-0.00881269522226,0.716014127987,0.698027815126
1543475348056869000,640,1543475348056869000,/map,1.33901274204,18.5296897888,0.281961798668,0.0018568833416,-0.0088258469641,0.715674682274,0.698375547654
1543475348156677000,641,1543475348156677000,/map,1.33564996719,18.5347118378,0.288026571274,0.00182324847889,-0.00880377430434,0.715921942511,0.698122440231
1543475348256489000,642,1543475348256489000,/map,1.33661592007,18.5284519196,0.286997318268,0.0018064327864,-0.00883273866279,0.715940788131,0.698102791441
1543475348356323000,643,1543475348356323000,/map,1.33362805843,18.5317668915,0.284740328789,0.00182816351763,-0.00872028156501,0.715911997062,0.698133674141
1543475348456199000,644,1543475348456199000,/map,1.34237086773,18.5322628021,0.281801819801,0.00189908659226,-0.00880518790444,0.715949235836,0.698094229916
1543475348555976000,645,1543475348555976000,/map,1.33269226551,18.5343093872,0.28277182579,0.00180256807083,-0.00879413099069,0.715924284903,0.698120213355
1543475348655857000,646,1543475348655857000,/map,1.33601927757,18.5337734222,0.286021113396,0.00183256863411,-0.00878815306185,0.715922064296,0.698122487757
1543475348755674000,647,1543475348755674000,/map,1.33511257172,18.5325317383,0.280101656914,0.00184058940566,-0.00869229277092,0.715889870286,0.698156680051
1543475348855479000,648,1543475348855479000,/map,1.34099125862,18.5330295563,0.285592317581,0.00186452724837,-0.00880788950547,0.715941933865,0.698101777647
1543475348955353000,649,1543475348955353000,/map,1.33855807781,18.531665802,0.284081697464,0.00179879668348,-0.00882805609265,0.715912369257,0.698132014236
1543475349055165000,650,1543475349055165000,/map,1.33409142494,18.5378246307,0.287148594856,0.00184335527093,-0.00891844257255,0.715904363061,0.698138959215
1543475349155075000,651,1543475349155075000,/map,1.33756709099,18.5326557159,0.280748486519,0.00184892355351,-0.00869155027201,0.71594129756,0.698103929858
1543475349254937000,652,1543475349254937000,/map,1.33856725693,18.5300216675,0.287103414536,0.00192255451928,-0.00879580335839,0.715888015465,0.698157064665
1543475349354753000,653,1543475349354753000,/map,1.33327829838,18.5303707123,0.283284902573,0.001743408415,-0.00882980580525,0.715938925655,0.698104898843
1543475349454636000,654,1543475349454636000,/map,1.33979845047,18.5375404358,0.286185860634,0.00181997169393,-0.00888993681592,0.715899406487,0.698144466796
1543475349554496000,655,1543475349554496000,/map,1.33716082573,18.5334262848,0.282992362976,0.00181974356861,-0.00872899440543,0.715943404031,0.698101379038
1543475349654311000,656,1543475349654311000,/map,1.33324098587,18.5376243591,0.283982157707,0.00180256352081,-0.00876835112964,0.715802807141,0.698245091692
1543475349754175000,657,1543475349754175000,/map,1.33954620361,18.5308609009,0.28220975399,0.00186720307196,-0.00878620897228,0.715945870655,0.698098006283
1543475349854040000,658,1543475349854040000,/map,1.33627581596,18.530166626,0.285167813301,0.00182184004361,-0.00894319075264,0.715953792983,0.69808800774
1543475349953863000,659,1543475349953863000,/map,1.33346688747,18.5305500031,0.286037325859,0.00179639392736,-0.00899778781383,0.7159290774,0.698112719349
1543475350053766000,660,1543475350053766000,/map,1.33782088757,18.5344715118,0.282390356064,0.00180171080798,-0.00876352021743,0.715888935013,0.698156850054
1543475350153640000,661,1543475350153640000,/map,1.33656454086,18.5329322815,0.288416385651,0.00185767674057,-0.00882074169304,0.715912542841,0.698131774493
1543475350253489000,662,1543475350253489000,/map,1.33201873302,18.5260887146,0.281877040863,0.00181705797236,-0.00881148398903,0.715936287866,0.698107647692
1543475350353404000,663,1543475350353404000,/map,1.33443307877,18.5329360962,0.285794138908,0.00176439589523,-0.00878700308749,0.71593142415,0.698113079235
1543475350453254000,664,1543475350453254000,/map,1.33614766598,18.5321178436,0.284057021141,0.00188712026156,-0.00880079876972,0.71594092547,0.698102840529
1543475350553158000,665,1543475350553158000,/map,1.33754527569,18.530664444,0.282689929008,0.00188468303851,-0.00879679532492,0.715943345782,0.698100415407
1543475350653011000,666,1543475350653011000,/map,1.33686435223,18.5371246338,0.287073612213,0.00176639169533,-0.00884778132888,0.715915089239,0.698129058001
1543475350752890000,667,1543475350752890000,/map,1.33780825138,18.5310535431,0.28310406208,0.00181636429904,-0.00878554576215,0.715888560576,0.698156919212
1543475350852768000,668,1543475350852768000,/map,1.33911895752,18.5342693329,0.284675240517,0.00180222789499,-0.00885735199823,0.715954141586,0.698088795524
1543475350952618000,669,1543475350952618000,/map,1.33638298512,18.5283508301,0.283113002777,0.00182720302345,-0.00866262410293,0.715925716623,0.698120325267
1543475351052519000,670,1543475351052519000,/map,1.33912146091,18.5315608978,0.28522837162,0.00184138645909,-0.00888463302947,0.715898520859,0.698145386309
1543475351152462000,671,1543475351152462000,/map,1.3354716301,18.5358352661,0.279390215874,0.00182514057393,-0.0086547044997,0.715942092929,0.698103634516
1543475351252313000,672,1543475351252313000,/map,1.33982598782,18.5304698944,0.28597176075,0.00187832840433,-0.00879325230097,0.71593268234,0.698111412995
1543475351352226000,673,1543475351352226000,/map,1.33651793003,18.5343894958,0.282389163971,0.00185354526996,-0.00886527857505,0.715968743098,0.698073585027
1543475351452112000,674,1543475351452112000,/map,1.34027636051,18.5317745209,0.285573959351,0.0018925313742,-0.00878537279237,0.715903351371,0.698141552298
1543475351552000000,675,1543475351552000000,/map,1.33543348312,18.5362167358,0.28379034996,0.00179063819425,-0.00882398446384,0.715954269592,0.698089116636
1543475351651882000,676,1543475351651882000,/map,1.33758962154,18.5321674347,0.284782409668,0.00182348100542,-0.00870168498756,0.715923741538,0.698121874674
1543475351751811000,677,1543475351751811000,/map,1.33312749863,18.535320282,0.283325314522,0.00185389714926,-0.00876389366815,0.715975976243,0.69806744565
1543475351851700000,678,1543475351851700000,/map,1.3395960331,18.5334720612,0.285323262215,0.00182243325026,-0.00886553581055,0.715872359296,0.69817250462
1543475351951641000,679,1543475351951641000,/map,1.33746993542,18.531211853,0.278717160225,0.00178339581147,-0.00872158129442,0.716011102275,0.698032130304
1543475352051507000,680,1543475352051507000,/map,1.33732974529,18.5336475372,0.288561940193,0.00183276434724,-0.00886258356917,0.715864663341,0.698180406032
1543475352151391000,681,1543475352151391000,/map,1.33709967136,18.5328292847,0.282967090607,0.00187515222478,-0.00876455669027,0.715908508761,0.698136572194
1543475352251339000,682,1543475352251339000,/map,1.33622860909,18.5328159332,0.288419961929,0.00175888083064,-0.0088734898807,0.71597284879,0.698069514669
1543475352351252000,683,1543475352351252000,/map,1.33890032768,18.5311985016,0.284353613853,0.00184255631808,-0.00881104262734,0.715854121508,0.698191841283
1543475352451168000,684,1543475352451168000,/map,1.33482587337,18.5363731384,0.284338474274,0.00188673113106,-0.00886497369743,0.715997864191,0.69804363113
1543475352551093000,685,1543475352551093000,/map,1.33490610123,18.5299186707,0.283954143524,0.00184512596815,-0.00870954914942,0.715927802991,0.698117554692
1543475352651008000,686,1543475352651008000,/map,1.33633852005,18.5339431763,0.28497338295,0.00181334771154,-0.00882308378168,0.715899350814,0.698145389204
1543475352750929000,687,1543475352750929000,/map,1.33325457573,18.5309677124,0.280526041985,0.00187305000581,-0.00878021843062,0.715908123408,0.698136776203
1543475352850830000,688,1543475352850830000,/map,1.33663511276,18.5303993225,0.286005616188,0.00179420213149,-0.00880427724211,0.715874987553,0.698170658032
1543475352950729000,689,1543475352950729000,/map,1.33586883545,18.5332279205,0.278714299202,0.00179048720221,-0.0087503258904,0.715919985852,0.698125203534
1543475353050665000,690,1543475353050665000,/map,1.33747553825,18.5325031281,0.286488771439,0.00190650563584,-0.00881677841606,0.715869898733,0.698175420466
1543475353150616000,691,1543475353150616000,/map,1.33574950695,18.5311927795,0.278578400612,0.00175814874584,-0.00875457190982,0.715942768276,0.698101868596
1543475353250566000,692,1543475353250566000,/map,1.34280598164,18.5346183777,0.284765958786,0.00185175974859,-0.00880144447407,0.715895220909,0.698149796419
1543475353350455000,693,1543475353350455000,/map,1.33478963375,18.5319213867,0.284055709839,0.00185312026585,-0.00878104484208,0.71595401161,0.698089759598
1543475353450370000,694,1543475353450370000,/map,1.33527052402,18.5351982117,0.279314875603,0.00182914271875,-0.00866074807998,0.715900094238,0.698146618376
1543475353550328000,695,1543475353550328000,/map,1.33848249912,18.5319709778,0.285057663918,0.00182864043154,-0.00890536259089,0.715976044801,0.698065651542
1543475353650263000,696,1543475353650263000,/map,1.33508646488,18.5341720581,0.279564857483,0.00192011110526,-0.00877543759634,0.71591581332,0.698128822716
1543475353750181000,697,1543475353750181000,/map,1.34108495712,18.5291690826,0.285103082657,0.00181759642412,-0.0088583756189,0.715915351333,0.698128523448
1543475353850202000,698,1543475353850202000,/map,1.33471560478,18.5315265656,0.282263875008,0.00187753409891,-0.00878399712551,0.715934369135,0.698109801787
1543475353950047000,699,1543475353950047000,/map,1.33553028107,18.5299892426,0.280269861221,0.00186244985842,-0.00880310581324,0.715860090952,0.69818576811
1543475354049970000,700,1543475354049970000,/map,1.33476471901,18.5332393646,0.286824703217,0.00182933344321,-0.00876177485974,0.715965930095,0.698077840777
1543475354149975000,701,1543475354149975000,/map,1.33420455456,18.5323104858,0.277972817421,0.0019032493782,-0.00875048876908,0.715889562582,0.698156100578
1543475354249894000,702,1543475354249894000,/map,1.33734953403,18.5361366272,0.284818768501,0.00185408014901,-0.00879584912645,0.715905594554,0.698139223301
1543475354349835000,703,1543475354349835000,/map,1.33643174171,18.5283412933,0.282230138779,0.0018438601365,-0.00882155100668,0.715920951137,0.698123178343
1543475354449795000,704,1543475354449795000,/map,1.33619511127,18.5334243774,0.278935551643,0.00190588069914,-0.00873265445165,0.715948203731,0.698096181009
1543475354549762000,705,1543475354549762000,/map,1.33977603912,18.5306549072,0.284354925156,0.00182895143941,-0.00878232269443,0.715944411271,0.69809965314
1543475354649684000,706,1543475354649684000,/map,1.33457219601,18.5363388062,0.284439444542,0.00181653960791,-0.00880621355392,0.715889296404,0.69815590385
1543475354749629000,707,1543475354749629000,/map,1.33571052551,18.5295143127,0.281957864761,0.0018019556278,-0.00878746740746,0.715947533741,0.698096456302
1543475354849602000,708,1543475354849602000,/map,1.33877635002,18.5348129272,0.284532546997,0.00186259244458,-0.00878835924788,0.715941608899,0.698102362221
1543475354949552000,709,1543475354949552000,/map,1.33503007889,18.5328388214,0.283991098404,0.00176133736479,-0.00878475594734,0.715880691324,0.698165139164
1543475355049516000,710,1543475355049516000,/map,1.34245705605,18.529258728,0.285423398018,0.00178631526882,-0.0088856460298,0.715934426441,0.698108695984
1543475355149432000,711,1543475355149432000,/map,1.33803343773,18.5363464355,0.285689473152,0.00173438852002,-0.00886071045882,0.715929392649,0.698114306148
1543475355249406000,712,1543475355249406000,/map,1.33371114731,18.5335693359,0.280121564865,0.00185584894442,-0.00875242869947,0.715915847392,0.698129250404
1543475355349417000,713,1543475355349417000,/map,1.3418585062,18.5316200256,0.28436601162,0.00179305956763,-0.00882888082602,0.715909370611,0.698135093568
1543475355449326000,714,1543475355449326000,/map,1.33697926998,18.5343952179,0.281953573227,0.00177689647201,-0.00872829547182,0.71593775744,0.69810728901
1543475355549359000,715,1543475355549359000,/map,1.34096634388,18.527841568,0.282671093941,0.00186753659648,-0.00880277178586,0.715931239988,0.698112801147
1543475355649257000,716,1543475355649257000,/map,1.33534920216,18.5359115601,0.279637098312,0.00187062405516,-0.00866356716026,0.715930009027,0.698115796659
1543475355749234000,717,1543475355749234000,/map,1.33749890327,18.5335559845,0.283872961998,0.00183648005481,-0.00881151717466,0.715947184337,0.698096421525
1543475355849176000,718,1543475355849176000,/map,1.33180212975,18.5339050293,0.276856899261,0.00194553135017,-0.00868259650403,0.715926762743,0.698118684619
1543475355949191000,719,1543475355949191000,/map,1.33709871769,18.5303516388,0.284406542778,0.00185393114841,-0.00877423133811,0.715926893359,0.698117654246
1543475356049149000,720,1543475356049149000,/map,1.33288776875,18.5348987579,0.279859542847,0.00178725488399,-0.00874214900964,0.715932490116,0.69811249104
1543475356149128000,721,1543475356149128000,/map,1.34011375904,18.5341968536,0.284875750542,0.00180848393256,-0.00879167110032,0.715935958247,0.69810825779
1543475356249112000,722,1543475356249112000,/map,1.33668899536,18.5308914185,0.284215569496,0.00184334015707,-0.00881839818772,0.715899258971,0.698145464037
1543475356349070000,723,1543475356349070000,/map,1.33336389065,18.5292892456,0.283106923103,0.00180263489848,-0.00893440705992,0.715907940807,0.698135192615
1543475356449055000,724,1543475356449055000,/map,1.33880329132,18.5363807678,0.282075881958,0.00180582358001,-0.00878923652646,0.715917200705,0.69812753137
1543475356549026000,725,1543475356549026000,/map,1.3358322382,18.5334339142,0.284284114838,0.00182861278637,-0.00878263850587,0.7159035878,0.698141514602
1543475356649005000,726,1543475356649005000,/map,1.34026110172,18.5310974121,0.280376315117,0.00189194369849,-0.00872551508941,0.715840122963,0.698207135664
1543475356749038000,727,1543475356749038000,/map,1.3351919651,18.5350322723,0.283212780952,0.00177921701529,-0.00883765219219,0.715947875752,0.698095530351
1543475356848988000,728,1543475356848988000,/map,1.34090363979,18.5339488983,0.281864881516,0.00186760923651,-0.00876120771556,0.71594159364,0.698102705747
1543475356948943000,729,1543475356948943000,/map,1.33808028698,18.5263404846,0.283235788345,0.00181117631902,-0.00878231848496,0.715897145776,0.698148169941
1543475357048948000,730,1543475357048948000,/map,1.33970069885,18.5288696289,0.28259062767,0.00179361599874,-0.0088028908222,0.715949573953,0.698094191074
1543475357148962000,731,1543475357148962000,/map,1.33684098721,18.5268135071,0.280576109886,0.00181667128621,-0.00875399577849,0.71591828909,0.698126829889
1543475357248889000,732,1543475357248889000,/map,1.33500730991,18.5315589905,0.28588783741,0.0017575063117,-0.00882128295746,0.715951078522,0.698092507696
1543475357348890000,733,1543475357348890000,/map,1.33824038506,18.5360622406,0.281762719154,0.00186497435206,-0.00875174497373,0.71593721209,0.698107324969
1543475357448964000,734,1543475357448964000,/map,1.33861446381,18.5279445648,0.286169528961,0.00179139505066,-0.00887376429133,0.715910008193,0.698133874969
1543475357548911000,735,1543475357548911000,/map,1.33471906185,18.5306034088,0.282120108604,0.00184984687366,-0.00871117718525,0.715949183884,0.698095594854
1543475357648884000,736,1543475357648884000,/map,1.33970165253,18.5276069641,0.286044359207,0.00180687606476,-0.00883509874188,0.715885452995,0.698159504998
1543475357748912000,737,1543475357748912000,/map,1.33901596069,18.5355110168,0.284415364265,0.00187561148881,-0.00876411116057,0.715962275024,0.698081437355
1543475357848870000,738,1543475357848870000,/map,1.33186936378,18.5316581726,0.282993912697,0.00175732538041,-0.0087904536554,0.715910249034,0.698134768551
1543475357948859000,739,1543475357948859000,/map,1.3399450779,18.5323238373,0.284715294838,0.00183858832757,-0.00878740197708,0.715953010618,0.698090744636
1543475358048902000,740,1543475358048902000,/map,1.33849132061,18.5305347443,0.283536195755,0.00187869485053,-0.00879006140069,0.715877364006,0.698168178185
1543475358148862000,741,1543475358148862000,/map,1.34175145626,18.5366611481,0.286147713661,0.00173158292191,-0.00882036642639,0.715979305446,0.698063633869
1543475358248870000,742,1543475358248870000,/map,1.3407330513,18.5313453674,0.284720897675,0.00176796993001,-0.00883903296799,0.715917176645,0.698127024232
1543475358348934000,743,1543475358348934000,/map,1.34010636806,18.5279121399,0.28255033493,0.00175584027606,-0.00900120951967,0.715880661582,0.698162426392
1543475358448902000,744,1543475358448902000,/map,1.33533620834,18.5384120941,0.288555264473,0.00179917512528,-0.00881045973809,0.715942813053,0.698101015044
1543475358548907000,745,1543475358548907000,/map,1.34089565277,18.534280777,0.283366322517,0.00180190456616,-0.00876993732056,0.71595973168,0.698084166811
1543475358648926000,746,1543475358648926000,/map,1.33771622181,18.5293292999,0.287690520287,0.00175634233953,-0.00888632133883,0.715889710027,0.698154618714
1543475358748882000,747,1543475358748882000,/map,1.33589410782,18.5373325348,0.284962534904,0.00186859814413,-0.00878126484518,0.715936931553,0.698107232284
1543475358848901000,748,1543475358848901000,/map,1.33403658867,18.5336475372,0.28158724308,0.00178635291611,-0.0087507874169,0.715934877299,0.698109936994
1543475358948944000,749,1543475358948944000,/map,1.33868849277,18.5347290039,0.285771727562,0.00183298702173,-0.00881218125449,0.715952037397,0.698091445133
1543475359048921000,750,1543475359048921000,/map,1.33194637299,18.5362758636,0.28432226181,0.00180256014848,-0.00883564021456,0.715929774956,0.698114059141
1543475359148918000,751,1543475359148918000,/map,1.337028265,18.5304908752,0.282796144485,0.00183626641815,-0.00879382601265,0.715944269613,0.698099634406
1543475359248970000,752,1543475359248970000,/map,1.33550906181,18.5370693207,0.280131459236,0.00183850387651,-0.00869367988003,0.715922853714,0.698122845467
1543475359348980000,753,1543475359348980000,/map,1.33529269695,18.5330085754,0.286009669304,0.00181484313778,-0.00887730642197,0.715926661644,0.698116691479
1543475359448969000,754,1543475359448969000,/map,1.33650004864,18.5379734039,0.284165263176,0.00185615398679,-0.00878778480027,0.715940393037,0.698103633531
1543475359549014000,755,1543475359549014000,/map,1.34027183056,18.5301914215,0.283690452576,0.00179384746619,-0.00877440047824,0.715896729944,0.698148740644
1543475359649016000,756,1543475359649016000,/map,1.33486199379,18.5336608887,0.287410140038,0.00180366777173,-0.00877724416416,0.715965230267,0.698078430992
1543475359749078000,757,1543475359749078000,/map,1.34153842926,18.5300197601,0.281827569008,0.00182268950315,-0.00878406357779,0.715888297424,0.698157191212
1543475359849071000,758,1543475359849071000,/map,1.33614480495,18.5323429108,0.287611246109,0.0017984238526,-0.00883895024109,0.715930827468,0.698112948534
1543475359949103000,759,1543475359949103000,/map,1.34300172329,18.5272102356,0.282572984695,0.00184245804747,-0.00875265269898,0.715948031527,0.698096277437
1543475360049127000,760,1543475360049127000,/map,1.33709025383,18.5343990326,0.287249088287,0.00175545600381,-0.00885057108949,0.715954118262,0.69808902463
1543475360149151000,761,1543475360149151000,/map,1.33871150017,18.5292129517,0.281653404236,0.00191269904618,-0.00875943328646,0.715909868847,0.698135139925
1543475360249160000,762,1543475360249160000,/map,1.34120166302,18.5361919403,0.283164024353,0.00187420086252,-0.00877563872788,0.715970421372,0.698072941215
1543475360349184000,763,1543475360349184000,/map,1.33421862125,18.5339107513,0.280155062675,0.00181631330108,-0.00874458901443,0.715908396706,0.698137093051
1543475360449207000,764,1543475360449207000,/map,1.34143781662,18.5295391083,0.280698180199,0.00190176754785,-0.00868691809896,0.715940181187,0.698104990454
1543475360549213000,765,1543475360549213000,/map,1.33569848537,18.5318088531,0.286260247231,0.00180225211274,-0.00877288412953,0.715934314323,0.698110196148
1543475360649248000,766,1543475360649248000,/map,1.33846604824,18.5283641815,0.284250259399,0.0018275928734,-0.0088018366613,0.715847511528,0.698198773856
1543475360749319000,767,1543475360749319000,/map,1.3395690918,18.5379810333,0.281066536903,0.00180035185048,-0.00877891788011,0.715919881948,0.698124925758
1543475360849325000,768,1543475360849325000,/map,1.34083926678,18.5293464661,0.284011006355,0.00183200574293,-0.00875221581106,0.715900795377,0.698144751217
1543475360949360000,769,1543475360949360000,/map,1.33609628677,18.53358078,0.284905910492,0.0017793252475,-0.00886275568677,0.715932791866,0.69811068112
1543475361049370000,770,1543475361049370000,/map,1.33789908886,18.5293693542,0.28514611721,0.00183757106841,-0.00876781024416,0.715905099146,0.698140127663
1543475361149418000,771,1543475361149418000,/map,1.33614647388,18.5343589783,0.286556601524,0.00176132228357,-0.00892179213055,0.715989641177,0.69805166936
1543475361249464000,772,1543475361249464000,/map,1.33824932575,18.5344734192,0.279854536057,0.00186468560615,-0.00870043849908,0.715971565666,0.698072734373
1543475361349519000,773,1543475361349519000,/map,1.33770132065,18.5340576172,0.286572098732,0.00183523655282,-0.00879309151001,0.715886738184,0.698158643533
1543475361449565000,774,1543475361449565000,/map,1.33482825756,18.5380725861,0.289658427238,0.00172841551805,-0.00887806821059,0.716077612203,0.697962066152
1543475361549557000,775,1543475361549557000,/map,1.34223949909,18.5316810608,0.281377673149,0.00183695610848,-0.0087678907865,0.715967405254,0.698076231007
1543475361649594000,776,1543475361649594000,/map,1.3364263773,18.5366516113,0.283258199692,0.00183062367884,-0.00883589692129,0.715931810546,0.698111895323
1543475361749636000,777,1543475361749636000,/map,1.3385052681,18.5318946838,0.284195065498,0.00185230278065,-0.00881594275092,0.715938955249,0.698104763259
1543475361849717000,778,1543475361849717000,/map,1.33132362366,18.5278186798,0.283117651939,0.00183758318412,-0.00871634695879,0.715855557495,0.698191570693
1543475361949731000,779,1543475361949731000,/map,1.33707785606,18.5274028778,0.282533407211,0.00186121503134,-0.00877190427733,0.715918539249,0.698126231232
1543475362049791000,780,1543475362049791000,/map,1.33713591099,18.5371246338,0.279730677605,0.00180662313084,-0.00875384838202,0.715941685913,0.698102863927
1543475362149848000,781,1543475362149848000,/map,1.3324906826,18.5326118469,0.280817747116,0.00187036628163,-0.00876991615899,0.715947350562,0.69809668494
1543475362249889000,782,1543475362249889000,/map,1.33797395229,18.5357532501,0.28504550457,0.00182912567905,-0.00882827186269,0.715939057605,0.698104563594
1543475362349919000,783,1543475362349919000,/map,1.33625710011,18.533536911,0.279240369797,0.00186442888526,-0.00874831425995,0.715937930357,0.698106632814
1543475362449956000,784,1543475362449956000,/map,1.33519673347,18.5402584076,0.282394886017,0.00180449793534,-0.00879281222406,0.715970712186,0.698072610501
1543475362550010000,785,1543475362550010000,/map,1.33673548698,18.5289783478,0.285340189934,0.00177236431709,-0.00878144203405,0.715884871059,0.698160867128
1543475362650064000,786,1543475362650064000,/map,1.3371193409,18.5363349915,0.2817735672,0.00182498155564,-0.00876819669279,0.71592354373,0.698121241406
1543475362750134000,787,1543475362750134000,/map,1.33764982224,18.5304374695,0.281996488571,0.00188456626877,-0.00868015105926,0.715922267385,0.698123492263
1543475362850195000,788,1543475362850195000,/map,1.33855867386,18.5341148376,0.285695910454,0.00179817233636,-0.00881913065195,0.715906329688,0.698138321985
1543475362950217000,789,1543475362950217000,/map,1.33504581451,18.539232254,0.280423641205,0.00179551221228,-0.00874766664541,0.715946151656,0.698098390195
1543475363050314000,790,1543475363050314000,/map,1.33421313763,18.5343132019,0.285665512085,0.00186827972813,-0.00879022784978,0.715950838663,0.698092857751
1543475363150315000,791,1543475363150315000,/map,1.3411244154,18.5310344696,0.281350135803,0.00185226217695,-0.00875977670191,0.715948325427,0.69809586072
1543475363250386000,792,1543475363250386000,/map,1.33798110485,18.5310382843,0.283565759659,0.00183361286028,-0.00879018736583,0.715912838219,0.698131920587
1543475363350432000,793,1543475363350432000,/map,1.34502696991,18.5279178619,0.285566210747,0.0017717270289,-0.00882586542354,0.715941179477,0.698102565969
1543475363450478000,794,1543475363450478000,/map,1.3406226635,18.5332107544,0.286857008934,0.00175482729335,-0.00885991980594,0.715925988379,0.698117756231
1543475363550592000,795,1543475363550592000,/map,1.34164190292,18.5314617157,0.281451225281,0.00185990702819,-0.00879235086013,0.715913013065,0.698131644488
1543475363650588000,796,1543475363650588000,/map,1.34017169476,18.5340003967,0.287256836891,0.00179979795029,-0.0088169876497,0.715912938195,0.698131568102
1543475363750650000,797,1543475363750650000,/map,1.34121441841,18.528842926,0.282831907272,0.00189937555163,-0.00876266632239,0.715894057689,0.698151349076
1543475363850700000,798,1543475363850700000,/map,1.33495950699,18.534828186,0.28478705883,0.00176920941593,-0.00882237346159,0.715893587918,0.698151420827
1543475363950791000,799,1543475363950791000,/map,1.34086501598,18.5309295654,0.283373951912,0.00184344165459,-0.00875334088134,0.715930521412,0.698114223646
1543475364050853000,800,1543475364050853000,/map,1.33796656132,18.5311832428,0.285177350044,0.00179468119832,-0.00887841814469,0.715924408197,0.698119040392
1543475364150914000,801,1543475364150914000,/map,1.34338748455,18.5289039612,0.281027674675,0.00189873242334,-0.00879188531724,0.715983718764,0.698059031911
1543475364250987000,802,1543475364250987000,/map,1.33777976036,18.53383255,0.287297487259,0.00180134734909,-0.00881428620195,0.715947072175,0.698096593138
1543475364351050000,803,1543475364351050000,/map,1.33880805969,18.5288639069,0.283212065697,0.00179888467546,-0.00878237728509,0.71590514797,0.698139995254
1543475364451156000,804,1543475364451156000,/map,1.33557319641,18.5358428955,0.281154990196,0.00183935520422,-0.00879770858518,0.715923618663,0.698120755555
1543475364551177000,805,1543475364551177000,/map,1.33858501911,18.532037735,0.28661429882,0.00179422696053,-0.00886619045613,0.715920253021,0.698123458087
1543475364651248000,806,1543475364651248000,/map,1.33717441559,18.5360298157,0.287046790123,0.00173935767741,-0.00885458178504,0.715907382202,0.698136942959
1543475364751320000,807,1543475364751320000,/map,1.33937132359,18.5315628052,0.284099936485,0.00181762623395,-0.0087796300922,0.715943264134,0.698100893046
1543475364851398000,808,1543475364851398000,/map,1.33422327042,18.5356311798,0.285260915756,0.00180345562251,-0.00882007802699,0.715898700541,0.698146119616
1543475364951462000,809,1543475364951462000,/map,1.33693361282,18.5310897827,0.285416245461,0.00181240247412,-0.00881968946915,0.715884135981,0.698161035955
1543475365051543000,810,1543475365051543000,/map,1.33655643463,18.5338554382,0.276222467422,0.00190893999521,-0.00867468218367,0.715963584381,0.69808112113
1543475365151615000,811,1543475365151615000,/map,1.33421230316,18.5319709778,0.284955143929,0.00179284285234,-0.0088123591136,0.715900684109,0.698144210413
1543475365251688000,812,1543475365251688000,/map,1.33505058289,18.5373859406,0.280523777008,0.00182762839211,-0.00873405497984,0.715907138177,0.69813848595
1543475365351755000,813,1543475365351755000,/map,1.33834028244,18.5289268494,0.286561369896,0.00182249032245,-0.00881262464721,0.715925737768,0.698118438503
1543475365451875000,814,1543475365451875000,/map,1.33569085598,18.5362052917,0.28445994854,0.0018436697559,-0.00883458277979,0.715940795266,0.69810266344
1543475365551917000,815,1543475365551917000,/map,1.34094309807,18.529460907,0.281869292259,0.00185479511695,-0.00875283035173,0.71592957622,0.698115169287
1543475365651971000,816,1543475365651971000,/map,1.33493721485,18.5294094086,0.284056425095,0.00186334134967,-0.00882659276351,0.715883727442,0.698161233529
1543475365752015000,817,1543475365752015000,/map,1.33948051929,18.5347042084,0.283385753632,0.00181595839806,-0.00884749224501,0.71596994032,0.698072681556
1543475365852104000,818,1543475365852104000,/map,1.33442568779,18.5363998413,0.282923460007,0.00181946494391,-0.00880063584944,0.715888905352,0.698156367549
1543475365952204000,819,1543475365952204000,/map,1.33713150024,18.5264854431,0.285977363586,0.00182311862415,-0.00880574869558,0.715898094391,0.698146870992
1543475366052269000,820,1543475366052269000,/map,1.33574867249,18.5350837708,0.283390641212,0.00182169804372,-0.00883541262109,0.715920924687,0.698123088356
1543475366152367000,821,1543475366152367000,/map,1.3396730423,18.5341396332,0.287737369537,0.00177291620789,-0.00882688517424,0.715925302079,0.6981188328
1543475366252437000,822,1543475366252437000,/map,1.33515024185,18.5373668671,0.280997633934,0.00188103882005,-0.0087621749624,0.715986076689,0.698057034898
1543475366352521000,823,1543475366352521000,/map,1.33946371078,18.5289726257,0.281327366829,0.00184861558821,-0.00876214362447,0.715899874177,0.698145527532
1543475366452567000,824,1543475366452567000,/map,1.33381021023,18.5345001221,0.286086440086,0.00181686373334,-0.00882296951101,0.715938633773,0.698105097307
1543475366552711000,825,1543475366552711000,/map,1.33779525757,18.5312633514,0.277545332909,0.00188866101864,-0.00871106843915,0.715922571023,0.698122784721
1543475366652754000,826,1543475366652754000,/map,1.33404111862,18.5315055847,0.288284182549,0.00179028080552,-0.0088783197031,0.715930350027,0.698112959516
1543475366752823000,827,1543475366752823000,/map,1.33765792847,18.5284099579,0.285588264465,0.00180342735569,-0.00883331749964,0.715911906928,0.698132409841
1543475366852962000,828,1543475366852962000,/map,1.33635008335,18.5365028381,0.283379793167,0.00178895618795,-0.00883358409011,0.715943178421,0.698100374374
1543475366953008000,829,1543475366953008000,/map,1.33892595768,18.5302181244,0.283783555031,0.00182277772707,-0.00880434289172,0.715876417815,0.69816911665
1543475367053107000,830,1543475367053107000,/map,1.33845281601,18.5365982056,0.283152341843,0.00177655440034,-0.0088505250611,0.715912257656,0.698131901147
1543475367153164000,831,1543475367153164000,/map,1.33727705479,18.5263576508,0.283981084824,0.00182767558269,-0.00877424645091,0.71588932615,0.698156246771
1543475367253254000,832,1543475367253254000,/map,1.33554589748,18.5342330933,0.283227205276,0.00180138611945,-0.00886193155428,0.715914269908,0.698129629309
1543475367353369000,833,1543475367353369000,/map,1.33833765984,18.5327129364,0.284625768661,0.00182547457588,-0.00883053911737,0.71589243909,0.698152350763
1543475367453416000,834,1543475367453416000,/map,1.33976614475,18.5266227722,0.286577582359,0.00182902398961,-0.00882827221838,0.715986954801,0.698055439658
1543475367553522000,835,1543475367553522000,/map,1.3378276825,18.53358078,0.283999204636,0.00180360217191,-0.00884848195101,0.715917291947,0.698126695147
1543475367653633000,836,1543475367653633000,/map,1.33291852474,18.5328884125,0.287480354309,0.00176572812719,-0.00884802289191,0.71593534887,0.698108280236
1543475367753708000,837,1543475367753708000,/map,1.33948242664,18.5348758698,0.284729719162,0.00172332064506,-0.00883705845464,0.71597178019,0.698071161512
1543475367853802000,838,1543475367853802000,/map,1.33441662788,18.5353317261,0.280101060867,0.00191613765016,-0.00876287309002,0.715894693328,0.698150648884
1543475367953879000,839,1543475367953879000,/map,1.33678174019,18.5271244049,0.28126680851,0.00189114429832,-0.00874297510443,0.715926912694,0.698117926743
1543475368053972000,840,1543475368053972000,/map,1.33539259434,18.5332183838,0.283769130707,0.00184657074118,-0.00884858465327,0.715948253557,0.698094829485
1543475368154075000,841,1543475368154075000,/map,1.33971869946,18.5283718109,0.280358552933,0.00186420797059,-0.00875120233193,0.715943195664,0.698101197369
1543475368254175000,842,1543475368254175000,/map,1.33649504185,18.537361145,0.285318255424,0.0018088423568,-0.00890262084548,0.71594431369,0.698098281853
1543475368354311000,843,1543475368354311000,/map,1.33745098114,18.5313205719,0.283221960068,0.00185118401618,-0.00877777891603,0.715933422338,0.69811092134
1543475368454390000,844,1543475368454390000,/map,1.33732628822,18.5338287354,0.287473320961,0.00173448517788,-0.00895704515998,0.715922760863,0.698119877515
1543475368554502000,845,1543475368554502000,/map,1.33427786827,18.533033371,0.280958294868,0.00180622866409,-0.00870755437678,0.715943191623,0.698101899728
1543475368654608000,846,1543475368654608000,/map,1.34023797512,18.5293445587,0.286391615868,0.0017915218175,-0.00883643364944,0.715876225235,0.698168989596
1543475368754672000,847,1543475368754672000,/map,1.33488821983,18.5327987671,0.279110789299,0.00185626826253,-0.00873655600486,0.715931233585,0.698113669566
1543475368854722000,848,1543475368854722000,/map,1.33918964863,18.5333404541,0.286503553391,0.00180608012921,-0.00884875768296,0.715942780858,0.698100545838
1543475368954814000,849,1543475368954814000,/map,1.3386452198,18.5241451263,0.286388158798,0.0017751304834,-0.00882675187973,0.715902097365,0.698142624649
1543475369054917000,850,1543475369054917000,/map,1.33714950085,18.5356674194,0.282825350761,0.00183033488632,-0.00884058566711,0.715931821806,0.698111825172
1543475369155015000,851,1543475369155015000,/map,1.33978247643,18.5307121277,0.281775593758,0.00186459197036,-0.00875143533253,0.715939961908,0.698104509812
1543475369255177000,852,1543475369255177000,/map,1.33762609959,18.534072876,0.287341952324,0.00175317034132,-0.0088296139389,0.715866700278,0.698178939631
1543475369355222000,853,1543475369355222000,/map,1.3346683979,18.5332870483,0.279742240906,0.00181746490935,-0.00877391184618,0.715925025549,0.698119669601
1543475369455365000,854,1543475369455365000,/map,1.3380471468,18.5269699097,0.285320401192,0.00185429449748,-0.00881510557227,0.715863401592,0.698182243949
1543475369555454000,855,1543475369555454000,/map,1.3355461359,18.535194397,0.281967520714,0.00183083169895,-0.00876748013371,0.715918004211,0.698126915821
1543475369655566000,856,1543475369655566000,/map,1.33552205563,18.5339488983,0.287090778351,0.00179240312358,-0.00891011020895,0.715927306156,0.698115670593
1543475369755661000,857,1543475369755661000,/map,1.33961904049,18.5358104706,0.281887769699,0.00192096437606,-0.00874478929366,0.715900776135,0.698144624906
1543475369855776000,858,1543475369855776000,/map,1.33503544331,18.5361595154,0.286408543587,0.00179284022344,-0.00887088040969,0.715910826707,0.698133068554
1543475369955886000,859,1543475369955886000,/map,1.33925902843,18.530752182,0.283665418625,0.0018762245566,-0.00879454663063,0.715962452171,0.698080871255
1543475370055959000,860,1543475370055959000,/map,1.33621704578,18.5315971375,0.282116889954,0.00181384010163,-0.00875129689272,0.715825396897,0.698222117913
1543475370156051000,861,1543475370156051000,/map,1.33623826504,18.5409164429,0.284425139427,0.00183108308128,-0.0088849593942,0.716180311074,0.697856336692
1543475370256190000,862,1543475370256190000,/map,1.33723592758,18.5372524261,0.283616900444,0.00182114800533,-0.00878170900759,0.715951987547,0.698091911236
1543475370356317000,863,1543475370356317000,/map,1.34122216702,18.5323410034,0.283596873283,0.00187403890157,-0.00879078671571,0.716031489424,0.698010111818
1543475370456388000,864,1543475370456388000,/map,1.33767020702,18.5341949463,0.281276345253,0.00181595493653,-0.00874140667571,0.715875739215,0.698170621067
1543475370556523000,865,1543475370556523000,/map,1.33895993233,18.5289993286,0.277445912361,0.00196959713402,-0.00869274193886,0.716197053296,0.697841198106
1543475370656612000,866,1543475370656612000,/map,1.33787548542,18.5305938721,0.288700222969,0.00173935297435,-0.00885843826253,0.715864177664,0.69818119558
1543475370756713000,867,1543475370756713000,/map,1.33755707741,18.5358848572,0.283668398857,0.00180605259895,-0.00885609122416,0.716033388271,0.698007517656
1543475370856831000,868,1543475370856831000,/map,1.34050989151,18.529417038,0.280853748322,0.00180809353911,-0.00876575880206,0.715949434667,0.698094763818
1543475370956936000,869,1543475370956936000,/map,1.33561205864,18.5339374542,0.287133455276,0.00181595274244,-0.00882419348048,0.715948423066,0.698095044699
1543475371057065000,870,1543475371057065000,/map,1.33916187286,18.5268802643,0.285337805748,0.00177002670555,-0.00881895019914,0.715902926917,0.698141885546
1543475371157154000,871,1543475371157154000,/map,1.33435869217,18.5341129303,0.281835913658,0.00188971380013,-0.00871862474431,0.715923774804,0.698121453069
1543475371257277000,872,1543475371257277000,/map,1.33513128757,18.5296573639,0.285462260246,0.00180418730267,-0.00882524802796,0.71589212951,0.698152790448
1543475371357410000,873,1543475371357410000,/map,1.33680844307,18.5365409851,0.280183434486,0.00189299514376,-0.0087455704876,0.715960530597,0.69808341206
1543475371457499000,874,1543475371457499000,/map,1.33763945103,18.5328636169,0.285449504852,0.00181633924621,-0.00882222658987,0.715921185734,0.698123001374
1543475371557610000,875,1543475371557610000,/map,1.33942008018,18.5360298157,0.280984401703,0.0018347537779,-0.00872506824257,0.715955716107,0.698088761861
1543475371657756000,876,1543475371657756000,/map,1.33516860008,18.5312385559,0.282348871231,0.00189039888829,-0.00875465247149,0.715941099413,0.6981032335
1543475371757828000,877,1543475371757828000,/map,1.34181451797,18.5312709808,0.283930420876,0.00182723182336,-0.00884099926081,0.715908490808,0.698135753808
1543475371857917000,878,1543475371857917000,/map,1.33695495129,18.5332927704,0.285404086113,0.00181789017947,-0.00877569254823,0.715987201647,0.698055878546
1543475371958066000,879,1543475371958066000,/map,1.33388900757,18.5338134766,0.287337183952,0.00184916135347,-0.00875482460715,0.715987962834,0.6980552777
1543475372058198000,880,1543475372058198000,/map,1.33998608589,18.5273036957,0.283540487289,0.00189398947205,-0.00878406318849,0.715916933041,0.698127637343
1543475372158291000,881,1543475372158291000,/map,1.33614289761,18.5358314514,0.286011695862,0.00182671495227,-0.00884775868572,0.715956537166,0.698086396636
1543475372258424000,882,1543475372258424000,/map,1.33490264416,18.5314083099,0.285077691078,0.00184042102534,-0.00878524364583,0.715892117361,0.698153212873
1543475372358533000,883,1543475372358533000,/map,1.33961641788,18.5341777802,0.282042503357,0.00184833604907,-0.00880826759141,0.715998118069,0.698044191292
1543475372458677000,884,1543475372458677000,/map,1.3324816227,18.5380687714,0.285901904106,0.00187661593526,-0.00880644977125,0.715907201629,0.698137381474
1543475372558770000,885,1543475372558770000,/map,1.33921718597,18.5345993042,0.283694863319,0.00178734277689,-0.00879626033933,0.715886662859,0.698158805108
1543475372658892000,886,1543475372658892000,/map,1.33541560173,18.5310783386,0.279696464539,0.00188555367303,-0.00869047629765,0.715932758566,0.698112602322
1543475372758996000,887,1543475372758996000,/map,1.33922553062,18.5339660645,0.288298487663,0.0018134289247,-0.00883372691659,0.71584291772,0.698203117935
1543475372859121000,888,1543475372859121000,/map,1.33488249779,18.5317687988,0.284321784973,0.00177402415156,-0.00884152121149,0.715966875372,0.698076008548
1543475372959253000,889,1543475372959253000,/map,1.33716881275,18.5346012115,0.280253648758,0.00187364770599,-0.0087152252094,0.715833409764,0.698214196188
1543475373059367000,890,1543475373059367000,/map,1.33964109421,18.5323047638,0.287110686302,0.00180128262477,-0.00883678838124,0.715992743853,0.698049466229
1543475373159514000,891,1543475373159514000,/map,1.33312249184,18.5369491577,0.281654596329,0.00189552120799,-0.00875005282469,0.71594002139,0.698104382844
1543475373259636000,892,1543475373259636000,/map,1.33674991131,18.5292053223,0.284061193466,0.00180639987519,-0.00879006964716,0.715937797193,0.698106397439
1543475373359712000,893,1543475373359712000,/map,1.33626401424,18.5316085815,0.282105326653,0.00178772516188,-0.00877892855984,0.715904844665,0.698140378317
1543475373459881000,894,1543475373459881000,/map,1.33300411701,18.5376777649,0.281492710114,0.00189230531265,-0.0087987122017,0.716074689768,0.697965644224
1543475373559962000,895,1543475373559962000,/map,1.33517146111,18.5293254852,0.283813118935,0.00181123270912,-0.00877655218827,0.715907307403,0.698137822192
1543475373660103000,896,1543475373660103000,/map,1.33295726776,18.5384311676,0.283938288689,0.00187920224319,-0.00880982772096,0.715961449767,0.698081698645
1543475373760231000,897,1543475373760231000,/map,1.33718538284,18.5340385437,0.279778957367,0.00191460762943,-0.00873519379826,0.715959597857,0.698084439666
1543475373860378000,898,1543475373860378000,/map,1.33978128433,18.5321483612,0.286115765572,0.0016887102261,-0.00884876050684,0.715931777763,0.69811212372
1543475373960482000,899,1543475373960482000,/map,1.33851218224,18.5326118469,0.280427455902,0.00188600557606,-0.00877354071953,0.715908277789,0.698136666964
1543475374060614000,900,1543475374060614000,/map,1.33479011059,18.5300579071,0.284178972244,0.00178232108488,-0.00872635759816,0.715953164589,0.698091498393
1543475374160709000,901,1543475374160709000,/map,1.33774065971,18.5369300842,0.285940766335,0.00179742584446,-0.00887460205737,0.715861881745,0.69818319728
1543475374260870000,902,1543475374260870000,/map,1.33423066139,18.531873703,0.282447814941,0.00181201991933,-0.00875172827865,0.715925581474,0.698119392101
1543475374360987000,903,1543475374360987000,/map,1.33948159218,18.5329189301,0.285666108131,0.00174795439791,-0.00881716889882,0.715928152956,0.698116094925
1543475374461079000,904,1543475374461079000,/map,1.34051632881,18.5280780792,0.282145142555,0.00185711294574,-0.0088079733132,0.715915891551,0.698128503187
1543475374561242000,905,1543475374561242000,/map,1.33673536777,18.5345191956,0.28378868103,0.00182167680513,-0.00877938928627,0.715949521367,0.698094468301
1543475374661338000,906,1543475374661338000,/map,1.34229338169,18.532497406,0.282543540001,0.00178735850079,-0.00878100179324,0.715913239408,0.698131744728
1543475374761492000,907,1543475374761492000,/map,1.33680069447,18.5290298462,0.283723950386,0.00189561557869,-0.00876704558728,0.715953807941,0.698090030331
1543475374861621000,908,1543475374861621000,/map,1.33670294285,18.5327606201,0.27975666523,0.00185045755391,-0.00870059176264,0.715890002515,0.698156415002
1543475374961710000,909,1543475374961710000,/map,1.33498203754,18.5302734375,0.28677546978,0.00175692413982,-0.00883979972831,0.715876703836,0.698168544167
1543475375061856000,910,1543475375061856000,/map,1.33763802052,18.5344905853,0.282940387726,0.0018029180292,-0.00878682653098,0.715962520939,0.698081091118
1543475375161976000,911,1543475375161976000,/map,1.33995652199,18.5270500183,0.285921931267,0.00177055246162,-0.00884573986202,0.715902045671,0.698142448957
1543475375262111000,912,1543475375262111000,/map,1.33423030376,18.5338077545,0.283740878105,0.0019105815384,-0.00875907616172,0.715950582011,0.698093398036
1543475375362321000,913,1543475375362321000,/map,1.33514595032,18.5289382935,0.287133216858,0.00174990110628,-0.00879048558469,0.715897498487,0.698147861752
1543475375462386000,914,1543475375462386000,/map,1.33717501163,18.5344390869,0.281613230705,0.00184912060034,-0.00875949728355,0.715929083066,0.698115606459
1543475375562516000,915,1543475375562516000,/map,1.33726632595,18.5289859772,0.285621285439,0.00176646113834,-0.00883959105319,0.715907668621,0.698136771167
1543475375662672000,916,1543475375662672000,/map,1.33492648602,18.5324573517,0.278956055641,0.00189975032581,-0.0087781133963,0.715944465531,0.698099461359
1543475375762800000,917,1543475375762800000,/map,1.33842265606,18.5301246643,0.287062168121,0.00179047478064,-0.0088536783446,0.715872221253,0.69817287932
1543475375862957000,918,1543475375862957000,/map,1.33585762978,18.5308895111,0.278995275497,0.00185581249562,-0.00875142103063,0.715940016109,0.698104477799
1543475375963085000,919,1543475375963085000,/map,1.3382383585,18.5338554382,0.288353919983,0.00180931727022,-0.00884621505401,0.71592455074,0.698119265239
1543475376063198000,920,1543475376063198000,/map,1.33877766132,18.5282440186,0.28236246109,0.00182124779056,-0.00874966272604,0.715937473671,0.698107198253
1543475376163367000,921,1543475376163367000,/map,1.33976995945,18.5330715179,0.287683606148,0.00177245034799,-0.00884309865707,0.715906354413,0.698138059223
1543475376263474000,922,1543475376263474000,/map,1.33714461327,18.5320987701,0.283466219902,0.00189483147117,-0.00883385255309,0.716009322819,0.698032250186
1543475376363577000,923,1543475376363577000,/map,1.3390622139,18.5310173035,0.287180662155,0.00164313428616,-0.00882103434021,0.715638335049,0.698413389671
1543475376463731000,924,1543475376463731000,/map,1.33216106892,18.5367012024,0.282698631287,0.00191217407918,-0.00886676971511,0.716078273252,0.697961052324
1543475376563868000,925,1543475376563868000,/map,1.34026145935,18.5329742432,0.28416121006,0.00180272235744,-0.00885587699952,0.715979749088,0.698062549153
1543475376663993000,926,1543475376663993000,/map,1.3374658823,18.5336818695,0.287073612213,0.00183813176018,-0.00889978833329,0.715952726338,0.698089613651
1543475376764149000,927,1543475376764149000,/map,1.33469009399,18.5336894989,0.277382493019,0.00185712858422,-0.0086309808219,0.715934561568,0.698111567585
1543475376864287000,928,1543475376864287000,/map,1.33503377438,18.5294132233,0.286697506905,0.00179557706551,-0.00883502144134,0.715903282859,0.698141252105
1543475376964394000,929,1543475376964394000,/map,1.33246421814,18.5320777893,0.281978964806,0.00187444504026,-0.0087521903198,0.71596612271,0.698077643785
1543475377064535000,930,1543475377064535000,/map,1.34155118465,18.5281410217,0.281474471092,0.00178035374498,-0.00881687999682,0.715925176194,0.698119069399
1543475377164715000,931,1543475377164715000,/map,1.33559298515,18.5311279297,0.285440564156,0.00184817838748,-0.0088401660499,0.715910120605,0.69813403793
1543475377264860000,932,1543475377264860000,/map,1.33586835861,18.5346050262,0.282229423523,0.00183863055687,-0.00871166568716,0.716018265641,0.698024762875
1543475377365014000,933,1543475377365014000,/map,1.34336030483,18.5287208557,0.281974077225,0.00179359250087,-0.00879945034142,0.715906095763,0.698138821975
1543475377465127000,934,1543475377465127000,/map,1.33762609959,18.5315685272,0.284835457802,0.00185675984925,-0.00884870099908,0.71592299612,0.698120703432
1543475377565285000,935,1543475377565285000,/map,1.33971524239,18.5295753479,0.279487967491,0.00182627024103,-0.00873937286771,0.715985281512,0.698058281776
1543475377665405000,936,1543475377665405000,/map,1.33747756481,18.53241539,0.287284493446,0.00181192208994,-0.00880103603832,0.7159049285,0.698139951623
1543475377765557000,937,1543475377765557000,/map,1.33648228645,18.5289325714,0.282721757889,0.00178178953219,-0.00870366608117,0.71593180506,0.698113688397
1543475377865710000,938,1543475377865710000,/map,1.33710217476,18.5342197418,0.284403800964,0.00183540477823,-0.00881208815696,0.715904874956,0.698139805774
1543475377965843000,939,1543475377965843000,/map,1.33511579037,18.5303535461,0.28464114666,0.00189727386013,-0.00884374472454,0.715992540429,0.698049332484
1543475378065967000,940,1543475378065967000,/map,1.33841979504,18.5345306396,0.284882187843,0.00181701482662,-0.00877250490449,0.715876834759,0.698169104924
1543475378166117000,941,1543475378166117000,/map,1.33393251896,18.5317115784,0.280230522156,0.00182822857901,-0.00880822153563,0.715973294089,0.69806970638
1543475378266268000,942,1543475378266268000,/map,1.3359348774,18.5350837708,0.288074612617,0.00181736746958,-0.0088692116858,0.715905244047,0.698138751113
1543475378366397000,943,1543475378366397000,/map,1.33455848694,18.5287952423,0.281388878822,0.00181941372964,-0.00877123357301,0.715902860081,0.69814242825
1543475378466568000,944,1543475378466568000,/map,1.3368704319,18.5318622589,0.286608934402,0.00179740512464,-0.00879096444698,0.715892606903,0.698152750951
1543475378566688000,945,1543475378566688000,/map,1.33580374718,18.5298595428,0.288193583488,0.00179493953036,-0.00904196824651,0.716181516825,0.697853176507
1543475378666809000,946,1543475378666809000,/map,1.33551287651,18.5372543335,0.282210946083,0.00174865547309,-0.00877260320328,0.715821211724,0.698226307499
1543475378766960000,947,1543475378766960000,/map,1.33594882488,18.5361347198,0.287830352783,0.00185144040889,-0.00877590136314,0.716106241839,0.697933668856
1543475378867125000,948,1543475378867125000,/map,1.33516979218,18.5315876007,0.281473875046,0.00182119125143,-0.0087563964026,0.715810762022,0.698237038375
1543475378967243000,949,1543475378967243000,/map,1.3393727541,18.5335502625,0.282681584358,0.00181199405581,-0.00878448952969,0.716006526287,0.698035961635
1543475379067373000,950,1543475379067373000,/map,1.33418083191,18.5313224792,0.284149885178,0.00185430491218,-0.00876252958435,0.715811244022,0.698236380147
1543475379167541000,951,1543475379167541000,/map,1.3354934454,18.534734726,0.281511664391,0.00180251834988,-0.00877568603033,0.71603084347,0.698011152821
1543475379267703000,952,1543475379267703000,/map,1.33686375618,18.5313739777,0.288318753242,0.0017306712962,-0.00892514567444,0.715856166059,0.698188582023
1543475379367846000,953,1543475379367846000,/map,1.33206558228,18.5367546082,0.282794952393,0.00183590808666,-0.00879398088827,0.715940460005,0.698103540364
1543475379467978000,954,1543475379467978000,/map,1.33284687996,18.5317611694,0.285058379173,0.00183582408582,-0.00877258683118,0.715961507865,0.69808222347
1543475379568094000,955,1543475379568094000,/map,1.33853125572,18.5341281891,0.280468225479,0.00182119250811,-0.0088148263837,0.715927354799,0.698116755811
1543475379668259000,956,1543475379668259000,/map,1.33312988281,18.5304470062,0.287348508835,0.00176327124666,-0.00884241626938,0.715904162459,0.698140338845
1543475379768449000,957,1543475379768449000,/map,1.33616888523,18.5290088654,0.284243226051,0.0018220241679,-0.00883874763593,0.715981131902,0.69806129783
1543475379868556000,958,1543475379868556000,/map,1.3373503685,18.5362663269,0.280626296997,0.00183052065476,-0.00876764578741,0.715876909171,0.698169054382
