%time,field.header.seq,field.header.stamp,field.header.frame_id,field.pose.position.x,field.pose.position.y,field.pose.position.z,field.pose.orientation.x,field.pose.orientation.y,field.pose.orientation.z,field.pose.orientation.w
1543475342452365000,0,1543475342452365000,/map,1.1817086935,-1.200704813,-0.0152261257172,0.0,0.0,0.707106796641,0.707106765732
1543475342552612000,1,1543475342552612000,/map,1.19940459728,-0.66131991148,-0.00100553035736,0.00188133568033,-0.008404991664,0.706744164301,0.70741678162
1543475342652849000,2,1543475342652849000,/map,1.08490549427,-0.147975420056,0.000334076819953,0.00205623799605,-0.00860697534436,0.705660203205,0.708495144283
1543475342753101000,3,1543475342753101000,/map,0.926980013318,0.126964704726,0.00448119916143,0.00218752552666,-0.00869141105979,0.705955965288,0.70819901806
1543475342853360000,4,1543475342853360000,/map,0.922968663692,0.557997220788,-0.0294255285638,0.0026377790131,-0.00858550662232,0.707930835735,0.706224654776
1543475342953552000,5,1543475342953552000,/map,1.26141732998,0.880293649815,0.021443072701,0.00242909456726,-0.00861279300435,0.709660709779,0.704486760907
1543475343053827000,6,1543475343053827000,/map,1.40758601877,1.78760840267,0.0137227955862,0.00235985341804,-0.00872199514345,0.718604745457,0.695360034586
1543475343154103000,7,1543475343154103000,/map,1.39681155245,2.38913454512,0.0484339782752,0.00238086099866,-0.00883094614365,0.72163911671,0.692209022713
1543475343254353000,8,1543475343254353000,/map,1.49917761414,3.00924508427,0.0439062562718,0.00228485131552,-0.00871303088839,0.724705150115,0.689000223471
1543475343354558000,9,1543475343354558000,/map,1.58984282975,3.58991634457,0.0137797999858,0.00255298455452,-0.00868433661027,0.727709159433,0.685826103211
1543475343454818000,10,1543475343454818000,/map,1.63896972017,4.18717206349,0.0316950517479,0.00273231197409,-0.00856776498367,0.730107787977,0.683272819458
1543475343555096000,11,1543475343555096000,/map,1.07840292235,4.80191290417,0.0862704046325,0.00225029032966,-0.00854655176831,0.725694949645,0.687959833643
1543475343655289000,12,1543475343655289000,/map,1.20650384605,5.72307479521,0.0948626322696,0.00199849519342,-0.00850994462015,0.710972779403,0.703165196669
1543475343755589000,13,1543475343755589000,/map,1.20573037169,6.80308304048,0.117560104793,0.00192563072017,-0.00844187425594,0.711030486185,0.703107868269
1543475343855821000,14,1543475343855821000,/map,1.30565486027,9.34331880408,0.128270688784,0.00238713275408,-0.00866312997965,0.717817073194,0.696173757913
1543475344056295000,15,1543475344056295000,/map,1.38755495682,15.7070467513,0.331697241601,0.00194513484571,-0.00894637773016,0.718384931834,0.695585557994
1543475344156547000,16,1543475344156547000,/map,1.43180800985,18.4110953025,0.31128651991,0.00155489944135,-0.00883591128818,0.717711746999,0.696282526838
1543475344256839000,17,1543475344256839000,/map,1.28007152954,21.3554483209,0.302448072361,0.00169089553519,-0.00880581938645,0.714242077672,0.699841305511
1543475344357040000,18,1543475344357040000,/map,1.38949534135,20.2295668811,0.318564853917,0.00191785512111,-0.00889167902449,0.71704068616,0.69697196089
1543475344557556000,19,1543475344557556000,/map,1.28596513851,16.8601472571,0.255527666877,0.00175967038023,-0.00879031731122,0.714900448536,0.699168779742
1543475344657778000,20,1543475344657778000,/map,1.33465062284,18.5258607293,0.280429634558,0.00185326295986,-0.00876441418461,0.715933107606,0.698111406506
1543475344758061000,21,1543475344758061000,/map,1.34261420939,18.5383876353,0.281341673391,0.00192830973921,-0.00874260122757,0.715896826672,0.698148681948
1543475344858272000,22,1543475344858272000,/map,1.34485762587,18.5255541261,0.293360776533,0.0017982681778,-0.00887529643939,0.715990281571,0.698051511022
1543475344958529000,23,1543475344958529000,/map,1.33545345146,18.5383014368,0.283549799349,0.00180122623338,-0.00883699178649,0.715928311354,0.698115546426
1543475345058802000,24,1543475345058802000,/map,1.32923849435,18.5215501219,0.289440819238,0.00184358933349,-0.00883675431709,0.715908432764,0.69813582407
1543475345159055000,25,1543475345159055000,/map,1.33457082472,18.5397098188,0.283594046144,0.00177362825845,-0.00879602380101,0.715894310288,0.698151001364
1543475345259326000,26,1543475345259326000,/map,1.35296548338,18.5356618648,0.287548720849,0.00184298518499,-0.00890117629726,0.71605920207,0.697980366198
1543475345359559000,27,1543475345359559000,/map,1.32909048731,18.5294847891,0.282701387726,0.00178351927174,-0.00880698342957,0.715891386072,0.698153836522
1543475345459809000,28,1543475345459809000,/map,1.34514144084,18.5386529752,0.286281368382,0.00186987183068,-0.00881920252308,0.715937729812,0.698105931988
1543475345560047000,29,1543475345560047000,/map,1.33448769361,18.5256258127,0.278769773966,0.00186806182145,-0.00877412073581,0.715986488719,0.698056497085
1543475345660276000,30,1543475345660276000,/map,1.33572372353,18.5438989347,0.28585393317,0.00182862780542,-0.00880356780823,0.71600184678,0.698040477854
1543475345760509000,31,1543475345760509000,/map,1.34623320111,18.5246999154,0.288913705987,0.0018386600388,-0.00881275237119,0.715872794368,0.698172684233
1543475345860783000,32,1543475345860783000,/map,1.32877591337,18.5347965475,0.282358763844,0.00178958850907,-0.00876626083766,0.715899190861,0.698146330341
1543475345960969000,33,1543475345960969000,/map,1.33638433527,18.5220632324,0.291302871047,0.00184944446684,-0.00885581042544,0.715912385983,0.698131513235
1543475346060909000,34,1543475346060909000,/map,1.33657056553,18.5402369869,0.279531220157,0.00186373451333,-0.00883361426757,0.716025445306,0.698015798838
1543475346160694000,35,1543475346160694000,/map,1.33269424052,18.5226565517,0.286356881252,0.00182449133602,-0.00878675577209,0.715882963226,0.698162622257
1543475346260464000,36,1543475346260464000,/map,1.3467500483,18.5386516384,0.284816995881,0.0018120425055,-0.00887976120439,0.715945744688,0.698097097119
1543475346360261000,37,1543475346360261000,/map,1.33088481272,18.5328349231,0.281233765623,0.00180524923406,-0.00873559475189,0.71598098963,0.698062785821
1543475346460020000,38,1543475346460020000,/map,1.35048883393,18.5308403587,0.290185766812,0.00182687560611,-0.00889798297586,0.715899080092,0.698144680957
1543475346559852000,39,1543475346559852000,/map,1.32951513238,18.5361591322,0.278478382015,0.00179113980517,-0.0087622541986,0.715913872551,0.69813132132
1543475346659629000,40,1543475346659629000,/map,1.3423342815,18.5351311634,0.293961958672,0.0018193517079,-0.00882378467717,0.715906165734,0.698138376433
1543475346759360000,41,1543475346759360000,/map,1.32971532221,18.5313575598,0.273458317555,0.00186443621052,-0.00866852266097,0.716079631628,0.697962278178
1543475346859237000,42,1543475346859237000,/map,1.34441121703,18.5269025219,0.291929594586,0.00183450905582,-0.00889628931223,0.715817432111,0.698228397087
1543475346958952000,43,1543475346958952000,/map,1.33196330733,18.5397659685,0.278182373163,0.00187634257605,-0.00876672432912,0.716001139082,0.698041540825
1543475347058767000,44,1543475347058767000,/map,1.33809280629,18.5238859497,0.288723239561,0.00182025108837,-0.00890978886588,0.715927915888,0.69811497735
1543475347158557000,45,1543475347158557000,/map,1.33321820127,18.5387733133,0.27894400233,0.00190630728963,-0.00875573334719,0.71604312884,0.697998524903
1543475347258381000,46,1543475347258381000,/map,1.346711713,18.5275162016,0.287615502591,0.00187593195249,-0.00879366326017,0.715814954061,0.698232127526
1543475347358162000,47,1543475347358162000,/map,1.33135833917,18.5313948295,0.290357490893,0.00173452205855,-0.00888049995789,0.716025678343,0.698015297904
1543475347457982000,48,1543475347457982000,/map,1.33952803437,18.5340906273,0.279535498466,0.00193622177034,-0.00883483697843,0.715748585483,0.698299476643
1543475347557789000,49,1543475347557789000,/map,1.32838429888,18.5377079494,0.291531641538,0.00183115601136,-0.00880737245409,0.716306866162,0.697727418515
1543475347657596000,50,1543475347657596000,/map,1.34187924862,18.5364284515,0.280246734619,0.0018460174048,-0.00886150107212,0.715743885891,0.698304200065
1543475347757432000,51,1543475347757432000,/map,1.32670341187,18.5299101872,0.288460678243,0.00183088691211,-0.00881549752498,0.716102152111,0.697937420259
1543475347857209000,52,1543475347857209000,/map,1.35071871659,18.5280985572,0.282331174267,0.00183688975627,-0.00883496031112,0.71589103759,0.698153701996
1543475347957020000,53,1543475347957020000,/map,1.33387353761,18.5362005453,0.282543486715,0.001857088304,-0.00874919903983,0.715935490015,0.698109143957
1543475348056869000,54,1543475348056869000,/map,1.33269609236,18.530269039,0.287472546376,0.00179310261733,-0.0088104047915,0.716096348222,0.697943537554
1543475348156677000,55,1543475348156677000,/map,1.3317911411,18.5308725361,0.280857191943,0.00180950028998,-0.00875676693308,0.715423278354,0.698634079852
1543475348256489000,56,1543475348256489000,/map,1.34011079246,18.5405008245,0.296281958585,0.00181684220811,-0.0088552783527,0.716436022854,0.697594228966
1543475348356323000,57,1543475348356323000,/map,1.33378246007,18.5228295207,0.28576878944,0.00180085554767,-0.0088334096726,0.715875548162,0.698169698094
1543475348456199000,58,1543475348456199000,/map,1.33480741384,18.5353043628,0.281738091578,0.00182700760911,-0.00872460669825,0.715884742699,0.698161570449
1543475348555976000,59,1543475348555976000,/map,1.35204271203,18.5297235107,0.278895177109,0.00192093688781,-0.00884139005387,0.716052693128,0.697987593362
1543475348655857000,60,1543475348655857000,/map,1.32225906484,18.537106818,0.283685107895,0.00179817264989,-0.00879927303048,0.715865391527,0.698180550132
1543475348755674000,61,1543475348755674000,/map,1.33812105541,18.5337125007,0.289577322721,0.00182870514556,-0.00878931465855,0.715922099417,0.698122447248
1543475348855479000,62,1543475348855479000,/map,1.33697441396,18.5305215953,0.273554725518,0.00184401647495,-0.00868795604711,0.715857670457,0.698189741167
1543475348955353000,63,1543475348955353000,/map,1.34484337844,18.5336480357,0.292356637234,0.00186967177615,-0.00881419083948,0.716010609754,0.698031246497
1543475349055165000,64,1543475349055165000,/map,1.33832416282,18.5299520191,0.279735397371,0.00179272624831,-0.00882262306671,0.715852315086,0.698193676884
1543475349155075000,65,1543475349155075000,/map,1.33010812005,18.539591021,0.295300598351,0.0018397028573,-0.00889481878075,0.715916895084,0.698126419086
1543475349254937000,66,1543475349254937000,/map,1.34022569771,18.5302308376,0.271365375464,0.00185076290673,-0.00869118870234,0.715971289108,0.698073170297
1543475349354753000,67,1543475349354753000,/map,1.34087544405,18.5243588031,0.293719761261,0.00191614685633,-0.00878787338222,0.715862225982,0.698183625614
1543475349454636000,68,1543475349454636000,/map,1.32892598129,18.5328459633,0.28101196381,0.00177225842237,-0.00882613478831,0.715929775658,0.698114256244
1543475349554496000,69,1543475349554496000,/map,1.34627177752,18.5461160108,0.288688953775,0.00182109884323,-0.00889180133248,0.715888029838,0.698156105898
1543475349654311000,70,1543475349654311000,/map,1.33470813252,18.5295792485,0.279669596656,0.00182089526002,-0.00873313033935,0.715977539927,0.698066314253
1543475349754175000,71,1543475349754175000,/map,1.32619677341,18.5400825167,0.286892414249,0.00180224849882,-0.00876861961221,0.71563418252,0.698417912156
1543475349854040000,72,1543475349854040000,/map,1.34651727883,18.5254287138,0.279219956327,0.00187108191054,-0.00878512875911,0.71608779638,0.697952425628
1543475349953863000,73,1543475349953863000,/map,1.33320695361,18.528915893,0.288204813132,0.0018223961695,-0.00894549457659,0.715967865365,0.698073543951
1543475350053766000,74,1543475350053766000,/map,1.33088018537,18.5303383928,0.288187649595,0.00180565381296,-0.00897342625548,0.715904502455,0.698138210242
1543475350153640000,75,1543475350153640000,/map,1.34142427356,18.5383651335,0.277648446617,0.00179730838226,-0.00876873271027,0.715854553162,0.698192049315
1543475350253489000,76,1543475350253489000,/map,1.33642865466,18.5314067631,0.294738625092,0.0018543603269,-0.00881943922048,0.715922716906,0.698121366424
1543475350353404000,77,1543475350353404000,/map,1.32756149386,18.5190784743,0.275921736049,0.00181551354294,-0.00881612597452,0.715969772111,0.698073252071
1543475350453254000,78,1543475350453254000,/map,1.33635125533,18.5403414677,0.289391438453,0.00176317945464,-0.00878606812174,0.715922002628,0.698122755938
1543475350553158000,79,1543475350553158000,/map,1.33782219574,18.5313696802,0.282459312194,0.00188475641259,-0.00880130167491,0.715951135697,0.698092369301
1543475350653011000,80,1543475350653011000,/map,1.33926143065,18.5293376761,0.2813274851,0.00188088764109,-0.00879807695679,0.715948947935,0.698094664107
1543475350752890000,81,1543475350752890000,/map,1.33577155288,18.5435120918,0.291391785482,0.00176764286741,-0.00884835264096,0.715884997847,0.698159904286
1543475350852768000,82,1543475350852768000,/map,1.33877037928,18.5247421886,0.279150048745,0.00181564000849,-0.0087849793104,0.715862299925,0.698183854824
1543475350952618000,83,1543475350952618000,/map,1.34067148651,18.5374365294,0.286086379638,0.00180146369175,-0.0088573226217,0.716015138546,0.698026234419
1543475351052519000,84,1543475351052519000,/map,1.33240621477,18.5225819506,0.282321110824,0.0018440978965,-0.00865738036602,0.715899618787,0.698147108344
1543475351152462000,85,1543475351152462000,/map,1.34312103902,18.5342457682,0.28671845759,0.001840422095,-0.00888532310677,0.715869820107,0.698174809442
1543475351252313000,86,1543475351252313000,/map,1.33108691661,18.5415125628,0.275900422324,0.00182929697778,-0.00867461983981,0.715971608475,0.698073105413
1543475351352226000,87,1543475351352226000,/map,1.34411478268,18.5248548862,0.291128002498,0.00187866333205,-0.0087924526518,0.715929504653,0.698114680957
1543475351452112000,88,1543475351452112000,/map,1.33333161008,18.5386055669,0.279460453521,0.00185269492746,-0.00886918333052,0.716003344544,0.698038047467
1543475351552000000,89,1543475351552000000,/map,1.34447069984,18.5288695713,0.288322267259,0.00189322981159,-0.0087830524043,0.715836010471,0.698210627092
1543475351651882000,90,1543475351651882000,/map,1.33054369763,18.5407483258,0.282247878772,0.00179083725159,-0.00882475896703,0.716007114429,0.698034905014
1543475351751811000,91,1543475351751811000,/map,1.33947978243,18.5281581925,0.285634338294,0.00182216009616,-0.00870338187248,0.715894753127,0.698151583341
1543475351851700000,92,1543475351851700000,/map,1.32978510284,18.5398162861,0.281738287781,0.00186104793323,-0.00874181775437,0.716042409508,0.69799955939
1543475351951641000,93,1543475351951641000,/map,1.34470178424,18.5303520736,0.287348742755,0.00182257584089,-0.00886578275021,0.715755623151,0.698292176701
1543475352051507000,94,1543475352051507000,/map,1.33580226943,18.5304060866,0.271804985769,0.00177860334272,-0.00871923646126,0.716179038289,0.697859868885
1543475352151391000,95,1543475352151391000,/map,1.33749520867,18.5355437797,0.299081864622,0.00184225755732,-0.00886997133988,0.715647133685,0.698403257255
1543475352251339000,96,1543475352251339000,/map,1.33605863495,18.5317567425,0.276605272335,0.00187584748001,-0.00876076228557,0.7160116747,0.698030810161
1543475352351252000,97,1543475352351252000,/map,1.33607340219,18.5329761044,0.293555029698,0.00176881230183,-0.00886322744853,0.715994325601,0.69804759165
1543475352451168000,98,1543475352451168000,/map,1.34270093328,18.5304069153,0.28030920202,0.00183521962361,-0.00880263671594,0.715760866658,0.698287567781
1543475352551093000,99,1543475352551093000,/map,1.32974032036,18.5408501011,0.284069173616,0.00189257382617,-0.0088644434754,0.716111845391,0.697926690059
1543475352651008000,100,1543475352651008000,/map,1.33651116126,18.5240656268,0.283810751498,0.00184023425945,-0.00870555559652,0.715872563278,0.698174261904
1543475352750929000,101,1543475352750929000,/map,1.33580935686,18.5384905458,0.28562276533,0.00181695617929,-0.00882703015008,0.715856742597,0.698189019025
1543475352850830000,102,1543475352850830000,/map,1.33339177777,18.5258835654,0.276089467261,0.00187751411083,-0.00879020635927,0.715942821488,0.698101055415
1543475352950729000,103,1543475352950729000,/map,1.3372840607,18.5312385445,0.292381047927,0.00178461484773,-0.00879580542229,0.715827142985,0.698219843833
1543475353050665000,104,1543475353050665000,/map,1.33773801724,18.5350731419,0.270305631484,0.00180032041205,-0.00875148044381,0.715980928018,0.698062662768
1543475353150616000,105,1543475353150616000,/map,1.33660732061,18.5319251304,0.295152851422,0.00190724399436,-0.00881868263926,0.715796181222,0.698250972219
1543475353250566000,106,1543475353250566000,/map,1.33600676415,18.5298309455,0.270766457437,0.00176543734888,-0.00875834518057,0.716016030707,0.698026660229
1543475353350455000,107,1543475353350455000,/map,1.34976097225,18.5381924959,0.291336631738,0.00185103608428,-0.008807908987,0.71584404886,0.6982021857
1543475353450370000,108,1543475353450370000,/map,1.32655071914,18.5289890546,0.283069352746,0.00185385009664,-0.00877897235134,0.716015983402,0.698026220422
1543475353550328000,109,1543475353550328000,/map,1.33547081899,18.5385031768,0.274473035098,0.00182794245178,-0.00865927228079,0.715847888694,0.698200168922
1543475353650263000,110,1543475353650263000,/map,1.34162625537,18.5288226746,0.290872311488,0.00183114759659,-0.00890337339161,0.716050933427,0.697988852045
1543475353750181000,111,1543475353750181000,/map,1.33165059138,18.5365043616,0.273985613561,0.00192178873054,-0.00877292983532,0.715851632368,0.698194659723
1543475353850202000,112,1543475353850202000,/map,1.34710970637,18.524054044,0.290606961088,0.00181799889061,-0.00885800953039,0.715917016395,0.698126819556
1543475353950047000,113,1543475353950047000,/map,1.32835207853,18.5337350558,0.279443445444,0.00187765013683,-0.00878430727328,0.715953586109,0.698090089396
1543475354049970000,114,1543475354049970000,/map,1.33589588588,18.5285766841,0.278943558381,0.00186499720074,-0.00879142342941,0.715787374405,0.698260458068
1543475354149975000,115,1543475354149975000,/map,1.33525381663,18.5371447253,0.292787783052,0.00182837188815,-0.00877050838669,0.71607286273,0.697968044039
1543475354249894000,116,1543475354249894000,/map,1.33322589366,18.5305570242,0.269847962349,0.00190327084597,-0.00874693198828,0.715825512607,0.698221815931
1543475354349835000,117,1543475354349835000,/map,1.34015386715,18.5405320903,0.290864304729,0.00185445909466,-0.00879130119768,0.71590768878,0.698137132052
1543475354449795000,118,1543475354449795000,/map,1.33587419289,18.5202831305,0.279670250171,0.00184530496145,-0.00882059240308,0.715939403627,0.698104263225
1543475354549762000,119,1543475354549762000,/map,1.3358111127,18.5383933743,0.275940321173,0.00190405714534,-0.00873453697536,0.71597461826,0.698069071394
1543475354649684000,120,1543475354649684000,/map,1.34369692733,18.5278084815,0.289508486947,0.00182951696197,-0.00878235818159,0.715940689989,0.698103467597
1543475354749629000,121,1543475354749629000,/map,1.32911188013,18.541951535,0.284676002502,0.00181649639045,-0.00880568229202,0.71583571804,0.698210845718
1543475354849602000,122,1543475354849602000,/map,1.33687028356,18.5228863102,0.279359339725,0.00180298267878,-0.0087865866502,0.716001977073,0.698040624875
1543475354949552000,123,1543475354949552000,/map,1.34196018649,18.5400149733,0.287059788276,0.00186212883508,-0.00878843373941,0.7159397135,0.698104306349
1543475355049516000,124,1543475355049516000,/map,1.33096437213,18.5314233326,0.283215195182,0.00176779255864,-0.00878115144737,0.715810549857,0.698237082231
1543475355149432000,125,1543475355149432000,/map,1.34979176461,18.525257089,0.287315490557,0.00178135339077,-0.0088816252046,0.715984159924,0.698057752806
1543475355249406000,126,1543475355249406000,/map,1.33386246566,18.5435184114,0.285722892027,0.00173535336043,-0.008860411201,0.715930645189,0.698113023042
1543475355349417000,127,1543475355349417000,/map,1.32919969297,18.5305641917,0.274992043181,0.00185281763852,-0.00875363049643,0.715899259746,0.698146253241
1543475355449326000,128,1543475355449326000,/map,1.35005876861,18.5298232497,0.288457535287,0.00179254418082,-0.00882907318184,0.715904112474,0.698140484426
1543475355549359000,129,1543475355549359000,/map,1.33198244703,18.5370822331,0.279509496131,0.00177743911021,-0.00872795778469,0.71596515582,0.698079192581
1543475355649257000,130,1543475355649257000,/map,1.34499207768,18.5214130079,0.283375732793,0.00186691578173,-0.00880220729904,0.71592482879,0.6981193847
1543475355749234000,131,1543475355749234000,/map,1.32973250999,18.5439478479,0.276607145772,0.0018705913809,-0.00866357645927,0.715927400265,0.698118471952
1543475355849176000,132,1543475355849176000,/map,1.33964928204,18.5312012336,0.288106389283,0.0018367556152,-0.00881149352064,0.715966405051,0.698076708356
1543475355949191000,133,1543475355949191000,/map,1.32616308716,18.5343955244,0.269830941888,0.00194519694033,-0.00868265287196,0.715903299505,0.698142745795
1543475356049149000,134,1543475356049149000,/map,1.3423615487,18.5267297417,0.291954504753,0.0018539431583,-0.00877425153515,0.715928766548,0.698115732979
1543475356149128000,135,1543475356149128000,/map,1.32867569666,18.5394468324,0.275311587644,0.00178731901081,-0.00874213577291,0.715937663596,0.698107185464
1543475356249112000,136,1543475356249112000,/map,1.34734011071,18.5334949142,0.2898922091,0.00180853368365,-0.00879166114492,0.71594006496,0.698104046175
1543475356349070000,137,1543475356349070000,/map,1.33328443166,18.5276020996,0.283512888748,0.00184258380047,-0.00881909773339,0.71586038161,0.698185320986
1543475356449055000,138,1543475356449055000,/map,1.33011001784,18.5276294108,0.282077980369,0.00180825578396,-0.00893601090616,0.715924744103,0.69811792607
1543475356549026000,139,1543475356549026000,/map,1.34379862492,18.5436257798,0.280850451293,0.00180431659834,-0.0087916145611,0.715923389036,0.698121159246
1543475356649005000,140,1543475356649005000,/map,1.33294822006,18.5302388569,0.286536994577,0.00182789749973,-0.00878256353196,0.715888729889,0.698156753019
1543475356749038000,141,1543475356749038000,/map,1.34462202025,18.5289428277,0.276334051846,0.00189050595185,-0.00872486149249,0.715776091597,0.698272790159
1543475356848988000,142,1543475356848988000,/map,1.33026880827,18.5388037359,0.286186874699,0.00178037331769,-0.00883691952423,0.716054481762,0.697986187738
1543475356948943000,143,1543475356948943000,/map,1.34656719905,18.5330523964,0.280371951723,0.00186804694497,-0.0087620425403,0.715937621565,0.698106767651
1543475357048948000,144,1543475357048948000,/map,1.33512996424,18.5187168018,0.284813320975,0.00180968700341,-0.00878214674938,0.715848411987,0.698198145219
1543475357148962000,145,1543475357148962000,/map,1.34102250756,18.5312731089,0.281782439139,0.00179333901558,-0.00880290075504,0.715998296653,0.698044219276
1543475357248889000,146,1543475357248889000,/map,1.33437714191,18.5243664093,0.278065485516,0.00181014047158,-0.00875344944916,0.715885782239,0.698160187423
1543475357348890000,147,1543475357348890000,/map,1.33319751724,18.5362126673,0.291317128122,0.00176088339108,-0.00882235853408,0.715984066413,0.698058652208
1543475357448964000,148,1543475357448964000,/map,1.34147054926,18.5407653645,0.27772346169,0.00186418677759,-0.00875200618391,0.715924489446,0.698120371144
1543475357548911000,149,1543475357548911000,/map,1.33915975855,18.5198905748,0.290505225929,0.00179129147234,-0.00887334200531,0.715885013815,0.698159510479
1543475357648884000,150,1543475357648884000,/map,1.33077410893,18.5333297056,0.27824299163,0.00184867274673,-0.00871125638646,0.715986942695,0.698056870399
1543475357748912000,151,1543475357748912000,/map,1.34475494514,18.524725237,0.289924483128,0.00180620309141,-0.00883628615668,0.715825520501,0.698220940589
1543475357848870000,152,1543475357848870000,/map,1.33869077044,18.5433599939,0.282698138039,0.00187754151768,-0.00876328095987,0.716034894889,0.698006954869
1543475357948859000,153,1543475357948859000,/map,1.32409385774,18.5282104591,0.281689584831,0.0017584046281,-0.00879095286761,0.715864458529,0.698181712863
1543475358048902000,154,1543475358048902000,/map,1.34760953468,18.5327513213,0.286480522873,0.00183641077428,-0.00878806315303,0.715986954925,0.698055927501
1543475358148862000,155,1543475358148862000,/map,1.33712705597,18.52886343,0.281560436052,0.00188502116319,-0.00878930321664,0.715788478345,0.698259299339
1543475358248870000,156,1543475358248870000,/map,1.34519084891,18.5429450137,0.28931217102,0.00172450192462,-0.00881882787015,0.716103180488,0.697936594014
1543475358348934000,157,1543475358348934000,/map,1.33989781991,18.5260838178,0.282709684899,0.0017702928484,-0.00884019223704,0.71584305262,0.698203008501
1543475358448902000,158,1543475358448902000,/map,1.33970470134,18.5234603961,0.279624404639,0.00177602274242,-0.00901702647764,0.715837498467,0.698206427044
1543475358548907000,159,1543475358548907000,/map,1.33064997966,18.5485745432,0.294874657322,0.00179860676997,-0.00881300331883,0.716002228074,0.698040045685
1543475358648926000,160,1543475358648926000,/map,1.34638755496,18.5304483846,0.27821492969,0.00180222327951,-0.00876966467581,0.715978724347,0.698064689879
1543475358748882000,161,1543475358748882000,/map,1.33451687499,18.5243923654,0.292150224543,0.00175475719167,-0.00888708626033,0.715820959067,0.698225103448
1543475358848901000,162,1543475358848901000,/map,1.33406118531,18.5453808875,0.282155540891,0.00186896270704,-0.00878116396819,0.715983665214,0.698059302125
1543475358948944000,163,1543475358948944000,/map,1.33221176833,18.5300207892,0.278357787702,0.00178712042472,-0.00875094415442,0.715930984471,0.698113925267
1543475359048921000,164,1543475359048921000,/map,1.34329586175,18.5357868878,0.289992561555,0.0018333332359,-0.00881271014179,0.715972139388,0.698070820655
1543475359148918000,165,1543475359148918000,/map,1.32523879137,18.5377982342,0.282773785592,0.00180195601957,-0.0088349458818,0.71590702774,0.698137396448
1543475359248970000,166,1543475359248970000,/map,1.34199334922,18.5248305351,0.281390105462,0.00183529353342,-0.00879465018581,0.715957662464,0.698085891123
1543475359348980000,167,1543475359348980000,/map,1.3340283856,18.5437079463,0.277363974199,0.0018383687649,-0.0086931188693,0.71590089644,0.698145369218
1543475359448969000,168,1543475359448969000,/map,1.33502393009,18.5289296178,0.292003931818,0.00181370314709,-0.00887704126925,0.715931959489,0.698111264772
1543475359549014000,169,1543475359549014000,/map,1.33774123446,18.5429200204,0.282271041229,0.00185633392991,-0.00878771808721,0.71595273398,0.69809097741
1543475359649016000,170,1543475359649016000,/map,1.34404079981,18.5224127838,0.283217752581,0.00179338885509,-0.00877449542493,0.715853050265,0.698193527908
1543475359749078000,171,1543475359749078000,/map,1.32943018967,18.537216386,0.291145891693,0.00180454825293,-0.00877713973361,0.716034783939,0.69800708708
1543475359849071000,172,1543475359849071000,/map,1.34827651515,18.526392597,0.276064854267,0.00182253937247,-0.00878253938803,0.715809609698,0.698237887841
1543475359949103000,173,1543475359949103000,/map,1.33083527656,18.5345601299,0.293430462153,0.00179888117745,-0.00883838217197,0.715973421448,0.698069270779
1543475360049127000,174,1543475360049127000,/map,1.34980075816,18.522118022,0.277562303739,0.00184267039242,-0.00875260759743,0.715964863251,0.69807901488
1543475360149151000,175,1543475360149151000,/map,1.33114397526,18.5416183472,0.29194021225,0.00175538467541,-0.00885064603593,0.715961411312,0.698081544091
1543475360249160000,176,1543475360249160000,/map,1.34034990532,18.524012392,0.276051169468,0.0019121286061,-0.00875955755657,0.715864508017,0.698181652636
1543475360349184000,177,1543475360349184000,/map,1.34369196092,18.5431719757,0.284674871043,0.00187496406659,-0.00877547530045,0.716031156109,0.698010643919
1543475360449207000,178,1543475360449207000,/map,1.3272369606,18.5316295852,0.27714613108,0.00181553767634,-0.0087447619297,0.715845934843,0.698201139021
1543475360549213000,179,1543475360549213000,/map,1.34865399707,18.5251682082,0.281240728616,0.00190215090976,-0.00868683504795,0.715971541956,0.698072827023
1543475360649248000,180,1543475360649248000,/map,1.32995737068,18.5340792562,0.291824165653,0.00180220175417,-0.00877291444641,0.715929267295,0.698115371748
1543475360749319000,181,1543475360749319000,/map,1.34123472638,18.5249182702,0.282239548226,0.00182650517179,-0.00880206149534,0.715760940394,0.698287522299
1543475360849325000,182,1543475360849325000,/map,1.34055332081,18.5475801982,0.277921110213,0.00180089836951,-0.00877872471623,0.715993434238,0.698049491716
1543475360949360000,183,1543475360949360000,/map,1.34216990885,18.5207189339,0.286937727679,0.00183175075692,-0.00875227262375,0.71588066158,0.698165396442
1543475361049370000,184,1543475361049370000,/map,1.33175856115,18.5379875831,0.285873776309,0.00177971980432,-0.00886365189117,0.715965082777,0.698077551936
1543475361149418000,185,1543475361149418000,/map,1.33937548431,18.5247099072,0.285120521049,0.00183793011233,-0.00876358950206,0.71587272592,0.69817337517
1543475361249464000,186,1543475361249464000,/map,1.33563234625,18.5392950955,0.28786716011,0.0017703556469,-0.00890686130803,0.716058139675,0.697981571582
1543475361349519000,187,1543475361349519000,/map,1.34023252961,18.5349445659,0.271808800242,0.00187568005281,-0.00867762162241,0.71594069456,0.698104650164
1543475361449565000,188,1543475361449565000,/map,1.33710617061,18.5326214724,0.29324789919,0.00183287625814,-0.00879674988147,0.715830208035,0.698216564557
1543475361549557000,189,1543475361549557000,/map,1.33254121502,18.5426458755,0.290848308675,0.00171344360177,-0.00887672602187,0.716171563358,0.697865717515
1543475361649594000,190,1543475361649594000,/map,1.34977085105,18.52525803,0.274422454479,0.00183493703306,-0.00876679798806,0.715880574919,0.698165294692
1543475361749636000,191,1543475361749636000,/map,1.33076745836,18.5414946144,0.285369732022,0.00182624789647,-0.00883907270179,0.715910578926,0.698133639495
1543475361849717000,192,1543475361849717000,/map,1.33980920524,18.5270100035,0.284800082972,0.00185461015562,-0.00881159929806,0.71594179942,0.698101895129
1543475361949731000,193,1543475361949731000,/map,1.3250479673,18.5212285164,0.282196566551,0.00185159259758,-0.00875251418689,0.715813764536,0.698233928996
1543475362049791000,194,1543475362049791000,/map,1.34220199503,18.5284332873,0.282467803734,0.00185412345847,-0.00877056799568,0.715956073396,0.698087774088
1543475362149848000,195,1543475362149848000,/map,1.33597530342,18.5473439099,0.275929911766,0.00180058510673,-0.00874892661502,0.715966787105,0.698077197693
1543475362249889000,196,1543475362249889000,/map,1.3286654017,18.5277240868,0.282320621129,0.00187184852876,-0.00876842022596,0.715952750949,0.698091161238
1543475362349919000,197,1543475362349919000,/map,1.34350108521,18.5394092612,0.289593334845,0.00182697638674,-0.00883349241433,0.715929197911,0.698114614621
1543475362449956000,198,1543475362449956000,/map,1.33493913333,18.5309446478,0.273515291778,0.00186507016217,-0.00875021604956,0.715937574761,0.698106971945
1543475362550010000,199,1543475362550010000,/map,1.33383823807,18.5472690865,0.285252594259,0.00180473865084,-0.00879246393862,0.716002993126,0.698039504134
1543475362650064000,200,1543475362650064000,/map,1.33823740482,18.5177001953,0.288395285606,0.00177152254301,-0.00878168558515,0.715800266193,0.698247608391
1543475362750134000,201,1543475362750134000,/map,1.33772071422,18.5438244247,0.278176568417,0.00182557700393,-0.008766869257,0.71596439825,0.698079357746
1543475362850195000,202,1543475362850195000,/map,1.33805747989,18.5245729056,0.282267190278,0.00188313053414,-0.00868074935568,0.715917992262,0.698127872789
1543475362950217000,203,1543475362950217000,/map,1.34001101409,18.5377240406,0.289355754713,0.00179739606132,-0.00881755110789,0.715894493154,0.69815048151
1543475363050314000,204,1543475363050314000,/map,1.33119821906,18.5445004293,0.275274785364,0.00179737631491,-0.00874792425351,0.715979516742,0.698064162427
1543475363150315000,205,1543475363150315000,/map,1.33321717057,18.5292387618,0.290976615716,0.00186623933929,-0.00879027377975,0.71595623621,0.698087326965
1543475363250386000,206,1543475363250386000,/map,1.34820620534,18.5278851107,0.277092175729,0.00185312207663,-0.00876067819788,0.715944492963,0.698099777576
1543475363350432000,207,1543475363350432000,/map,1.33502607652,18.5310630817,0.285828158115,0.00183116258956,-0.0087908216566,0.715878339938,0.698167294211
1543475363450478000,208,1543475363450478000,/map,1.35207903385,18.5248641968,0.287714123726,0.00177042578898,-0.00882722206011,0.715970652033,0.698072325172
1543475363550592000,209,1543475363550592000,/map,1.33595048991,18.5383355078,0.287720900944,0.00175586841199,-0.00885960885687,0.715909692886,0.698134468343
1543475363650588000,210,1543475363650588000,/map,1.34354270043,18.5298672005,0.276456313249,0.00185929915606,-0.00879242410698,0.71590457276,0.698140300359
1543475363750650000,211,1543475363750650000,/map,1.33701134989,18.5361438788,0.292590438433,0.00180160192691,-0.00881854162633,0.715906299142,0.698138351907
1543475363850700000,212,1543475363850700000,/map,1.34407385713,18.523911117,0.278682139413,0.00189913152833,-0.00876052745846,0.71588036048,0.698165421614
1543475363950791000,213,1543475363950791000,/map,1.32806997401,18.5404438845,0.286512165161,0.00176899992565,-0.00882272132889,0.715890478942,0.698154604932
1543475364050853000,214,1543475364050853000,/map,1.34679562867,18.527026328,0.282108085797,0.00184390008109,-0.00875312362752,0.715967153154,0.698076656581
1543475364150914000,215,1543475364150914000,/map,1.33523812722,18.5316905933,0.286729915201,0.00179602543018,-0.00888013577327,0.715922640944,0.698120827411
1543475364250987000,216,1543475364250987000,/map,1.3486034044,18.5262181117,0.276844485379,0.00190096371057,-0.00878881223326,0.716041553852,0.697999739451
1543475364351050000,217,1543475364351050000,/map,1.33221276506,18.5389799724,0.293616973516,0.00180100587716,-0.00881433492288,0.715909954105,0.698134658566
1543475364451156000,218,1543475364451156000,/map,1.33977849717,18.5239179232,0.279154461122,0.00179861120999,-0.00878230766972,0.715862646017,0.698183577655
1543475364551177000,219,1543475364551177000,/map,1.3323358224,18.5428007173,0.279101810162,0.00183959933642,-0.00879781564391,0.715943638252,0.698100222863
1543475364651248000,220,1543475364651248000,/map,1.34164879046,18.5283088917,0.292004314688,0.00179380596194,-0.00886543412981,0.715915598546,0.698128241869
1543475364751320000,221,1543475364751320000,/map,1.33587502072,18.5399189387,0.287481670111,0.00174145272354,-0.00885294642405,0.715898586721,0.698145977725
1543475364851398000,222,1543475364851398000,/map,1.3414876543,18.5267216762,0.281300611362,0.00181618104461,-0.00878428132798,0.715977961554,0.698065252292
1543475364951462000,223,1543475364951462000,/map,1.32908916811,18.5398782494,0.28655273909,0.00180133229347,-0.0088204069857,0.715851435453,0.698194584613
1543475365051543000,224,1543475365051543000,/map,1.33953866788,18.5266391756,0.285433656315,0.00181412346489,-0.00881885098579,0.715873490549,0.698171957581
1543475365151615000,225,1543475365151615000,/map,1.33631422688,18.5365312055,0.266851543804,0.00191278810447,-0.00867284381234,0.716044592951,0.69799804006
1543475365251688000,226,1543475365251688000,/map,1.33135423424,18.5303058448,0.293845146031,0.0017930132916,-0.00881322376821,0.715840200711,0.698206215409
1543475365351755000,227,1543475365351755000,/map,1.33590728216,18.5426651639,0.276072054062,0.00182725752079,-0.00873380201685,0.71590959736,0.698135968304
1543475365451875000,228,1543475365451875000,/map,1.34156986719,18.5204174944,0.292750018094,0.00182307602307,-0.00881150167503,0.71594492089,0.698098778171
1543475365551917000,229,1543475365551917000,/map,1.33314236552,18.5434570785,0.282229591466,0.00184351915888,-0.00883374284861,0.715956571404,0.698086494847
1543475365651971000,230,1543475365651971000,/map,1.34623757629,18.5226775656,0.279295136386,0.00185445444171,-0.0087532552189,0.715917160147,0.698127897544
1543475365752015000,231,1543475365752015000,/map,1.32890773483,18.529390337,0.286248584019,0.00186278663874,-0.0088267355746,0.715838915003,0.698207180235
1543475365852104000,232,1543475365852104000,/map,1.34402586733,18.5400013898,0.282714303555,0.00181705574093,-0.00884726787009,0.716056541919,0.697983848621
1543475365952204000,233,1543475365952204000,/map,1.32937053918,18.5380956606,0.28246135402,0.00181843332584,-0.00880084828795,0.715807246136,0.69824009105
1543475366052269000,234,1543475366052269000,/map,1.33983600907,18.5165745115,0.289030199368,0.00182325258143,-0.00880572257559,0.715907385158,0.698137343849
1543475366152367000,235,1543475366152367000,/map,1.33436383873,18.543684934,0.28080354269,0.0018219907117,-0.00883535148563,0.715944102002,0.698099319383
1543475366252437000,236,1543475366252437000,/map,1.34362885383,18.5332072022,0.292056898013,0.00177362870527,-0.00882626138005,0.715929738972,0.698114288785
1543475366352521000,237,1543475366352521000,/map,1.33052606865,18.5405087154,0.274311081132,0.00188091933921,-0.00876286139267,0.716048651601,0.697992838747
1543475366452567000,238,1543475366452567000,/map,1.34347184631,18.5204728657,0.281580103051,0.00184797474694,-0.00876129064695,0.715812562361,0.698235060951
1543475366552711000,239,1543475366552711000,/map,1.32832419469,18.5401113089,0.290878336042,0.00181736366028,-0.00882286442931,0.715978113067,0.698064607226
1543475366652754000,240,1543475366652754000,/map,1.34177807298,18.5280317526,0.269010933458,0.00188844962046,-0.00871110571037,0.715905111307,0.69814068926
1543475366752823000,241,1543475366752823000,/map,1.33028540779,18.5317459731,0.29902773081,0.00179040381369,-0.00887830285796,0.715940272519,0.698102783534
1543475366852962000,242,1543475366852962000,/map,1.34127691054,18.5253121656,0.282889029362,0.00180318905769,-0.00883336240947,0.715892713385,0.698152091696
1543475366953008000,243,1543475366953008000,/map,1.33499066759,18.5445043181,0.281241052109,0.00178993131707,-0.00883391285938,0.715974434561,0.698068311259
1543475367053107000,244,1543475367053107000,/map,1.34155972377,18.5238270683,0.284092367675,0.00182196289274,-0.00880393799169,0.715807476868,0.698239806361
1543475367153164000,245,1543475367153164000,/map,1.3380656887,18.5428688054,0.282539741429,0.0017770488843,-0.00884971984861,0.715947233921,0.698096041241
1543475367253254000,246,1543475367253254000,/map,1.33604688675,18.516081303,0.284811055988,0.0018275656793,-0.00877414514211,0.715866149301,0.698180013081
1543475367353369000,247,1543475367353369000,/map,1.3339350821,18.5422364112,0.282549918127,0.0018017724675,-0.00886225925474,0.715940482768,0.698102742518
1543475367453416000,248,1543475367453416000,/map,1.34099038288,18.5312109834,0.285776596111,0.00182524529187,-0.00883021920922,0.715870213627,0.698175144896
1543475367553522000,249,1543475367553522000,/map,1.34710762286,18.5240109469,0.288092950924,0.00184167744971,-0.00881993275024,0.716075458358,0.697964723283
1543475367653633000,250,1543475367653633000,/map,1.33208749013,18.538572566,0.282913123268,0.0017905348396,-0.00885392060718,0.715842795549,0.698203046495
1543475367753708000,251,1543475367753708000,/map,1.32993844131,18.5272151758,0.286728001188,0.00173279352015,-0.00883508181291,0.716077218294,0.69796300489
1543475367853802000,252,1543475367853802000,/map,1.34552078716,18.5413962365,0.285039126682,0.00172407576324,-0.00883301635242,0.715906035235,0.6981386353
1543475367953879000,253,1543475367953879000,/map,1.3291628874,18.5342675616,0.274247635904,0.00191257443846,-0.00875359405624,0.715856430369,0.698190008342
1543475368053972000,254,1543475368053972000,/map,1.33976109145,18.5183549873,0.283741550756,0.00189130391424,-0.00874338723994,0.715948379103,0.698095906455
1543475368154075000,255,1543475368154075000,/map,1.33348780863,18.5394922918,0.28572734092,0.00184603363333,-0.00884827360476,0.715973118401,0.698069333191
1543475368254175000,256,1543475368254175000,/map,1.34408842237,18.5237637965,0.277139166697,0.00186356480723,-0.00875202137712,0.715936377848,0.698108180816
1543475368354311000,257,1543475368354311000,/map,1.33322766584,18.5465978856,0.290192807057,0.00180919097586,-0.00890308132802,0.715947188447,0.698095326819
1543475368454390000,258,1543475368454390000,/map,1.33845427372,18.5251843268,0.281141635518,0.00185102740066,-0.00877794589093,0.715921212707,0.698123440775
1543475368554502000,259,1543475368554502000,/map,1.33728668291,18.5362308923,0.291696156071,0.00173403678716,-0.00895717903256,0.71591490678,0.698127931192
1543475368654608000,260,1543475368654608000,/map,1.33116001622,18.532362027,0.274423393925,0.00180513133369,-0.00870869023254,0.715959102891,0.698085570115
1543475368754672000,261,1543475368754672000,/map,1.34622036911,18.5256344195,0.291756029949,0.00179115711335,-0.00883558587605,0.715812951986,0.698233873389
1543475368854722000,262,1543475368854722000,/map,1.32971253165,18.5362963588,0.271946126627,0.00185574215637,-0.00873680122511,0.715983453824,0.698060110861
1543475368954814000,263,1543475368954814000,/map,1.34334465603,18.5338213149,0.294019362851,0.00180565573173,-0.00884718267281,0.715954359158,0.69808869248
1543475369054917000,264,1543475369054917000,/map,1.3381726199,18.5150002902,0.286176659247,0.00177520557575,-0.00882701612363,0.715862963759,0.698182747961
1543475369155015000,265,1543475369155015000,/map,1.33562202905,18.5472978536,0.279268203952,0.00183082996138,-0.00884044652436,0.715961719357,0.698081163606
1543475369255177000,266,1543475369255177000,/map,1.3423818399,18.5257937147,0.280759747846,0.00186537416165,-0.00875182443013,0.71594708664,0.698097196012
1543475369355222000,267,1543475369355222000,/map,1.33546698765,18.5372066992,0.293121750214,0.00175027183138,-0.0088301709628,0.715793194046,0.698254300372
1543475369455365000,268,1543475369455365000,/map,1.33170386939,18.5328306259,0.271932033617,0.00182014729335,-0.00877054767796,0.715984482034,0.698058726787
1543475369555454000,269,1543475369555454000,/map,1.34136638978,18.5206790923,0.290884458688,0.0018532122334,-0.00881609412709,0.715803664131,0.698243479387
1543475369655566000,270,1543475369655566000,/map,1.33323423785,18.5432300091,0.278603142758,0.00183183822056,-0.00876779600066,0.715970350075,0.69807322534
1543475369755661000,271,1543475369755661000,/map,1.33541180509,18.5327016989,0.292394704752,0.00179255688111,-0.00891174502361,0.715939088371,0.698103566301
1543475369855776000,272,1543475369855776000,/map,1.34365258414,18.537969994,0.276878878402,0.00191693274016,-0.00874605667764,0.715871907599,0.698174221647
1543475369955886000,273,1543475369955886000,/map,1.33033358311,18.5364894731,0.290820617404,0.0017942039236,-0.008870415427,0.715921252549,0.698122379466
1543475370055959000,274,1543475370055959000,/map,1.34356971378,18.5252820199,0.280770869752,0.00187839194458,-0.00879901128117,0.716012445157,0.698029531914
1543475370156051000,275,1543475370156051000,/map,1.33293580534,18.531755543,0.281180033178,0.00180904493159,-0.00875899323752,0.715706483577,0.698343924409
1543475370256190000,276,1543475370256190000,/map,1.33901139868,18.5489066557,0.2877271786,0.00182763283011,-0.00887814540671,0.716450404657,0.697579139567
1543475370356317000,277,1543475370356317000,/map,1.33759009632,18.5330700305,0.281408886172,0.00181691873298,-0.00877475816216,0.715693832198,0.698356671751
1543475370456388000,278,1543475370456388000,/map,1.34015094646,18.5262956758,0.2827800587,0.00181666516889,-0.00881997909589,0.715861726185,0.698183999158
1543475370556523000,279,1543475370556523000,/map,1.33765170022,18.5398433868,0.277621216661,0.00183372354964,-0.00871669420661,0.715932007998,0.698113183247
1543475370656612000,280,1543475370656612000,/map,1.33522997309,18.5229178086,0.278377501175,0.00192591535415,-0.00866991987412,0.716031955136,0.698011004615
1543475370756713000,281,1543475370756713000,/map,1.34125080902,18.5309086825,0.298509912065,0.00173985149478,-0.00885625284336,0.715794213082,0.698252951458
1543475370856831000,282,1543475370856831000,/map,1.33363177522,18.542094296,0.279424337326,0.0017921617572,-0.00885167310474,0.716075786748,0.697964113456
1543475370956936000,283,1543475370956936000,/map,1.34311929867,18.5228680614,0.277675216292,0.00180840297841,-0.00876569634149,0.715941012993,0.698103400766
1543475371057065000,284,1543475371057065000,/map,1.33146163218,18.5384646694,0.293493108293,0.00180931212365,-0.00882319551548,0.715935725623,0.698108096492
1543475371157154000,285,1543475371157154000,/map,1.34240276603,18.519436879,0.283547179232,0.00176967114,-0.00882039901469,0.715859472922,0.698186424856
1543475371257277000,286,1543475371257277000,/map,1.32978151703,18.5413156529,0.278259499076,0.00188916235617,-0.00871836076687,0.71594084646,0.698103950441
1543475371357410000,287,1543475371357410000,/map,1.33581609695,18.5253062671,0.28906047742,0.00180388827437,-0.00882505581841,0.715863088949,0.698182570864
1543475371457499000,288,1543475371457499000,/map,1.33857626883,18.5435703221,0.274877604306,0.00189490929157,-0.00874541901349,0.716027851694,0.69801435699
1543475371557610000,289,1543475371557610000,/map,1.33843880579,18.5291110375,0.290742726061,0.0018158552068,-0.00882232766692,0.715882698327,0.698162467797
1543475371657756000,290,1543475371657756000,/map,1.3411985896,18.5391971213,0.276516783659,0.00183516788658,-0.00872497547878,0.715989011615,0.698054612626
1543475371757828000,291,1543475371757828000,/map,1.33092169094,18.5264508365,0.283712809009,0.00189022119012,-0.00875469268711,0.715926979993,0.698117713382
1543475371857917000,292,1543475371857917000,/map,1.3484618033,18.5313034113,0.28551223919,0.00182685428476,-0.00884112546695,0.715876891457,0.69816815552
1543475371958066000,293,1543475371958066000,/map,1.33209259066,18.5353119561,0.286878634763,0.00181887310014,-0.00877549545078,0.716064985118,0.697976088035
1543475372058198000,294,1543475372058198000,/map,1.33081988912,18.5343054864,0.289265185687,0.00184913220818,-0.00875488932821,0.715988171422,0.698055063019
1543475372158291000,295,1543475372158291000,/map,1.34607947809,18.5208078892,0.279750036365,0.00189315681167,-0.00878424175682,0.715846603802,0.698199751417
1543475372258424000,296,1543475372258424000,/map,1.33229948535,18.5443607077,0.28848269943,0.00182722548594,-0.00884765221103,0.715996844203,0.698045055414
1543475372358533000,297,1543475372358533000,/map,1.33365970809,18.5269881355,0.284143910158,0.0018396017615,-0.00878541535736,0.715826826077,0.698220156835
1543475372458677000,298,1543475372458677000,/map,1.34434817444,18.5369291418,0.279008162159,0.00184964927534,-0.00880800431217,0.716104746875,0.697934803088
1543475372558770000,299,1543475372558770000,/map,1.32542697578,18.5423524992,0.289645404572,0.00187516903554,-0.00880783869123,0.71582518163,0.698221465627
1543475372658892000,300,1543475372658892000,/map,1.34566282806,18.5310734828,0.281504121443,0.00178730722142,-0.00879606324667,0.715860190991,0.698185950702
1543475372758996000,301,1543475372758996000,/map,1.3315481769,18.5273825519,0.275592696083,0.00188463564269,-0.0086909900849,0.715973155916,0.698071167466
1543475372859121000,302,1543475372859121000,/map,1.34326934742,18.5367780997,0.296932842717,0.00181203143264,-0.00883410192383,0.715759735048,0.698288390903
1543475372959253000,303,1543475372959253000,/map,1.33049504994,18.5297163454,0.280206994072,0.00177575215067,-0.00884004752834,0.716090556924,0.69794914897
1543475373059367000,304,1543475373059367000,/map,1.33906148173,18.5378889341,0.276341910259,0.00187631864835,-0.00871426236558,0.715708173893,0.698342574159
1543475373159514000,305,1543475373159514000,/map,1.34199546996,18.5293436515,0.29385885624,0.00179699708861,-0.00883599071335,0.716151908416,0.697886194262
1543475373259636000,306,1543475373259636000,/map,1.326653056,18.5414264477,0.276321799779,0.00189429559557,-0.0087492868845,0.715884666119,0.698161160792
1543475373359712000,307,1543475373359712000,/map,1.34061484999,18.5215756025,0.286459424708,0.00180604949297,-0.00879037925902,0.715937823334,0.698106367639
1543475373459881000,308,1543475373459881000,/map,1.33562532149,18.5339530284,0.279804390207,0.00178826634088,-0.00877819394657,0.715868160767,0.698178001525
1543475373559962000,309,1543475373559962000,/map,1.32747105417,18.5453697548,0.287179910391,0.00191106311841,-0.00880710734982,0.71635273766,0.697680111473
1543475373660103000,310,1543475373660103000,/map,1.33792033883,18.522204294,0.282920464557,0.00181837209238,-0.00878375333616,0.715737498989,0.698311801233
1543475373760231000,311,1543475373760231000,/map,1.33108330607,18.5469082567,0.284310542376,0.00187959954353,-0.00880920874268,0.71600030363,0.698041854153
1543475373860378000,312,1543475373860378000,/map,1.34090820627,18.5292082437,0.274903624068,0.00191743141997,-0.00873371677906,0.715944752712,0.698099675341
1543475373960482000,313,1543475373960482000,/map,1.34257207694,18.5308119764,0.292547873798,0.00169937638732,-0.00884596370485,0.715919016574,0.698125219967
1543475374060614000,314,1543475374060614000,/map,1.33738568014,18.5320930102,0.274371784982,0.00188857474403,-0.00876230947571,0.715881181626,0.698164585905
1543475374160709000,315,1543475374160709000,/map,1.3306434502,18.5286852708,0.288339539555,0.00177978649103,-0.00872532145872,0.716001950255,0.698041480398
1543475374260870000,316,1543475374260870000,/map,1.3418913052,18.5431865686,0.287584564112,0.00179544151668,-0.00888033052464,0.715753124084,0.698294623696
1543475374360987000,317,1543475374360987000,/map,1.33035201454,18.527082675,0.279067115547,0.00181342205509,-0.00875267843222,0.715992074523,0.698051181033
1543475374461079000,318,1543475374461079000,/map,1.34463908305,18.5339639056,0.288515412078,0.00174850963213,-0.00881414948685,0.715934454247,0.69810966954
1543475374561242000,319,1543475374561242000,/map,1.34184552024,18.5229056007,0.278284015855,0.00186342510659,-0.0088071797442,0.715903195286,0.698141515891
1543475374661338000,320,1543475374661338000,/map,1.33300036065,18.5408987536,0.285720261019,0.00182184571481,-0.00877887272363,0.715983328046,0.69805980133
1543475374761492000,321,1543475374761492000,/map,1.34772258655,18.5305336192,0.280987279964,0.00178800512762,-0.00877911922338,0.715876198715,0.698169748855
1543475374861621000,322,1543475374861621000,/map,1.33142511359,18.5253552743,0.285366403137,0.00189412096977,-0.00876796771245,0.715995153518,0.698047616705
1543475374961710000,323,1543475374961710000,/map,1.33615614897,18.5362877422,0.275333443584,0.00185036041685,-0.00870118527627,0.715826279696,0.698221743315
1543475375061856000,324,1543475375061856000,/map,1.33342321483,18.5280004753,0.294117885925,0.00175553070996,-0.0088407589553,0.715864079692,0.698181479631
1543475375161976000,325,1543475375161976000,/map,1.34039701011,18.5384720686,0.278753379487,0.00180488447649,-0.00878634761332,0.71604815786,0.697993250764
1543475375262111000,326,1543475375262111000,/map,1.34217379372,18.519669384,0.289071313921,0.00176790191269,-0.00884502509412,0.715840421306,0.698205651136
1543475375362321000,327,1543475375362321000,/map,1.32854679379,18.5405457552,0.281492356938,0.00191129751378,-0.00875864412105,0.715998661227,0.69804408902
1543475375462386000,328,1543475375462386000,/map,1.33605205877,18.5240949214,0.2905456451,0.0017492290296,-0.00879058263982,0.715844887373,0.698201806841
1543475375562516000,329,1543475375562516000,/map,1.33920539091,18.5399453622,0.276089897311,0.00184951426401,-0.00875941337801,0.71596037904,0.698083510491
1543475375662672000,330,1543475375662672000,/map,1.33735778319,18.5235314515,0.289630142433,0.0017662029871,-0.00883964263697,0.715887280003,0.698157678161
1543475375762800000,331,1543475375762800000,/map,1.33258741942,18.5359277557,0.272293165972,0.00190019384434,-0.00877804905628,0.715980618349,0.698062382074
1543475375862957000,332,1543475375862957000,/map,1.34192043481,18.5277913013,0.295170389881,0.00178958138387,-0.00885387336796,0.715800846893,0.698246055421
1543475375963085000,333,1543475375963085000,/map,1.33329275028,18.5316541365,0.270930718605,0.00185664561571,-0.00875124286537,0.716006394774,0.6980363968
1543475376063198000,334,1543475376063198000,/map,1.34061932656,18.536820921,0.297711162466,0.00180913193352,-0.00884625485549,0.715910363112,0.698133814398
1543475376163367000,335,1543475376163367000,/map,1.33931750424,18.52262946,0.276367412282,0.00182141200196,-0.00874966467059,0.715949087788,0.69809528685
1543475376263474000,336,1543475376263474000,/map,1.34076116677,18.5378960293,0.293001576797,0.00177205338587,-0.0088431389553,0.715876428687,0.698168745771
1543475376363577000,337,1543475376363577000,/map,1.33452092167,18.5311260612,0.279248525344,0.00189611960295,-0.00883367399722,0.716112117102,0.697926791773
1543475376463731000,338,1543475376463731000,/map,1.34098031436,18.5299352858,0.290897235365,0.00163841373252,-0.0088219186423,0.715266729656,0.698793957328
1543475376563868000,339,1543475376563868000,/map,1.32526073774,18.5423841365,0.278217361192,0.00191776773814,-0.00886555773214,0.716518426371,0.697509188989
1543475376663993000,340,1543475376663993000,/map,1.34836099826,18.5292477306,0.285623613564,0.00180147960697,-0.00885614076247,0.715881099732,0.698163716108
1543475376764149000,341,1543475376764149000,/map,1.33466967816,18.5343897149,0.289986916084,0.00183779448054,-0.00889985771005,0.715926115774,0.698116904105
1543475376864287000,342,1543475376864287000,/map,1.33195497448,18.5335331097,0.267717670416,0.00185637872731,-0.00863169292454,0.715912965519,0.698133707492
1543475376964394000,343,1543475376964394000,/map,1.33526209394,18.5251859351,0.296077696984,0.001794946198,-0.00883556826981,0.715874493466,0.698170767439
1543475377064535000,344,1543475377064535000,/map,1.32994136985,18.5347604323,0.277218156024,0.00187521148962,-0.00875200420452,0.716027982599,0.698014193366
1543475377164715000,345,1543475377164715000,/map,1.3506409747,18.524202721,0.280971450205,0.00177983326994,-0.00881698931095,0.715884948192,0.698160321019
1543475377264860000,346,1543475377264860000,/map,1.32963627127,18.5341137941,0.289404556575,0.00184799436651,-0.00884020398296,0.715895406769,0.698149126103
1543475377365014000,347,1543475377365014000,/map,1.336148287,18.5380862502,0.279024193468,0.00184000256005,-0.00871134977729,0.716125218691,0.697915036327
1543475377465127000,348,1543475377465127000,/map,1.35087409413,18.5228181178,0.281720027941,0.00179212519727,-0.00879987234086,0.715792860819,0.698254918303
1543475377565285000,349,1543475377565285000,/map,1.33185962405,18.5342743976,0.287554563823,0.00185738945924,-0.00884953947682,0.71593685355,0.698106480048
1543475377665405000,350,1543475377665405000,/map,1.34187701002,18.5277011435,0.274063710219,0.00182594966418,-0.00873710417462,0.716054364018,0.697987447372
1543475377765557000,351,1543475377765557000,/map,1.33484452101,18.5353002125,0.294983490667,0.00181395139946,-0.00879871433364,0.71582038982,0.69822665498
1543475377865710000,352,1543475377865710000,/map,1.33574830713,18.5255126607,0.278188660471,0.00178201483911,-0.00870524112983,0.715961019845,0.698083706487
1543475377965843000,353,1543475377965843000,/map,1.33703810788,18.5392636521,0.286547514336,0.00183448184056,-0.00880813466336,0.715870961021,0.698174633317
1543475378065967000,354,1543475378065967000,/map,1.33305470998,18.5264934154,0.284505491653,0.00190160967169,-0.00884523723174,0.716109169902,0.697929654364
1543475378166117000,355,1543475378166117000,/map,1.34242143298,18.5383845324,0.285002646309,0.00182903179243,-0.00878488004228,0.715757238138,0.698291526927
1543475378266268000,356,1543475378266268000,/map,1.32904942002,18.5297412642,0.275000642577,0.00183064997175,-0.008804359057,0.716057983948,0.697982876299
1543475378366397000,357,1543475378366397000,/map,1.33831309032,18.5378182743,0.296427579275,0.00181740206849,-0.00887068331579,0.715843833628,0.698201700001
1543475378466568000,358,1543475378466568000,/map,1.33331991838,18.52259568,0.274577868993,0.00181957997571,-0.00877401637072,0.715905067558,0.698140129208
1543475378566688000,359,1543475378566688000,/map,1.33873765266,18.5347675297,0.29181572073,0.00179768522713,-0.00878919523111,0.715877277219,0.698168491366
1543475378666809000,360,1543475378666809000,/map,1.34123148786,18.527456262,0.292140392343,0.00179417690471,-0.00901035996375,0.71639649313,0.697632896998
1543475378766960000,361,1543475378766960000,/map,1.33185601864,18.5437471583,0.27667260741,0.00175273608855,-0.0088075506312,0.715691498478,0.698358814632
1543475378867125000,362,1543475378867125000,/map,1.33899272639,18.5360183255,0.291293722405,0.0018352633937,-0.00877024652795,0.716143047736,0.69789601644
1543475378967243000,363,1543475378967243000,/map,1.33447365474,18.5254523098,0.274520263196,0.00181823506335,-0.00874428437141,0.715606098592,0.698446950863
1543475379067373000,364,1543475379067373000,/map,1.34205116307,18.5351336156,0.283666661067,0.00180837969223,-0.00878490668122,0.716081117563,0.69795944599
1543475379167541000,365,1543475379167541000,/map,1.32951807949,18.5254654864,0.284182914882,0.00188218749994,-0.00875634096151,0.71556588016,0.69848783455
1543475379267703000,366,1543475379267703000,/map,1.33377911018,18.5399719839,0.280515990098,0.00180071529928,-0.0087798931865,0.71625957858,0.697776387529
1543475379367846000,367,1543475379367846000,/map,1.34021998111,18.5282942084,0.293682646499,0.00173433289507,-0.00892108655121,0.715742230673,0.698305424249
1543475379467978000,368,1543475379467978000,/map,1.32667074337,18.5419973303,0.27840630014,0.0018286598424,-0.0087947219189,0.715992918875,0.698049746787
1543475379568094000,369,1543475379568094000,/map,1.33385392246,18.5268524428,0.286204208493,0.00183699653191,-0.0087739824337,0.715982602575,0.698060567205
1543475379668259000,370,1543475379668259000,/map,1.3444544994,18.5375838155,0.276867393584,0.0018207378035,-0.0088174137402,0.715883972919,0.698161210213
1543475379768449000,371,1543475379768449000,/map,1.32758514945,18.5259522032,0.293920728835,0.00176412307436,-0.00884231186449,0.715890329021,0.698154523157
1543475379868556000,372,1543475379868556000,/map,1.3391069417,18.5279893993,0.281615006483,0.00182625633787,-0.0088346415893,0.716047525557,0.697993234236
1543475379968707000,373,1543475379968707000,/map,1.3386456562,18.5435765484,0.274675957914,0.001848889459,-0.00876185108997,0.715701389568,0.698349004827
1543475380068863000,374,1543475380068863000,/map,1.33387783366,18.5234352699,0.295023469259,0.00174922350046,-0.00885997061122,0.715919002232,0.698124933935
1543475380169015000,375,1543475380169015000,/map,1.33640097031,18.5427815726,0.277973718915,0.0018583219912,-0.00878483520995,0.716015393557,0.698026739817
1543475380269180000,376,1543475380269180000,/map,1.33854453289,18.5235987977,0.291810988715,0.00177909140482,-0.00886252354183,0.715843050567,0.698202705141
1543475380369333000,377,1543475380369333000,/map,1.33627325366,18.5341584558,0.274126122201,0.0017974701974,-0.00879169953139,0.716013547609,0.698028706258
1543475380469465000,378,1543475380469465000,/map,1.33345948666,18.5314198216,0.293286431686,0.00177114615253,-0.00883475058836,0.715947384452,0.698096091466
1543475380569623000,379,1543475380569623000,/map,1.33727220845,18.5383729006,0.279163776326,0.00185182310938,-0.00887405938185,0.715821897058,0.698224056814
1543475380669759000,380,1543475380669759000,/map,1.34085353703,18.524464817,0.293230133205,0.00178599959031,-0.00887540265668,0.71597131061,0.698070999123
1543475380769900000,381,1543475380769900000,/map,1.33442022091,18.5383932362,0.278790597852,0.00182684881251,-0.00880810700308,0.715862267387,0.698183567556
1543475380870054000,382,1543475380870054000,/map,1.33623538863,18.5241997984,0.284281902462,0.00182911724977,-0.00880519103279,0.715926674293,0.698117554554
