%time,field.header.seq,field.header.stamp,field.header.frame_id,field.pose.position.x,field.pose.position.y,field.pose.position.z,field.pose.orientation.x,field.pose.orientation.y,field.pose.orientation.z,field.pose.orientation.w
1543475342452365000,0,1543475342452365000,/map,1.18093979359,-0.690404176712,1.99869799614,0.00727353164018,-0.00461292167625,-0.00047563413831,0.99996279454
1543475342552612000,1,1543475342552612000,/map,1.1236102581,-0.434784978628,1.99935126305,0.00754356646692,-0.00462631027723,-0.00124082790828,0.999960075305
1543475342652849000,2,1543475342652849000,/map,1.01614093781,-0.169601157308,2.00175142288,0.00769336291642,-0.00459761516001,-0.00141368174582,0.999958836956
1543475342753101000,3,1543475342753101000,/map,0.96190649271,0.177839785814,1.98600161076,0.00793054846097,-0.00421606506134,-0.000102728350907,0.999959659508
1543475342853360000,4,1543475342853360000,/map,1.10264992714,0.513810276985,2.00356936455,0.00779955709536,-0.00438721017051,0.00177809359883,0.999958377973
1543475342953552000,5,1543475342953552000,/map,1.24586617947,1.13469147682,2.00847768784,0.00780284776378,-0.00455605943031,0.00910368211975,0.999917737047
1543475343053827000,6,1543475343053827000,/map,1.31235444546,1.74572205544,2.02828454971,0.00790110603815,-0.00460723706156,0.014956617169,0.999846310936
1543475343154103000,7,1543475343154103000,/map,1.39704012871,2.36212706566,2.03593921661,0.00775318582538,-0.00458536425626,0.0201031833491,0.999757332838
1543475343254353000,8,1543475343254353000,/map,1.48561906815,2.95971798897,2.02469158173,0.00792527403338,-0.0043732674378,0.0248611254139,0.99964993323
1543475343354558000,9,1543475343354558000,/map,1.55492019653,3.55698299408,2.02803301811,0.00797324892119,-0.00415925769386,0.0289889634738,0.999539277804
1543475343454818000,10,1543475343454818000,/map,1.3076210022,4.16453361511,2.05699849129,0.0076396505473,-0.00444332023071,0.0278357296136,0.999573441425
1543475343555096000,11,1543475343555096000,/map,1.24791264534,4.9294257164,2.07578921318,0.00748148758384,-0.00452111544089,0.0166748546113,0.999822752333
1543475343655289000,12,1543475343655289000,/map,1.21769034863,5.85124778748,2.09651660919,0.00735634762548,-0.00456699531941,0.0111418370619,0.999900438129
1543475343755589000,13,1543475343755589000,/map,1.25325250626,7.58123397827,2.11222600937,0.00780446218913,-0.00445405399571,0.0132230276337,0.999872193489
1543475343855821000,14,1543475343855821000,/map,1.29019665718,10.2796697617,2.18526077271,0.00769186886471,-0.00496551915551,0.0141869246693,0.99985744481
1543475344056295000,15,1543475344056295000,/map,1.37091004848,15.6810150146,2.26906371117,0.00734575525651,-0.00515081765164,0.0148309194185,0.999849765108
1543475344156547000,16,1543475344156547000,/map,1.31590342522,18.5025272369,2.28559207916,0.00743397561614,-0.00501374025577,0.0125076819105,0.999881571142
1543475344256839000,17,1543475344256839000,/map,1.34321177006,19.3506069183,2.30191588402,0.00763934225778,-0.00493766890705,0.01334931317,0.999869519344
1543475344357040000,18,1543475344357040000,/map,1.31757032871,18.5112018585,2.28635835648,0.00746733947011,-0.00496033856395,0.0126083179802,0.999880324939
1543475344557556000,19,1543475344557556000,/map,1.31627774239,18.5007381439,2.28219175339,0.00750784220664,-0.00488690532119,0.0126040996067,0.99988043642
1543475344657778000,20,1543475344657778000,/map,1.32013726234,18.504278183,2.28160691261,0.00754560482454,-0.00481822602488,0.0125771239631,0.999880825148
1543475344758061000,21,1543475344758061000,/map,1.32230913639,18.4996871948,2.28731822968,0.0075470776066,-0.00500462563413,0.0126301843059,0.9998792296
1543475344858272000,22,1543475344858272000,/map,1.31918179989,18.5038757324,2.28527331352,0.00752244307855,-0.00497490608554,0.012613026062,0.99987978014
1543475344958529000,23,1543475344958529000,/map,1.31457304955,18.4974269867,2.28719377518,0.00755225692448,-0.00494474107301,0.0125901055924,0.999879993895
1543475345058802000,24,1543475345058802000,/map,1.31478655338,18.50365448,2.28523468971,0.00747398185011,-0.00496541939671,0.0125683738198,0.999880752983
1543475345159055000,25,1543475345159055000,/map,1.32403767109,18.5040931702,2.28622221947,0.00759673008047,-0.00499171605272,0.0126755772356,0.999878343702
1543475345259326000,26,1543475345259326000,/map,1.31686913967,18.5019035339,2.28430390358,0.00748894879318,-0.00496583773146,0.012609318621,0.999880123408
1543475345359559000,27,1543475345359559000,/map,1.32147443295,18.504901886,2.28512907028,0.00755831773152,-0.00491391775649,0.0126091533429,0.999879860032
1543475345459809000,28,1543475345459809000,/map,1.31846547127,18.5001583099,2.28179001808,0.00752499111226,-0.00488358051311,0.0126439768398,0.999879820278
1543475345560047000,29,1543475345560047000,/map,1.31732475758,18.5068836212,2.28365969658,0.00751795720318,-0.00493224162935,0.0126721186045,0.999879278074
1543475345660276000,30,1543475345660276000,/map,1.32211005688,18.5005779266,2.28612422943,0.00753207130404,-0.00493083972444,0.0125939553558,0.999880166325
1543475345760509000,31,1543475345760509000,/map,1.31576049328,18.5027713776,2.28408384323,0.00746421449706,-0.00493309870176,0.0125737238135,0.999880918664
1543475345860783000,32,1543475345860783000,/map,1.31631600857,18.4969406128,2.28752779961,0.00756975824704,-0.0049542490367,0.0125729848548,0.999880029918
1543475345960969000,33,1543475345960969000,/map,1.31682980061,18.5033588409,2.28336215019,0.00756377020696,-0.00492905968171,0.0126540622484,0.999879176931
1543475346060909000,34,1543475346060909000,/map,1.31511604786,18.4979953766,2.28470158577,0.00750359022679,-0.00492259885287,0.0125922409688,0.999880442664
1543475346160694000,35,1543475346160694000,/map,1.32098126411,18.5029640198,2.28459191322,0.00756017310861,-0.00499774361933,0.012606130186,0.999879468648
1543475346260464000,36,1543475346260464000,/map,1.31651353836,18.5030860901,2.28275918961,0.0074533486489,-0.00490072810883,0.0126387332084,0.999880339281
1543475346360261000,37,1543475346360261000,/map,1.3235001564,18.5014076233,2.28630232811,0.00758382797028,-0.00499971315512,0.0125957667191,0.99987941027
1543475346460020000,38,1543475346460020000,/map,1.31697833538,18.5039806366,2.28223705292,0.00746243261008,-0.00492923744718,0.0125855387074,0.999880802363
1543475346559852000,39,1543475346559852000,/map,1.31989634037,18.5042533875,2.28793644905,0.00752588680333,-0.00495280196969,0.0125743650996,0.999880350903
1543475346659629000,40,1543475346659629000,/map,1.31565189362,18.5029506683,2.28054356575,0.00744736149394,-0.00481209091575,0.0126933748738,0.999880122226
1543475346759360000,41,1543475346759360000,/map,1.31987583637,18.4993419647,2.28605985641,0.00758845502972,-0.00499246836011,0.0125643972938,0.999879806042
1543475346859237000,42,1543475346859237000,/map,1.31660115719,18.5045146942,2.28196144104,0.00752545916561,-0.00487273871886,0.0126325317663,0.999880014313
1543475346958952000,43,1543475346958952000,/map,1.31723415852,18.4987754822,2.28517079353,0.00758737307661,-0.0050129256311,0.0126134021879,0.999879094907
1543475347058767000,44,1543475347058767000,/map,1.3160687685,18.5036773682,2.28190135956,0.00753885100432,-0.00484382075372,0.0126871902474,0.999879361888
1543475347158557000,45,1543475347158557000,/map,1.32170343399,18.5003738403,2.28459525108,0.00754516421716,-0.00489061685253,0.0125598858628,0.999880693698
1543475347258381000,46,1543475347258381000,/map,1.31628799438,18.5008220673,2.28731131554,0.00750550830798,-0.00505363159279,0.0126470785409,0.999879082468
1543475347358162000,47,1543475347358162000,/map,1.31869935989,18.5018844604,2.2832608223,0.00761704356986,-0.00487687894309,0.0124931225489,0.99988105222
1543475347457982000,48,1543475347457982000,/map,1.31375026703,18.5048179626,2.2872364521,0.00752098579451,-0.00493535392405,0.0128154237682,0.99987741347
1543475347557789000,49,1543475347557789000,/map,1.31803929806,18.5052528381,2.28357577324,0.00757255779744,-0.00495886620738,0.0125733427311,0.999879981331
1543475347657596000,50,1543475347657596000,/map,1.31272375584,18.5024929047,2.28585767746,0.00752746184279,-0.00493988488892,0.0127090304654,0.999878700343
1543475347757432000,51,1543475347757432000,/map,1.32200372219,18.5000419617,2.28393030167,0.0075465500879,-0.00494775435367,0.0126254962131,0.999879575826
1543475347857209000,52,1543475347857209000,/map,1.31853032112,18.5030956268,2.28308010101,0.00749982912404,-0.00487337913729,0.0126157033997,0.999880416233
1543475347957020000,53,1543475347957020000,/map,1.31570279598,18.5015659332,2.2851126194,0.0074972638327,-0.0049628104748,0.0127254805189,0.999878604478
1543475348056869000,54,1543475348056869000,/map,1.3142131567,18.5012054443,2.28282642365,0.00747357661158,-0.00490926805949,0.0122987896276,0.999884385573
1543475348156677000,55,1543475348156677000,/map,1.31726121902,18.5054931641,2.2893872261,0.00754377603602,-0.00498079461348,0.0128104971337,0.999877079591
1543475348256489000,56,1543475348256489000,/map,1.31578576565,18.4990463257,2.28741669655,0.00752028403481,-0.00497167340369,0.0126653174427,0.999879151461
1543475348356323000,57,1543475348356323000,/map,1.31591928005,18.5022506714,2.28442287445,0.00746144516617,-0.00487683869827,0.0125992544884,0.99988089394
1543475348456199000,58,1543475348456199000,/map,1.32436156273,18.5003471375,2.28148913383,0.00760968490079,-0.00489416739447,0.0126861885667,0.999878592851
1543475348555976000,59,1543475348555976000,/map,1.31349050999,18.5038452148,2.28242778778,0.00749397489873,-0.00494984585898,0.0125957607327,0.999880335929
1543475348655857000,60,1543475348655857000,/map,1.31620943546,18.5036125183,2.28584265709,0.00750809775758,-0.00492185802071,0.0125910629407,0.999880427309
1543475348755674000,61,1543475348755674000,/map,1.31726527214,18.5021762848,2.27954411507,0.00744746849516,-0.00483902799687,0.0125425403515,0.999881894877
1543475348855479000,62,1543475348855479000,/map,1.32128214836,18.5024662018,2.28578138351,0.00755420936067,-0.00491116630177,0.0126273497688,0.999879674963
1543475348955353000,63,1543475348955353000,/map,1.31993114948,18.5011672974,2.28259563446,0.00750653498712,-0.00497036017084,0.0125568185655,0.999880629755
1543475349055165000,64,1543475349055165000,/map,1.31520164013,18.5049037933,2.28877735138,0.00759039412572,-0.00498880998049,0.0125679856426,0.999879764486
1543475349155075000,65,1543475349155075000,/map,1.31852936745,18.5028152466,2.27991843224,0.00745407751763,-0.00483723223239,0.012612852042,0.999880969854
1543475349254937000,66,1543475349254937000,/map,1.32013607025,18.4980964661,2.28665518761,0.00756915574472,-0.00485862305777,0.0125563578314,0.999880712656
1543475349354753000,67,1543475349354753000,/map,1.31448614597,18.5005054474,2.28367233276,0.00749409149409,-0.00498800042677,0.0125766099981,0.999880386509
1543475349454636000,68,1543475349454636000,/map,1.32055044174,18.5078754425,2.28601360321,0.00757525853452,-0.00499959905085,0.0125572177052,0.999879960671
1543475349554496000,69,1543475349554496000,/map,1.31826293468,18.50390625,2.28268742561,0.00746256257616,-0.0048880860085,0.012611894497,0.999880671326
1543475349654311000,70,1543475349654311000,/map,1.3124935627,18.5068969727,2.28462815285,0.00747581105933,-0.00492433143546,0.0123926961695,0.999883135317
1543475349754175000,71,1543475349754175000,/map,1.31998753548,18.5008563995,2.28176164627,0.00753402525996,-0.00489059327939,0.0126081300408,0.999880170629
1543475349854040000,72,1543475349854040000,/map,1.31642591953,18.4993686676,2.28481197357,0.00761393140807,-0.00503696860834,0.0126298966479,0.99987856398
1543475349953863000,73,1543475349953863000,/map,1.3136484623,18.4994659424,2.28633093834,0.00762213018753,-0.00506812552925,0.0125961447306,0.999878769838
1543475350053766000,74,1543475350053766000,/map,1.31814062595,18.5041561127,2.28183627129,0.00747158698827,-0.00492913567611,0.0125436100038,0.999881261379
1543475350153640000,75,1543475350153640000,/map,1.31763505936,18.502412796,2.28812360764,0.00754740741274,-0.00492522136839,0.0125653418854,0.999880438362
1543475350253489000,76,1543475350253489000,/map,1.31283891201,18.4956493378,2.28186321259,0.00751748304496,-0.00495051695783,0.0126100042293,0.999879976609
1543475350353404000,77,1543475350353404000,/map,1.31482088566,18.5030708313,2.28546953201,0.00745950435202,-0.0049658422388,0.0125980675955,0.999880485307
1543475350453254000,78,1543475350453254000,/map,1.31688380241,18.5017948151,2.28380155563,0.00755611067239,-0.00489084953074,0.0126130731229,0.999879940377
1543475350553158000,79,1543475350553158000,/map,1.31848144531,18.5003528595,2.28240251541,0.0075511394024,-0.00489123617987,0.0126189833123,0.999879901469
1543475350653011000,80,1543475350653011000,/map,1.31707143784,18.5068798065,2.28673291206,0.0075068547764,-0.00500649965786,0.0125759386092,0.999880206755
1543475350752890000,81,1543475350752890000,/map,1.31841099262,18.5007209778,2.28278255463,0.00749595703895,-0.00492778234021,0.0125385563844,0.999881149034
1543475350852768000,82,1543475350852768000,/map,1.31963121891,18.5037994385,2.28426885605,0.00753644579375,-0.00498993227887,0.0126289786898,0.999879398457
1543475350952618000,83,1543475350952618000,/map,1.31691455841,18.4984455109,2.2831454277,0.00742585418677,-0.0048174290396,0.012591877955,0.999881539822
1543475351052519000,84,1543475351052519000,/map,1.31992208958,18.5007324219,2.28475904465,0.0075844405037,-0.00498120314884,0.0125510464167,0.999880060363
1543475351152462000,85,1543475351152462000,/map,1.31628715992,18.5064678192,2.28017807007,0.0074271408696,-0.00484075776273,0.0126045440382,0.999881258006
1543475351252313000,86,1543475351252313000,/map,1.32052028179,18.5002117157,2.28548526764,0.00754563480667,-0.00488876245344,0.012600270649,0.999880191111
1543475351352226000,87,1543475351352226000,/map,1.31705057621,18.5040493011,2.28230595589,0.00758125486379,-0.00496180059405,0.0126514561697,0.999878915552
1543475351452112000,88,1543475351452112000,/map,1.32138824463,18.5013065338,2.28515553474,0.00754973226674,-0.0048711261421,0.012557656198,0.999880782365
1543475351552000000,89,1543475351552000000,/map,1.31600177288,18.5059757233,2.28353881836,0.007505984186,-0.00497430122937,0.0126326842647,0.999879658667
1543475351651882000,90,1543475351651882000,/map,1.31841349602,18.5021915436,2.28443241119,0.00744289496049,-0.0048654330599,0.0125900686196,0.999881203468
1543475351751811000,91,1543475351751811000,/map,1.31455898285,18.5057792664,2.28292369843,0.00749694867176,-0.00486607038839,0.0126740084513,0.999879736083
1543475351851700000,92,1543475351851700000,/map,1.31963419914,18.502702713,2.28496789932,0.00755861865508,-0.00497907343162,0.0125107160087,0.999880771941
1543475351951641000,93,1543475351951641000,/map,1.31822812557,18.5018596649,2.27823114395,0.00742200991315,-0.00490940770772,0.0127328499592,0.999879335728
1543475352051507000,94,1543475352051507000,/map,1.31800115108,18.5031204224,2.28848576546,0.00757602738058,-0.00496730466688,0.0124624570745,0.999881301384
1543475352151391000,95,1543475352151391000,/map,1.31767845154,18.5023880005,2.28239059448,0.00752060799387,-0.00486931396,0.0125888808873,0.999880618031
1543475352251339000,96,1543475352251339000,/map,1.31673896313,18.5025234222,2.28780770302,0.00751773040168,-0.00501689437348,0.0126390256562,0.999879277478
1543475352351252000,97,1543475352351252000,/map,1.32023823261,18.501291275,2.283898592,0.00752280038496,-0.00492563902754,0.0124975775172,0.999881471031
1543475352451168000,98,1543475352451168000,/map,1.31531476974,18.505569458,2.28381705284,0.0076054679429,-0.00493123241573,0.0126779537193,0.999878547271
1543475352551093000,99,1543475352551093000,/map,1.31654393673,18.5000801086,2.28366160393,0.00745739943464,-0.00485390118133,0.012596928884,0.999881065037
1543475352651008000,100,1543475352651008000,/map,1.31624948978,18.5039691925,2.28447580338,0.00752668967976,-0.0049564840452,0.0125443788106,0.999880703268
1543475352750929000,101,1543475352750929000,/map,1.31537222862,18.4996871948,2.28012156487,0.00754304336572,-0.00488828040319,0.0125804131868,0.999880463063
1543475352850830000,102,1543475352850830000,/map,1.31646192074,18.500497818,2.28609085083,0.00748180916237,-0.00495717427223,0.0125152207729,0.999881402069
1543475352950729000,103,1543475352950729000,/map,1.31754076481,18.5027828217,2.27804160118,0.00746087021771,-0.00491578902562,0.0125928536263,0.99988078813
1543475353050665000,104,1543475353050665000,/map,1.31755244732,18.5018177032,2.28643083572,0.00758482996115,-0.00488641962712,0.0124993826202,0.999881172286
1543475353150616000,105,1543475353150616000,/map,1.31695711613,18.5011043549,2.27844214439,0.00744089235418,-0.004945553904,0.0126100364932,0.999880573667
1543475353250566000,106,1543475353250566000,/map,1.32376885414,18.5042629242,2.28472709656,0.00753734435836,-0.00491874336602,0.0125421785298,0.999880836981
1543475353350455000,107,1543475353350455000,/map,1.3156003952,18.5015068054,2.28373837471,0.00751810451435,-0.00489747116701,0.0126315357629,0.999879961388
1543475353450370000,108,1543475353450370000,/map,1.3161945343,18.5052585602,2.27895450592,0.00741595240451,-0.00482990934338,0.0125556987112,0.999882008067
1543475353550328000,109,1543475353550328000,/map,1.31876349449,18.5013828278,2.284740448,0.00758990646308,-0.00500164765221,0.0126626692327,0.999878509444
1543475353650263000,110,1543475353650263000,/map,1.31602406502,18.5037574768,2.27920532227,0.00756274046221,-0.00484381318234,0.0125746633522,0.999880603008
1543475353750181000,111,1543475353750181000,/map,1.32152998447,18.4987106323,2.28473758698,0.00754906348101,-0.00497806144618,0.0125766379583,0.999880022164
1543475353850202000,112,1543475353850202000,/map,1.31554710865,18.5010471344,2.28192901611,0.0075390103355,-0.00488394788136,0.0126044092186,0.999880212448
1543475353950047000,113,1543475353950047000,/map,1.3160892725,18.499628067,2.28027534485,0.007535743961,-0.00489692805154,0.0124988983487,0.999881498078
1543475354049970000,114,1543475354049970000,/map,1.31601762772,18.5033569336,2.28636956215,0.00749379616614,-0.00490996784033,0.0126504543108,0.999879843401
1543475354149975000,115,1543475354149975000,/map,1.31527709961,18.501701355,2.27794528008,0.00753132193943,-0.00483843477557,0.0125491908896,0.999881186215
1543475354249894000,116,1543475354249894000,/map,1.31796169281,18.5059452057,2.28424167633,0.0075276473024,-0.0049051523989,0.0125571854703,0.999880788444
1543475354349835000,117,1543475354349835000,/map,1.31719017029,18.4978790283,2.2817928791,0.0075417940569,-0.00493247857546,0.0125841139954,0.999880208861
1543475354449795000,118,1543475354449795000,/map,1.31723606586,18.5030117035,2.27870965004,0.00752243779078,-0.0048301654695,0.0126230438999,0.999880363441
1543475354549762000,119,1543475354549762000,/map,1.32065224648,18.5003147125,2.28394818306,0.00750375288856,-0.00491636489354,0.0126176469697,0.999880151835
1543475354649684000,120,1543475354649684000,/map,1.31513786316,18.5059719086,2.28414988518,0.00751139677125,-0.00494151978252,0.0125400433008,0.999880946721
1543475354749629000,121,1543475354749629000,/map,1.31632268429,18.4993801117,2.28159499168,0.00748755977242,-0.00493875483471,0.012620367761,0.999880128549
1543475354849602000,122,1543475354849602000,/map,1.31962108612,18.5044269562,2.28416585922,0.00753110680553,-0.00489760380606,0.0126159828832,0.999880059249
1543475354949552000,123,1543475354949552000,/map,1.31543910503,18.5030269623,2.28353118896,0.00745969986357,-0.00495848665553,0.012521108717,0.99988148704
1543475355049516000,124,1543475355049516000,/map,1.32264363766,18.4987754822,2.28525614738,0.00753947351939,-0.00502123744043,0.0125980601978,0.999879608949
1543475355149432000,125,1543475355149432000,/map,1.31833279133,18.5061283112,2.28532767296,0.00749233482879,-0.0050381799505,0.0125985617578,0.999879871736
1543475355249406000,126,1543475355249406000,/map,1.31451535225,18.5032157898,2.28000378609,0.00750000451806,-0.00487943770819,0.0125764803354,0.999880879486
1543475355349417000,127,1543475355349417000,/map,1.32233822346,18.5013504028,2.28406834602,0.00751065453387,-0.00497552169127,0.0125682323858,0.999880429745
1543475355449326000,128,1543475355449326000,/map,1.31764125824,18.5044021606,2.28163552284,0.00742824503687,-0.00491504969956,0.0126081630531,0.999880841744
1543475355549359000,129,1543475355549359000,/map,1.32172787189,18.497461319,2.28234100342,0.00754425173956,-0.00490392658389,0.0125989808998,0.999880143542
1543475355649257000,130,1543475355649257000,/map,1.31651318073,18.5058784485,2.27932310104,0.00744879928613,-0.00480333840237,0.0125965063137,0.999881378644
1543475355749234000,131,1543475355749234000,/map,1.31815361977,18.5031929016,2.28354859352,0.00752931425501,-0.00493209077872,0.0126225240551,0.999879820675
1543475355849176000,132,1543475355849176000,/map,1.31315875053,18.5036792755,2.2765378952,0.0075151798549,-0.00476385586189,0.0125912317313,0.999881137252
1543475355949191000,133,1543475355949191000,/map,1.31790614128,18.5000476837,2.28408503532,0.00751525533674,-0.00489341753819,0.0125929828949,0.99988048895
1543475356049149000,134,1543475356049149000,/map,1.31359398365,18.5048732758,2.27954125404,0.00744541239576,-0.00491785361204,0.0126005970385,0.999880795647
1543475356149128000,135,1543475356149128000,/map,1.32074260712,18.5039691925,2.28455376625,0.00749544037983,-0.00493786124019,0.0126060685859,0.999880254298
1543475356249112000,136,1543475356249112000,/map,1.31734859943,18.500497818,2.28386974335,0.00753921309436,-0.00493273437058,0.012551997883,0.999880630749
1543475356349070000,137,1543475356349070000,/map,1.31362831593,18.4986248016,2.2828040123,0.00759724180785,-0.00504023788132,0.0125710910199,0.999879415524
1543475356449055000,138,1543475356449055000,/map,1.31921815872,18.506231308,2.28167128563,0.00749241607532,-0.00494082468813,0.0125802223952,0.999880587849
1543475356549026000,139,1543475356549026000,/map,1.31648433208,18.5030879974,2.28394341469,0.00750283191082,-0.00491753445233,0.0125593611069,0.999880886814
1543475356649005000,140,1543475356649005000,/map,1.32124638557,18.5008792877,2.27998209,0.00750664117022,-0.00483193125271,0.0124683572806,0.99988241451
1543475356749038000,141,1543475356749038000,/map,1.31564891338,18.504699707,2.28292012215,0.0075067889685,-0.0049908914864,0.0126217430025,0.999879708127
1543475356848988000,142,1543475356848988000,/map,1.32178163528,18.503704071,2.28148770332,0.00751664293932,-0.00487473777658,0.0126154263276,0.999880286849
1543475356948943000,143,1543475356948943000,/map,1.31867444515,18.4961643219,2.28298926353,0.00748988881851,-0.00492977002553,0.0125478973178,0.99988106753
1543475357048948000,144,1543475357048948000,/map,1.3200712204,18.4986038208,2.2822239399,0.00749230661755,-0.00495706255424,0.0126215509628,0.99987998746
1543475357148962000,145,1543475357148962000,/map,1.31768763065,18.4964694977,2.27998566628,0.00746980230661,-0.00490933199724,0.0125779263616,0.999880941053
1543475357248889000,146,1543475357248889000,/map,1.31547892094,18.5012187958,2.28548550606,0.00748323752124,-0.00499358378659,0.0126261759289,0.999879815257
1543475357348890000,147,1543475357348890000,/map,1.3191703558,18.5058116913,2.281447649,0.00750687357732,-0.00487028291535,0.0126081880628,0.99988047325
1543475357448964000,148,1543475357448964000,/map,1.31906700134,18.4975681305,2.28581166267,0.00754121787015,-0.00500749032373,0.012570372965,0.9998800132
1543475357548911000,149,1543475357548911000,/map,1.31571280956,18.5005455017,2.28187465668,0.00746673882283,-0.0048529775791,0.0126251758136,0.999880643555
1543475357648884000,150,1543475357648884000,/map,1.3202470541,18.497341156,2.28573179245,0.00752581332765,-0.00497035813316,0.0125361711387,0.999880743932
1543475357748912000,151,1543475357748912000,/map,1.32012343407,18.5051898956,2.28405594826,0.00752368465659,-0.00486974592784,0.01264233192,0.999879918384
1543475357848870000,152,1543475357848870000,/map,1.31214642525,18.501783371,2.28271222115,0.00745986620656,-0.00497224669595,0.0125727461863,0.999880769498
1543475357948859000,153,1543475357948859000,/map,1.32034945488,18.5020160675,2.28443431854,0.00751237641686,-0.00491595992291,0.0126259948482,0.999879983694
1543475358048902000,154,1543475358048902000,/map,1.31923401356,18.5001525879,2.2828347683,0.00754845121299,-0.0048811928583,0.0125104777699,0.999881334352
1543475358148862000,155,1543475358148862000,/map,1.322093606,18.5066947937,2.28591156006,0.00745441719639,-0.00501769831239,0.0126777831337,0.999879256802
1543475358248870000,156,1543475358248870000,/map,1.32122731209,18.50116539,2.28414750099,0.00750325693187,-0.00499840719694,0.0125755497544,0.999880279138
1543475358348934000,157,1543475358348934000,/map,1.32017838955,18.4966602325,2.28170967102,0.00763211180044,-0.00511975528946,0.0125204668114,0.999879381169
1543475358448902000,158,1543475358448902000,/map,1.3160007,18.5077476501,2.28813648224,0.0075030974289,-0.00496059892785,0.0126117361493,0.999880012851
1543475358548907000,159,1543475358548907000,/map,1.3215970993,18.5040798187,2.28301739693,0.00747531784035,-0.00492693107563,0.0126396196848,0.999880035298
1543475358648926000,160,1543475358648926000,/map,1.31792926788,18.4989566803,2.2874174118,0.00752541440775,-0.00504257998411,0.0125402819212,0.999880333767
1543475358748882000,161,1543475358748882000,/map,1.31672048569,18.5069770813,2.28462910652,0.00753045167743,-0.0048881655773,0.0126078916283,0.999880212427
1543475358848901000,162,1543475358848901000,/map,1.31473302841,18.5036315918,2.28133606911,0.00745156031928,-0.0049241318103,0.0126032897307,0.999880685013
1543475358948944000,163,1543475358948944000,/map,1.31931650639,18.5043773651,2.28550124168,0.00752775300229,-0.0049353731166,0.0126304736879,0.999879715847
1543475359048921000,164,1543475359048921000,/map,1.31244778633,18.5059337616,2.28397464752,0.00752158752691,-0.00497282981812,0.0125976188184,0.999879991141
1543475359148918000,165,1543475359148918000,/map,1.31767117977,18.5002403259,2.28252267838,0.00751640855403,-0.00492115604986,0.0126176242673,0.999880033496
1543475359248970000,166,1543475359248970000,/map,1.3164910078,18.507101059,2.27978849411,0.00744704005431,-0.00484680416458,0.0125867778778,0.999881304509
1543475359348980000,167,1543475359348980000,/map,1.31566727161,18.5025444031,2.28572654724,0.00755945752936,-0.00499459529766,0.0125931042154,0.999879653931
1543475359448969000,168,1543475359448969000,/map,1.31727802753,18.5076236725,2.2838408947,0.00752639264504,-0.00490136516658,0.0126120557465,0.999880125857
1543475359549014000,169,1543475359549014000,/map,1.32090568542,18.5000553131,2.28336977959,0.00747293114443,-0.00493592112539,0.0125496007291,0.999881142689
1543475359649016000,170,1543475359649016000,/map,1.3155092001,18.503528595,2.28709602356,0.00748189545811,-0.00493110745151,0.0126485052826,0.999879853149
1543475359749078000,171,1543475359749078000,/map,1.32226288319,18.4998054504,2.28141736984,0.00749947282105,-0.00492062577328,0.0125367421963,0.999881180663
1543475359849071000,172,1543475359849071000,/map,1.31667101383,18.5019702911,2.28725838661,0.00752137249832,-0.00497814533153,0.0125981478987,0.999879959642
1543475359949103000,173,1543475359949103000,/map,1.32383739948,18.4969997406,2.28225302696,0.00749187484473,-0.00488624444717,0.012623085579,0.999880319907
1543475360049127000,174,1543475360049127000,/map,1.3173854351,18.5041656494,2.2869310379,0.00749954380931,-0.00501718599159,0.012632512851,0.999879494892
1543475360149151000,175,1543475360149151000,/map,1.31972765923,18.4987869263,2.28133201599,0.0075463364205,-0.00484137323911,0.0125686088235,0.999880814889
1543475360249160000,176,1543475360249160000,/map,1.32206487656,18.5058269501,2.28284215927,0.00753057318532,-0.00488005388747,0.0126553958735,0.999879651006
1543475360349184000,177,1543475360349184000,/map,1.31500077248,18.5037975311,2.27983617783,0.00746769774042,-0.00489903374774,0.0125661585314,0.999881155247
1543475360449207000,178,1543475360449207000,/map,1.32262587547,18.4993515015,2.28038191795,0.00748732883063,-0.00479783155733,0.0126115476475,0.999880927704
1543475360549213000,179,1543475360549213000,/map,1.31636154652,18.5016536713,2.28593969345,0.00747777136871,-0.00492898509698,0.0126034657232,0.999880463202
1543475360649248000,180,1543475360649248000,/map,1.31911730766,18.4980564117,2.28392720222,0.00751614263497,-0.00493153225024,0.0124794222499,0.99988171881
1543475360749319000,181,1543475360749319000,/map,1.32014942169,18.5078086853,2.2807636261,0.00748040848347,-0.00493484891367,0.0125839557526,0.999880660285
1543475360849325000,182,1543475360849325000,/map,1.32164466381,18.4991703033,2.28369116783,0.00748417580656,-0.00489333229455,0.0125554091149,0.999881194999
1543475360949360000,183,1543475360949360000,/map,1.31664252281,18.5033168793,2.28461575508,0.00752576443833,-0.00500945075587,0.012601355193,0.999879729828
1543475361049370000,184,1543475361049370000,/map,1.31862819195,18.498960495,2.28471088409,0.00749661977338,-0.00489685446982,0.0125588365732,0.999881041491
1543475361149418000,185,1543475361149418000,/map,1.3169311285,18.5037937164,2.28611969948,0.00754936552495,-0.00504711984918,0.0126697385991,0.999878498311
1543475361249464000,186,1543475361249464000,/map,1.31962525845,18.5045032501,2.2788143158,0.00746245549184,-0.00480947531919,0.012641965461,0.999880673588
1543475361349519000,187,1543475361349519000,/map,1.31848037243,18.5032978058,2.28586626053,0.00751673879584,-0.00492350303315,0.0125477696785,0.999880898523
1543475361449565000,188,1543475361449565000,/map,1.315284729,18.5079231262,2.2881925106,0.00748737464131,-0.00506669301884,0.0127455633617,0.999877901775
1543475361549557000,189,1543475361549557000,/map,1.32324576378,18.5014610291,2.28115177155,0.00749709843133,-0.00490074053442,0.0126366870225,0.999880038004
1543475361649594000,190,1543475361649594000,/map,1.31716585159,18.5061817169,2.2830953598,0.00754168393455,-0.00495856776339,0.0126031002475,0.999879841518
1543475361749636000,191,1543475361749636000,/map,1.31891834736,18.5013904572,2.28378629684,0.00754212123721,-0.00491937705451,0.0126090422023,0.999879956891
1543475361849717000,192,1543475361849717000,/map,1.31249010563,18.4962787628,2.28283333778,0.00749867153517,-0.00487901878405,0.012520156022,0.999881598388
1543475361949731000,193,1543475361949731000,/map,1.31772983074,18.4971809387,2.28248929977,0.00751251072093,-0.0048910962684,0.0125773699457,0.999880717448
1543475362049791000,194,1543475362049791000,/map,1.31716930866,18.5073261261,2.27905130386,0.00745945333953,-0.00491348961923,0.0126136539289,0.999880547821
1543475362149848000,195,1543475362149848000,/map,1.31343019009,18.5022277832,2.28052425385,0.00752376583612,-0.00487667484823,0.0126218137755,0.999880143221
1543475362249889000,196,1543475362249889000,/map,1.31859374046,18.5055885315,2.2848944664,0.0075381499298,-0.00495426351543,0.0126089759831,0.999879815424
1543475362349919000,197,1543475362349919000,/map,1.3173905611,18.503200531,2.27904772758,0.00750614487554,-0.00486852734488,0.0126089506534,0.999880477654
1543475362449956000,198,1543475362449956000,/map,1.31577706337,18.5101490021,2.2819879055,0.00749312226412,-0.00494141910264,0.012655276134,0.999879632497
1543475362550010000,199,1543475362550010000,/map,1.31725168228,18.4989376068,2.2850317955,0.0074628490818,-0.00495602451112,0.0125334556272,0.999881321055
1543475362650064000,200,1543475362650064000,/map,1.31795477867,18.5062255859,2.28144431114,0.0074897133425,-0.00490865808595,0.01259013607,0.999880641749
1543475362750134000,201,1543475362750134000,/map,1.31878566742,18.5003833771,2.28170061111,0.00746981886601,-0.00480659953639,0.0125852428237,0.999881347996
1543475362850195000,202,1543475362850195000,/map,1.31934678555,18.5038433075,2.28536295891,0.00750599273857,-0.00496386076685,0.0125653848128,0.999880558499
1543475362950217000,203,1543475362950217000,/map,1.31572985649,18.5092353821,2.28016376495,0.00745640290142,-0.00491516025174,0.01261700723,0.999880520054
1543475363050314000,204,1543475363050314000,/map,1.3149125576,18.5038852692,2.28540945053,0.00753524714265,-0.00489610171951,0.0126259770528,0.99987990926
1543475363150315000,205,1543475363150315000,/map,1.32200157642,18.5008144379,2.28109312057,0.00750511011311,-0.00488434940983,0.0126221621136,0.999880241567
1543475363250386000,206,1543475363250386000,/map,1.31878817081,18.5007820129,2.28329896927,0.0075111185613,-0.00492085349501,0.0125727127998,0.999880640472
1543475363350432000,207,1543475363350432000,/map,1.32550489902,18.4977455139,2.285343647,0.00749345976914,-0.00499022242351,0.0126141481001,0.999879907293
1543475363450478000,208,1543475363450478000,/map,1.32080817223,18.5028743744,2.28636789322,0.00750638852394,-0.00502293489799,0.0125914078543,0.999879933144
1543475363550592000,209,1543475363550592000,/map,1.32280385494,18.5011367798,2.28124928474,0.00753198149567,-0.00490234343437,0.012576684157,0.999880524512
1543475363650588000,210,1543475363650588000,/map,1.32005572319,18.5035400391,2.28675556183,0.00750960685019,-0.00496167861308,0.0125700888279,0.999880483066
1543475363750650000,211,1543475363750650000,/map,1.32277262211,18.4984779358,2.28255939484,0.00753762475302,-0.00485157246741,0.0125485479018,0.999881083131
1543475363850700000,212,1543475363850700000,/map,1.3153629303,18.5044498444,2.28437232971,0.0074894944487,-0.00498770960255,0.0125444599475,0.999880826274
1543475363950791000,213,1543475363950791000,/map,1.32170259953,18.5006256104,2.28308200836,0.00749297008769,-0.00488595349373,0.0125978406941,0.999880631509
1543475364050853000,214,1543475364050853000,/map,1.31839811802,18.5008201599,2.28473782539,0.00754920799045,-0.00500918935978,0.0125921958936,0.999879669802
1543475364150914000,215,1543475364150914000,/map,1.32422888279,18.4982643127,2.28063225746,0.00755841273315,-0.00487106572636,0.0126753189199,0.999879232411
1543475364250987000,216,1543475364250987000,/map,1.31831610203,18.5035877228,2.28696298599,0.00750644212717,-0.00495877516234,0.0126219717147,0.999879867637
1543475364351050000,217,1543475364351050000,/map,1.31940126419,18.4987182617,2.28290009499,0.00748213913656,-0.00493776539743,0.0125616247055,0.999880913735
1543475364451156000,218,1543475364451156000,/map,1.31625294685,18.5055179596,2.28083777428,0.00752165146458,-0.00492041130597,0.0125893741217,0.999880353828
1543475364551177000,219,1543475364551177000,/map,1.31898069382,18.5016822815,2.28625416756,0.00753724866031,-0.00500035453386,0.0125831195481,0.99987991851
1543475364651248000,220,1543475364651248000,/map,1.31750285625,18.5057849884,2.28670597076,0.00749144746163,-0.00502847251678,0.0125680612028,0.999880311096
1543475364751320000,221,1543475364751320000,/map,1.32003307343,18.5011329651,2.28384447098,0.00749541882054,-0.00492755624791,0.0126174823879,0.999880161332
1543475364851398000,222,1543475364851398000,/map,1.31475400925,18.5053291321,2.2850356102,0.00751103087583,-0.00496274043,0.0125511945276,0.999880704454
1543475364951462000,223,1543475364951462000,/map,1.31744933128,18.5008106232,2.28507256508,0.00751873337122,-0.00495296137854,0.0125340420648,0.999880910215
1543475365051543000,224,1543475365051543000,/map,1.31785523891,18.50365448,2.27580833435,0.00748463353399,-0.00478092473684,0.012648161806,0.999880566379
1543475365151615000,225,1543475365151615000,/map,1.31450176239,18.5018215179,2.28466105461,0.00750018290628,-0.00496337255308,0.0125579087415,0.999880698442
1543475365251688000,226,1543475365251688000,/map,1.31578457355,18.5072536469,2.28020977974,0.00746777453655,-0.0048836988134,0.0125632509074,0.999881266229
1543475365351755000,227,1543475365351755000,/map,1.3188688755,18.4985713959,2.2863137722,0.00751964219765,-0.00494177613283,0.0125908198185,0.999880245372
1543475365451875000,228,1543475365451875000,/map,1.31630897522,18.50573349,2.28410720825,0.00754985194564,-0.00494300626044,0.012613351126,0.999879727666
1543475365551917000,229,1543475365551917000,/map,1.32183527946,18.4991836548,2.28154397011,0.0075008695149,-0.00487805683461,0.0125964905604,0.999880627847
1543475365651971000,230,1543475365651971000,/map,1.3156234026,18.4989299774,2.28373122215,0.00755894925761,-0.0049237708948,0.012531671036,0.999880780887
1543475365752015000,231,1543475365752015000,/map,1.31997644901,18.5042953491,2.2830593586,0.00754019933783,-0.00497204570075,0.0126553249759,0.999879126147
1543475365852104000,232,1543475365852104000,/map,1.31505906582,18.5061168671,2.28260064125,0.00750954350342,-0.00493643478515,0.012538801713,0.999881001329
1543475365952204000,233,1543475365952204000,/map,1.31776130199,18.4961776733,2.28565406799,0.00751575507888,-0.00493745169458,0.0125520305684,0.999880783656
1543475366052269000,234,1543475366052269000,/map,1.31629180908,18.504693985,2.28306555748,0.00753571428192,-0.00495944538513,0.0125849481894,0.999880110809
1543475366152367000,235,1543475366152367000,/map,1.32012069225,18.5039176941,2.28740048409,0.00749522321678,-0.00498701119869,0.0125911810235,0.999880199578
1543475366252437000,236,1543475366252437000,/map,1.31602418423,18.506980896,2.28069710732,0.00752586273974,-0.00486692832171,0.0126796342583,0.99987944337
1543475366352521000,237,1543475366352521000,/map,1.32011961937,18.4986457825,2.28097867966,0.00750249580508,-0.00488751319456,0.0125543531568,0.999881099425
1543475366452567000,238,1543475366452567000,/map,1.31437575817,18.5041618347,2.28576207161,0.00752349737352,-0.00495406265395,0.0126102158619,0.999879911143
1543475366552711000,239,1543475366552711000,/map,1.3188791275,18.5010452271,2.2772269249,0.00749513754506,-0.00482415959007,0.0125863143551,0.999881060471
1543475366652754000,240,1543475366652754000,/map,1.31437575817,18.5010814667,2.28795671463,0.00754384395503,-0.00501200850044,0.012598821483,0.999879612697
1543475366752823000,241,1543475366752823000,/map,1.31815493107,18.4980773926,2.2852628231,0.00752131404007,-0.00497087731263,0.012571881006,0.99988032685
1543475366852962000,242,1543475366852962000,/map,1.31678032875,18.5061645508,2.28308868408,0.00751196890621,-0.00498118409684,0.0126167075581,0.999879781183
1543475366953008000,243,1543475366953008000,/map,1.3195745945,18.4998455048,2.28342962265,0.00751412793206,-0.00493626971658,0.0125196405662,0.999881207806
1543475367053107000,244,1543475367053107000,/map,1.31887733936,18.5062046051,2.28282046318,0.00751400133954,-0.00500152276174,0.0125709281646,0.999880240988
1543475367153164000,245,1543475367153164000,/map,1.31800663471,18.4960670471,2.28365731239,0.00749670328005,-0.00491172710173,0.0125388317397,0.999881218983
1543475367253254000,246,1543475367253254000,/map,1.31601583958,18.5038566589,2.28293728828,0.00754042166745,-0.0049928016381,0.0125755771051,0.99988002722
1543475367353369000,247,1543475367353369000,/map,1.31886708736,18.5023536682,2.28419589996,0.00753470858517,-0.00495302525094,0.0125440833087,0.99988066372
1543475367453416000,248,1543475367453416000,/map,1.32334506512,18.4979763031,2.28598189354,0.00753824998874,-0.00493535994887,0.0126751595829,0.999879071358
1543475367553522000,249,1543475367553522000,/map,1.31780052185,18.5031166077,2.284283638,0.00752727007097,-0.00499380936184,0.0125739770014,0.999880141405
1543475367653633000,250,1543475367653633000,/map,1.31395590305,18.5002040863,2.28534507751,0.00747202708724,-0.00502295299931,0.0126913774925,0.999878926516
1543475367753708000,251,1543475367753708000,/map,1.31986713409,18.5057582855,2.28503036499,0.00746531310438,-0.00502630259543,0.0126274135622,0.999879769677
1543475367853802000,252,1543475367853802000,/map,1.31541132927,18.5046596527,2.27947950363,0.00754244992312,-0.00483681721454,0.0125602181201,0.999880971701
1543475367953879000,253,1543475367953879000,/map,1.31806850433,18.4963932037,2.28145098686,0.00751970865101,-0.00484539300457,0.0125919251741,0.999880702668
1543475368053972000,254,1543475368053972000,/map,1.31585645676,18.5026073456,2.28342247009,0.00756184615254,-0.00495159253859,0.0126253882448,0.999879442626
1543475368154075000,255,1543475368154075000,/map,1.32058143616,18.4981651306,2.28012394905,0.0075064013663,-0.00487080001168,0.0126163474408,0.999880371356
1543475368254175000,256,1543475368254175000,/map,1.31677627563,18.5069656372,2.28498768806,0.00757469936999,-0.00501616967203,0.0126190282097,0.999879103741
1543475368354311000,257,1543475368354311000,/map,1.31824493408,18.501039505,2.28290724754,0.00751590571877,-0.00489793846006,0.0126025563946,0.999880341307
1543475368454390000,258,1543475368454390000,/map,1.31732451916,18.5032958984,2.28712916374,0.00755989110599,-0.00510744435781,0.0125890174363,0.999879132045
1543475368554502000,259,1543475368554502000,/map,1.31511604786,18.5030956268,2.280626297,0.00743427934572,-0.00488172879758,0.0126149174398,0.999880874941
1543475368654608000,260,1543475368654608000,/map,1.32070100307,18.4990501404,2.28602552414,0.00751469881384,-0.00498047428929,0.0125219976107,0.999880954791
1543475368754672000,261,1543475368754672000,/map,1.3158929348,18.5026245117,2.27882885933,0.00748969251642,-0.00486620822692,0.0125983411526,0.999880746051
1543475368854722000,262,1543475368854722000,/map,1.3196259737,18.5029449463,2.28625607491,0.00753260550321,-0.00497924596192,0.012615089106,0.999879656004
1543475368954814000,263,1543475368954814000,/map,1.31910169125,18.493927002,2.28605532646,0.00749718557315,-0.00498595805915,0.0125585085095,0.999880601019
1543475369054917000,264,1543475369054917000,/map,1.31769943237,18.5053024292,2.28249788284,0.00754552131039,-0.00495686827639,0.0126009559722,0.999879848019
1543475369155015000,265,1543475369155015000,/map,1.32066512108,18.5004920959,2.2814719677,0.00750744449183,-0.00486953084628,0.012611778472,0.999880427346
1543475369255177000,266,1543475369255177000,/map,1.31796813011,18.5038127899,2.2871363163,0.0074820257009,-0.00500546333973,0.0125063147082,0.999881271312
1543475369355222000,267,1543475369355222000,/map,1.3153783083,18.5032119751,2.27937912941,0.00748833823179,-0.00491530642533,0.0125911342436,0.999880606818
1543475369455365000,268,1543475369455365000,/map,1.31870245934,18.4966201782,2.28496932983,0.00754476664949,-0.00492284551966,0.0125038231287,0.999881241196
1543475369555454000,269,1543475369555454000,/map,1.31638383865,18.5049133301,2.28162813187,0.00749470284791,-0.00490502887398,0.0125796768123,0.999880753816
1543475369655566000,270,1543475369655566000,/map,1.31576526165,18.5033931732,2.28684186935,0.00756900073201,-0.00503415236947,0.0125949593891,0.999879359991
1543475369755661000,271,1543475369755661000,/map,1.32065153122,18.5055446625,2.2817056179,0.00754007130665,-0.00482860895466,0.0125553971882,0.999881089861
1543475369855776000,272,1543475369855776000,/map,1.31532561779,18.5058040619,2.28609609604,0.00754094539104,-0.00500375667166,0.0125698827266,0.99988004011
1543475369955886000,273,1543475369955886000,/map,1.32007277012,18.5003051758,2.28327298164,0.00754970926392,-0.00489416488072,0.0126432499855,0.999879591386
1543475370055959000,274,1543475370055959000,/map,1.31682372093,18.501115799,2.2820687294,0.00747363154724,-0.00491298672185,0.0124603527265,0.999882366583
1543475370156051000,275,1543475370156051000,/map,1.31799352169,18.509552002,2.28472876549,0.00756792149926,-0.00498881485301,0.0129015294974,0.999875686687
1543475370256190000,276,1543475370256190000,/map,1.31828212738,18.5063648224,2.28291201591,0.00749102843315,-0.00491752657383,0.0125808185235,0.9998807056
1543475370356317000,277,1543475370356317000,/map,1.319434762,18.5011024475,2.2826821804,0.00752144262841,-0.00495178849725,0.0125402019495,0.999880818411
1543475370456388000,278,1543475370456388000,/map,1.31916570663,18.5055561066,2.2799975872,0.00746012892138,-0.00486721445233,0.0125704589721,0.999881313087
1543475370556523000,279,1543475370556523000,/map,1.31804728508,18.4990692139,2.27903056145,0.00749197761895,-0.00476937462532,0.0126568861012,0.99988045614
1543475370656612000,280,1543475370656612000,/map,1.31925034523,18.4998703003,2.28860163689,0.00749321003851,-0.00503111366258,0.0125292403428,0.99988077181
1543475370756713000,281,1543475370756713000,/map,1.31672680378,18.5057411194,2.28385019302,0.00752563490973,-0.0049928730959,0.0126680966385,0.999878970358
1543475370856831000,282,1543475370856831000,/map,1.3204202652,18.4993267059,2.28060531616,0.0074771545661,-0.00491934088149,0.0126409860743,0.999880041663
1543475370956936000,283,1543475370956936000,/map,1.3161342144,18.5036506653,2.28688430786,0.00751840360888,-0.00495943524671,0.012623247087,0.999879758392
1543475371057065000,284,1543475371057065000,/map,1.31943500042,18.4965019226,2.28505396843,0.00748862580153,-0.00498514404485,0.0125599503681,0.999880651113
1543475371157154000,285,1543475371157154000,/map,1.31545329094,18.5037670135,2.28150105476,0.0075005268957,-0.00482916613254,0.0125868033284,0.999880989735
1543475371257277000,286,1543475371257277000,/map,1.31562495232,18.4993476868,2.285115242,0.00751600644682,-0.00496440061997,0.0125438583567,0.999880750885
1543475371357410000,287,1543475371357410000,/map,1.31784367561,18.506280899,2.27983736992,0.00752338148649,-0.00484476706326,0.0126410967399,0.999880057625
1543475371457499000,288,1543475371457499000,/map,1.31820476055,18.5025272369,2.28512525558,0.00752260408911,-0.0049539099323,0.0125851880524,0.999880233951
1543475371557610000,289,1543475371557610000,/map,1.32030951977,18.5059204102,2.2806661129,0.00746691662891,-0.00487218615713,0.0126337897512,0.99988044001
1543475371657756000,290,1543475371657756000,/map,1.31613564491,18.5008888245,2.28202819824,0.0075271893109,-0.00485376181792,0.0126133171048,0.999880336165
1543475371757828000,291,1543475371757828000,/map,1.32235825062,18.5008506775,2.28360462189,0.00754362527839,-0.00495949754798,0.0125671981412,0.999880274149
1543475371857917000,292,1543475371857917000,/map,1.31765770912,18.5030822754,2.2850830555,0.00749080099984,-0.00491991071302,0.0126792307157,0.999879452478
1543475371958066000,293,1543475371958066000,/map,1.31473743916,18.5035610199,2.28701472282,0.00749817282899,-0.00488311211938,0.0126800332779,0.999879567436
1543475372058198000,294,1543475372058198000,/map,1.32087886333,18.4968585968,2.28321886063,0.00755055234145,-0.00487197174979,0.0125790002684,0.999880503762
1543475372158291000,295,1543475372158291000,/map,1.31666815281,18.5053901672,2.28568553925,0.00754799122727,-0.00496462787127,0.0126360529597,0.999879347954
1543475372258424000,296,1543475372258424000,/map,1.31563746929,18.5011119843,2.28475570679,0.00751348022445,-0.00491073033364,0.0125431943222,0.999881043234
1543475372358533000,297,1543475372358533000,/map,1.32032310963,18.503780365,2.2817196846,0.00753534819548,-0.00492145012944,0.0126955065812,0.999878903652
1543475372458677000,298,1543475372458677000,/map,1.31330096722,18.5077991486,2.28552126884,0.00755463449725,-0.00490120188975,0.0125715930194,0.999880423234
1543475372558770000,299,1543475372558770000,/map,1.31964719296,18.5044879913,2.28335309029,0.0074837562037,-0.00495566232474,0.0125345610191,0.99988115273
1543475372658892000,300,1543475372658892000,/map,1.31644582748,18.500875473,2.279317379,0.0074778008222,-0.00481327928328,0.0125971259872,0.999881106559
1543475372758996000,301,1543475372758996000,/map,1.31981444359,18.5035419464,2.28795719147,0.00752855310888,-0.00496444406558,0.0124749265182,0.999881518677
1543475372859121000,302,1543475372859121000,/map,1.31529080868,18.501537323,2.28391981125,0.00750562171863,-0.00499653681837,0.0126513406417,0.999879314639
1543475372959253000,303,1543475372959253000,/map,1.31801903248,18.5046539307,2.27997541428,0.0074895739102,-0.00483375871902,0.012465960222,0.999882563552
1543475373059367000,304,1543475373059367000,/map,1.31995439529,18.5017776489,2.28674983978,0.00751753458179,-0.00497901649594,0.012690222533,0.999878819818
1543475373159514000,305,1543475373159514000,/map,1.31406450272,18.5064144135,2.28137731552,0.00752653402386,-0.00484661362258,0.0126117660108,0.999880395337
1543475373259636000,306,1543475373259636000,/map,1.31746840477,18.4989509583,2.28375720978,0.00749281268038,-0.00493865781118,0.012609988494,0.99988022063
1543475373359712000,307,1543475373359712000,/map,1.31684303284,18.5014266968,2.28162193298,0.00747186606219,-0.00494224693207,0.0125594671814,0.999880995517
1543475373459881000,308,1543475373459881000,/map,1.31272888184,18.5079097748,2.28423786163,0.00757732044856,-0.0048786798876,0.0128815929494,0.999876415994
1543475373559962000,309,1543475373559962000,/map,1.31557226181,18.5001010895,2.28342008591,0.0074982138032,-0.00492316884608,0.0126018273455,0.999880359416
1543475373660103000,310,1543475373660103000,/map,1.31376731396,18.5081481934,2.28370189667,0.00755789125478,-0.00490034004483,0.0126501052089,0.999879412622
1543475373760231000,311,1543475373760231000,/map,1.31804966927,18.5035495758,2.27914571762,0.0075315774162,-0.00481971944218,0.0126346017177,0.999880199067
1543475373860378000,312,1543475373860378000,/map,1.31992506981,18.5022850037,2.2856836319,0.00745681083269,-0.00505320978589,0.0126076696202,0.999879946649
1543475373960482000,313,1543475373960482000,/map,1.3195130825,18.5018615723,2.27986955643,0.0075315097968,-0.00486015880567,0.0125681150885,0.99988084175
1543475374060614000,314,1543475374060614000,/map,1.31533825397,18.5004997253,2.28394889832,0.00742790968585,-0.00491172414928,0.0126341202309,0.999880532929
1543475374160709000,315,1543475374160709000,/map,1.318592906,18.5063743591,2.28559660912,0.00754963163939,-0.0050086867578,0.0124889324875,0.999880964257
1543475374260870000,316,1543475374260870000,/map,1.31504762173,18.5018234253,2.28217577934,0.00747088035199,-0.00490752764809,0.0125881219412,0.99988081355
1543475374360987000,317,1543475374360987000,/map,1.31986355782,18.5028343201,2.28518295288,0.00746888632572,-0.00499622399508,0.0125957428493,0.999880293208
1543475374461079000,318,1543475374461079000,/map,1.32139980793,18.4975090027,2.2815721035,0.00754534719293,-0.00490983789335,0.0125776897802,0.999880374319
1543475374561242000,319,1543475374561242000,/map,1.31752955914,18.5041904449,2.28348755836,0.00749560366363,-0.00491972091081,0.0126258666314,0.999880092693
1543475374661338000,320,1543475374661338000,/map,1.32287931442,18.5023422241,2.28207755089,0.00747234627232,-0.0049430700272,0.0125730882402,0.999880816674
1543475374761492000,321,1543475374761492000,/map,1.31778788567,18.4985179901,2.28356099129,0.0075389496788,-0.00486098664894,0.0126320859313,0.999879975523
1543475374861621000,322,1543475374861621000,/map,1.31750452518,18.5025177002,2.27929091454,0.00746151572601,-0.00484357740092,0.0125404224865,0.999881794686
1543475374961710000,323,1543475374961710000,/map,1.3153012991,18.5000839233,2.2865357399,0.00749279729992,-0.00500987994715,0.0125212523797,0.999880981582
1543475375061856000,324,1543475375061856000,/map,1.31831133366,18.5041866302,2.28248476982,0.00748852747592,-0.00493755718888,0.0126442839378,0.999879825063
1543475375161976000,325,1543475375161976000,/map,1.32029175758,18.496761322,2.28561329842,0.00750490858513,-0.00500362850498,0.0125566829871,0.999880477738
1543475375262111000,326,1543475375262111000,/map,1.31525301933,18.5033664703,2.28339505196,0.0075444536214,-0.00484232661573,0.0126267027009,0.999880092547
1543475375362321000,327,1543475375362321000,/map,1.31560897827,18.4988765717,2.28681230545,0.0074531471797,-0.00497842800145,0.0125507904078,0.999881064683
1543475375462386000,328,1543475375462386000,/map,1.31800997257,18.5041904449,2.28129315376,0.00750142539407,-0.00488637318495,0.0125960110243,0.999880589111
1543475375562516000,329,1543475375562516000,/map,1.31763994694,18.4987392426,2.28529644012,0.00749961168519,-0.00500145802606,0.0125659376134,0.999880412076
1543475375662672000,330,1543475375662672000,/map,1.31585490704,18.5020141602,2.27863383293,0.00755040660975,-0.00486376854022,0.012618400291,0.999880048351
1543475375762800000,331,1543475375762800000,/map,1.31882441044,18.4997711182,2.28673601151,0.00752656975956,-0.00499443939203,0.0125153362742,0.999880879246
1543475375862957000,332,1543475375862957000,/map,1.31673443317,18.5006446838,2.27867531776,0.00750044605197,-0.0048759303806,0.0126115323023,0.999880451787
1543475375963085000,333,1543475375963085000,/map,1.31871700287,18.5034694672,2.28802800179,0.00753459759784,-0.00497584414633,0.0125902523866,0.999879970976
1543475376063198000,334,1543475376063198000,/map,1.31956064701,18.4981021881,2.28204298019,0.00747479846031,-0.00489913930243,0.0126078240055,0.999880577167
1543475376163367000,335,1543475376163367000,/map,1.32015073299,18.5027980804,2.28735852242,0.00750628846185,-0.00499969133943,0.0125640449434,0.999880394595
1543475376263474000,336,1543475376263474000,/map,1.31790661812,18.5015068054,2.28313970566,0.00758638688014,-0.00490670981284,0.0127116332689,0.999878385261
1543475376363577000,337,1543475376363577000,/map,1.3191229105,18.5011768341,2.28685879707,0.00739927277953,-0.00507557027625,0.0121798219141,0.999885564096
1543475376463731000,338,1543475376463731000,/map,1.31288337708,18.5059661865,2.28236985207,0.00762186116017,-0.00491763947699,0.0128107285532,0.999876797055
1543475376563868000,339,1543475376563868000,/map,1.32069647312,18.5025787354,2.28383469582,0.00753678051892,-0.004987333978,0.0126693501067,0.999878898171
1543475376663993000,340,1543475376663993000,/map,1.31787860394,18.5030612946,2.28674340248,0.0075928568272,-0.00499334414842,0.0126310078565,0.999878929011
1543475376764149000,341,1543475376764149000,/map,1.31592381001,18.503704071,2.27708315849,0.00741633423821,-0.00479064229646,0.0126026177679,0.99988160387
1543475376864287000,342,1543475376864287000,/map,1.31545352936,18.499080658,2.28641271591,0.00751711380541,-0.00497816244613,0.0125595509878,0.999880477146
1543475376964394000,343,1543475376964394000,/map,1.31339359283,18.5017795563,2.28165841103,0.007514145474,-0.00486329289608,0.0126490188308,0.999879936954
1543475377064535000,344,1543475377064535000,/map,1.3220282793,18.49792099,2.28115177155,0.00749337156618,-0.00497558958191,0.0125907491211,0.999880275797
1543475377164715000,345,1543475377164715000,/map,1.31619858742,18.5006523132,2.28511452675,0.007557801707,-0.00494407978621,0.0125695689124,0.999880213649
1543475377264860000,346,1543475377264860000,/map,1.31681275368,18.5045223236,2.28191566467,0.00746018952095,-0.00485991749195,0.0127236025783,0.999879411085
1543475377365014000,347,1543475377365014000,/map,1.3239364624,18.4985046387,2.28165388107,0.00749046969499,-0.00495402165322,0.0125619324202,0.999880767085
1543475377465127000,348,1543475377465127000,/map,1.31822395325,18.5009632111,2.28443789482,0.00757082747005,-0.00494437245636,0.0125847648179,0.999879922514
1543475377565285000,349,1543475377565285000,/map,1.32057857513,18.4994773865,2.27909469604,0.00746874415436,-0.0048876319431,0.0126804852506,0.999879759875
1543475377665405000,350,1543475377665405000,/map,1.31792366505,18.5021839142,2.2868745327,0.00750487880933,-0.00493807539832,0.0125602957074,0.999880758479
1543475377765557000,351,1543475377765557000,/map,1.31731557846,18.4990749359,2.28237724304,0.00741541396289,-0.00489575727765,0.0126011113141,0.999881120529
1543475377865710000,352,1543475377865710000,/map,1.31743752956,18.5037765503,2.28429675102,0.00752568132756,-0.00493078946354,0.0125567225254,0.999880682959
1543475377965843000,353,1543475377965843000,/map,1.3156619072,18.4996681213,2.28423571587,0.00759843583337,-0.00491101993821,0.0127056689955,0.999878348416
1543475378065967000,354,1543475378065967000,/map,1.31937861443,18.5040779114,2.28446102142,0.00750604420067,-0.00491719163711,0.0125281287934,0.999881256208
1543475378166117000,355,1543475378166117000,/map,1.31451380253,18.5017204285,2.27956843376,0.00751946303502,-0.00493210873876,0.012654476331,0.999879490843
1543475378266268000,356,1543475378266268000,/map,1.31652164459,18.5044517517,2.28783273697,0.00755806429738,-0.00498674655308,0.0125643499005,0.999880065375
1543475378366397000,357,1543475378366397000,/map,1.31541216373,18.4985580444,2.28104972839,0.00749081229758,-0.00491751626227,0.0125634533684,0.999880925613
1543475378466568000,358,1543475378466568000,/map,1.31732463837,18.5015773773,2.28627276421,0.00748615715486,-0.00494358969942,0.0125426278935,0.999881093359
1543475378566688000,359,1543475378566688000,/map,1.31895148754,18.4988002777,2.28903007507,0.0076381049285,-0.00510539043461,0.012904221714,0.99987452983
1543475378666809000,360,1543475378666809000,/map,1.3158506155,18.5065555573,2.28269863129,0.00746887152356,-0.00498607977369,0.0125810802314,0.999880528557
1543475378766960000,361,1543475378766960000,/map,1.317969203,18.5061073303,2.28683614731,0.00749844047209,-0.00490497787188,0.012742039512,0.999878670145
1543475378867125000,362,1543475378867125000,/map,1.31663203239,18.5007781982,2.28051829338,0.00747031980823,-0.0048951825955,0.0124377283008,0.999882760339
1543475378967243000,363,1543475378967243000,/map,1.31958711147,18.5028114319,2.28193020821,0.00748965561388,-0.00493456028471,0.0126256212029,0.999880067239
1543475379067373000,364,1543475379067373000,/map,1.31517148018,18.4989089966,2.28289651871,0.00752391261211,-0.00485869102949,0.0123510517148,0.999883610918
1543475379167541000,365,1543475379167541000,/map,1.31463754177,18.5044403076,2.28154540062,0.00747984566522,-0.00493771326263,0.0127101369941,0.999879054343
1543475379267703000,366,1543475379267703000,/map,1.31717145443,18.5010566711,2.28744506836,0.00753548227855,-0.00508037428821,0.012519207536,0.999880330713
1543475379367846000,367,1543475379367846000,/map,1.31256723404,18.5064334869,2.28276801109,0.00751145300311,-0.00492637834512,0.0126041036113,0.999880215547
1543475379467978000,368,1543475379467978000,/map,1.31363272667,18.501531601,2.28432631493,0.00750292698797,-0.00490544704143,0.0126385393799,0.999879947793
1543475379568094000,369,1543475379568094000,/map,1.31925535202,18.5043487549,2.28043437004,0.00752257195202,-0.00494699745911,0.0125850100161,0.999880270658
1543475379668259000,370,1543475379668259000,/map,1.31348419189,18.5000705719,2.28701376915,0.0074999911612,-0.00500487198755,0.0125628961269,0.999880430366
1543475379768449000,371,1543475379768449000,/map,1.31667542458,18.4987545013,2.28415036201,0.00753788970587,-0.00495644276425,0.0126647165318,0.999879102116
1543475379868556000,372,1543475379868556000,/map,1.31821060181,18.5061073303,2.27925634384,0.0075038933415,-0.00488671811409,0.0124677377651,0.999882176602
1543475379968707000,373,1543475379968707000,/map,1.31589365005,18.4996452332,2.28697395325,0.00750154248786,-0.0050284913293,0.0125244878491,0.999880782063
1543475380068863000,374,1543475380068863000,/map,1.31680345535,18.5059947968,2.28231453896,0.00752537185057,-0.00489851698885,0.0126226062209,0.999880014363
1543475380169015000,375,1543475380169015000,/map,1.31762719154,18.499622345,2.28689694405,0.00752512931612,-0.00500818539919,0.0125476930905,0.999880415803
1543475380269180000,376,1543475380269180000,/map,1.31737196445,18.5018692017,2.28035259247,0.00748725609855,-0.00494629935986,0.0126327731904,0.999879936873
1543475380369333000,377,1543475380369333000,/map,1.31552028656,18.5014953613,2.28665661812,0.00749952524598,-0.00499468699745,0.0126275467688,0.999879670403
1543475380469465000,378,1543475380469465000,/map,1.31671845913,18.5044727325,2.28274440765,0.00758480078387,-0.00496477383798,0.0125354403485,0.999880335117
1543475380569623000,379,1543475380569623000,/map,1.31885302067,18.4993572235,2.28782439232,0.00753844403596,-0.00501342524124,0.0125963718219,0.999879677184
1543475380669759000,380,1543475380669759000,/map,1.31710767746,18.5037517548,2.28314805031,0.00752028697618,-0.00493613308965,0.0125488762595,0.999880795684
1543475380769900000,381,1543475380769900000,/map,1.31700241566,18.4988155365,2.28355336189,0.0075194828863,-0.00493299485969,0.0125709141812,0.999880540392
1543475380870054000,382,1543475380870054000,/map,1.31700265408,18.5035400391,2.28669571877,0.00743868002008,-0.00507309682482,0.0125639468932,0.999880531347
