%time,field.header.seq,field.header.stamp,field.header.frame_id,field.twist.linear.x,field.twist.linear.y,field.twist.linear.z,field.twist.angular.x,field.twist.angular.y,field.twist.angular.z
1543475341951127000,0,1543475341951127000,,1.83637920028e-11,0.0,0.0,0.0,0.0,1.61902341287e-11
1543475357648884000,1,1543475357648884000,,0.000442120894083,0.0,0.0,0.0,0.0,4.07711865316e-05
1543475357748912000,2,1543475357748912000,,0.0532361886572,0.0,0.0,0.0,0.0,-0.00635521117131
1543475357848870000,3,1543475357848870000,,0.0866900475066,0.0,0.0,0.0,0.0,0.00647299403948
1543475357948859000,4,1543475357948859000,,0.0821158823319,0.0,0.0,0.0,0.0,-0.00312733564355
1543475358048902000,5,1543475358048902000,,0.0279315969059,0.0,0.0,0.0,0.0,-0.000791909696573
1543475358148862000,6,1543475358148862000,,0.0797777377063,0.0,0.0,0.0,0.0,0.00053540475231
1543475358248870000,7,1543475358248870000,,0.0571059585932,0.0,0.0,0.0,0.0,-0.00030751166077
1543475358348934000,8,1543475358348934000,,0.0994342584856,0.0,0.0,0.0,0.0,-0.000719749564547
1543475358448902000,9,1543475358448902000,,0.113079997351,0.0,0.0,0.0,0.0,0.000844467572576
1543475358548907000,10,1543475358548907000,,0.0993497064651,0.0,0.0,0.0,0.0,0.000507030095558
1543475358648926000,11,1543475358648926000,,0.0663692275781,0.0,0.0,0.0,0.0,-0.00160128813321
1543475358748882000,12,1543475358748882000,,0.0902763391781,0.0,0.0,0.0,0.0,0.00130534141632
1543475358848901000,13,1543475358848901000,,0.0516142072797,0.0,0.0,0.0,0.0,-0.000190551468249
1543475358948944000,14,1543475358948944000,,0.06079469297,0.0,0.0,0.0,0.0,0.000635534790506
1543475359048921000,15,1543475359048921000,,0.0700218036533,0.0,0.0,0.0,0.0,-0.000792143263736
1543475359148918000,16,1543475359148918000,,0.0822942851233,0.0,0.0,0.0,0.0,0.000426192819308
1543475359248970000,17,1543475359248970000,,0.0735879106637,0.0,0.0,0.0,0.0,-0.000645117277249
1543475359348980000,18,1543475359348980000,,0.0714426319306,0.0,0.0,0.0,0.0,0.000159458504846
1543475359448969000,19,1543475359448969000,,0.0549521303946,0.0,0.0,0.0,0.0,0.000342823597804
1543475359549014000,20,1543475359549014000,,0.0874204649168,0.0,0.0,0.0,0.0,-0.00120459613096
1543475359649016000,21,1543475359649016000,,0.0733807375429,0.0,0.0,0.0,0.0,0.0018923067309
1543475359749078000,22,1543475359749078000,,0.094184180425,0.0,0.0,0.0,0.0,-0.00218076751759
1543475359849071000,23,1543475359849071000,,0.0825923247839,0.0,0.0,0.0,0.0,0.00125022306199
1543475359949103000,24,1543475359949103000,,0.0986993619417,0.0,0.0,0.0,0.0,0.000480469578389
1543475360049127000,25,1543475360049127000,,0.104404574839,0.0,0.0,0.0,0.0,0.00020825663638
1543475360149151000,26,1543475360149151000,,0.0784854513408,0.0,0.0,0.0,0.0,-0.00130023771718
1543475360249160000,27,1543475360249160000,,0.0755226354257,0.0,0.0,0.0,0.0,0.00173008287538
1543475360349184000,28,1543475360349184000,,0.0794309876384,0.0,0.0,0.0,0.0,-0.00175248326656
1543475360449207000,29,1543475360449207000,,0.0851059551064,0.0,0.0,0.0,0.0,0.000879005963522
1543475360549213000,30,1543475360549213000,,0.0830733351919,0.0,0.0,0.0,0.0,-0.00014950611519
1543475360649248000,31,1543475360649248000,,0.0478270918422,0.0,0.0,0.0,0.0,-0.00247434852416
1543475360749319000,32,1543475360749319000,,0.102009057172,0.0,0.0,0.0,0.0,0.00204180079022
1543475360849325000,33,1543475360849325000,,0.0920446751915,0.0,0.0,0.0,0.0,-0.000542647088064
1543475360949360000,34,1543475360949360000,,0.0645476293017,0.0,0.0,0.0,0.0,0.0009589558775
1543475361049370000,35,1543475361049370000,,0.0453764143541,0.0,0.0,0.0,0.0,-0.000807043795645
1543475361149418000,36,1543475361149418000,,0.0550296599874,0.0,0.0,0.0,0.0,0.00246806455862
1543475361249464000,37,1543475361249464000,,0.0716370963326,0.0,0.0,0.0,0.0,-0.000624194073349
1543475361349519000,38,1543475361349519000,,0.0665845514891,0.0,0.0,0.0,0.0,-0.00227518267121
1543475361449565000,39,1543475361449565000,,0.0622921855108,0.0,0.0,0.0,0.0,0.00500810573129
1543475361549557000,40,1543475361549557000,,0.132475148751,0.0,0.0,0.0,0.0,-0.00304413825863
1543475361649594000,41,1543475361649594000,,0.0789446695159,0.0,0.0,0.0,0.0,-0.000797709850606
1543475361749636000,42,1543475361749636000,,0.0517399555577,0.0,0.0,0.0,0.0,0.000231804274884
1543475361849717000,43,1543475361849717000,,0.0846525805765,0.0,0.0,0.0,0.0,-0.00208032935999
1543475361949731000,44,1543475361949731000,,0.0600835378889,0.0,0.0,0.0,0.0,0.00148610069424
1543475362049791000,45,1543475362049791000,,0.102173909214,0.0,0.0,0.0,0.0,0.000685577116551
1543475362149848000,46,1543475362149848000,,0.0651829745998,0.0,0.0,0.0,0.0,0.000124929929888
1543475362249889000,47,1543475362249889000,,0.0764984706523,0.0,0.0,0.0,0.0,-0.000208014773916
1543475362349919000,48,1543475362349919000,,0.065456470937,0.0,0.0,0.0,0.0,-5.70752643699e-05
1543475362449956000,49,1543475362449956000,,0.0755990026837,0.0,0.0,0.0,0.0,0.000956727993305
1543475362550010000,50,1543475362550010000,,0.11678993867,0.0,0.0,0.0,0.0,-0.00245724558574
1543475362650064000,51,1543475362650064000,,0.0820725762835,0.0,0.0,0.0,0.0,0.00109276776017
1543475362750134000,52,1543475362750134000,,0.0600254268311,0.0,0.0,0.0,0.0,-6.7137583227e-05
1543475362850195000,53,1543475362850195000,,0.0530490844692,0.0,0.0,0.0,0.0,-0.000391308210809
1543475362950217000,54,1543475362950217000,,0.0814182834556,0.0,0.0,0.0,0.0,0.00106980854199
1543475363050314000,55,1543475363050314000,,0.0727339682757,0.0,0.0,0.0,0.0,0.000166697948413
1543475363150315000,56,1543475363150315000,,0.0880844553981,0.0,0.0,0.0,0.0,-7.39790315853e-05
1543475363250386000,57,1543475363250386000,,0.037937242136,0.0,0.0,0.0,0.0,-0.00100561891057
1543475363350432000,58,1543475363350432000,,0.0785060978517,0.0,0.0,0.0,0.0,0.000824507806715
1543475363450478000,59,1543475363450478000,,0.07029690417,0.0,0.0,0.0,0.0,-0.000424356460552
1543475363550592000,60,1543475363550592000,,0.0574082128452,0.0,0.0,0.0,0.0,-0.000370740560106
1543475363650588000,61,1543475363650588000,,0.0642553038677,0.0,0.0,0.0,0.0,-1.9318044817e-05
1543475363750650000,62,1543475363750650000,,0.0685191802697,0.0,0.0,0.0,0.0,-0.000534600071408
1543475363850700000,63,1543475363850700000,,0.0885569673436,0.0,0.0,0.0,0.0,-2.0045510288e-05
1543475363950791000,64,1543475363950791000,,0.0717397904472,0.0,0.0,0.0,0.0,0.00104673426534
1543475364050853000,65,1543475364050853000,,0.0327665854694,0.0,0.0,0.0,0.0,-0.000117145326492
1543475364150914000,66,1543475364150914000,,0.0712935656481,0.0,0.0,0.0,0.0,0.00163170436623
1543475364250987000,67,1543475364250987000,,0.0980605326224,0.0,0.0,0.0,0.0,-0.00101362660175
1543475364351050000,68,1543475364351050000,,0.064500696163,0.0,0.0,0.0,0.0,-0.00123192478781
1543475364451156000,69,1543475364451156000,,0.0802103426032,0.0,0.0,0.0,0.0,0.000561072288315
1543475364551177000,70,1543475364551177000,,0.07265461684,0.0,0.0,0.0,0.0,-9.16518574041e-05
1543475364651248000,71,1543475364651248000,,0.0422540811437,0.0,0.0,0.0,0.0,-0.000380943126524
1543475364751320000,72,1543475364751320000,,0.058393536227,0.0,0.0,0.0,0.0,0.00103214944881
1543475364851398000,73,1543475364851398000,,0.0651100047118,0.0,0.0,0.0,0.0,-0.00123406692325
1543475364951462000,74,1543475364951462000,,0.0544062613103,0.0,0.0,0.0,0.0,-0.000422036619215
1543475365051543000,75,1543475365051543000,,0.0954355497019,0.0,0.0,0.0,0.0,0.00221436791947
1543475365151615000,76,1543475365151615000,,0.092807132106,0.0,0.0,0.0,0.0,-0.00183031201895
1543475365251688000,77,1543475365251688000,,0.0707586577209,0.0,0.0,0.0,0.0,0.000184574348493
1543475365351755000,78,1543475365351755000,,0.108889854799,0.0,0.0,0.0,0.0,0.000584174847407
1543475365451875000,79,1543475365451875000,,0.0799243515913,0.0,0.0,0.0,0.0,0.000426926212738
1543475365551917000,80,1543475365551917000,,0.0893001965097,0.0,0.0,0.0,0.0,-0.000347194259175
1543475365651971000,81,1543475365651971000,,0.0638718775874,0.0,0.0,0.0,0.0,-0.00128871465055
1543475365752015000,82,1543475365752015000,,0.0700367626267,0.0,0.0,0.0,0.0,0.00247732832364
1543475365852104000,83,1543475365852104000,,0.0540362343826,0.0,0.0,0.0,0.0,-0.00235886776025
1543475365952204000,84,1543475365952204000,,0.107098235402,0.0,0.0,0.0,0.0,0.00027413170547
1543475366052269000,85,1543475366052269000,,0.0899836161178,0.0,0.0,0.0,0.0,0.000677900149799
1543475366152367000,86,1543475366152367000,,0.0607656629775,0.0,0.0,0.0,0.0,0.000102455412065
1543475366252437000,87,1543475366252437000,,0.0886512741635,0.0,0.0,0.0,0.0,0.00174821106767
1543475366352521000,88,1543475366352521000,,0.0941417373403,0.0,0.0,0.0,0.0,-0.00249715683588
1543475366452567000,89,1543475366452567000,,0.0929139812056,0.0,0.0,0.0,0.0,0.00120576940552
1543475366552711000,90,1543475366552711000,,0.0992660948647,0.0,0.0,0.0,0.0,-0.000545249442829
1543475366652754000,91,1543475366652754000,,0.112787631429,0.0,0.0,0.0,0.0,0.000275932982878
1543475366752823000,92,1543475366752823000,,0.0548205334193,0.0,0.0,0.0,0.0,-0.000556942885356
1543475366852962000,93,1543475366852962000,,0.0844143242549,0.0,0.0,0.0,0.0,0.00091721832116
1543475366953008000,94,1543475366953008000,,0.0681294145629,0.0,0.0,0.0,0.0,-0.00194128684681
1543475367053107000,95,1543475367053107000,,0.0641527179167,0.0,0.0,0.0,0.0,0.00102629769289
1543475367153164000,96,1543475367153164000,,0.103502296317,0.0,0.0,0.0,0.0,-0.000666183248863
1543475367253254000,97,1543475367253254000,,0.0813630639292,0.0,0.0,0.0,0.0,0.000750261622818
1543475367353369000,98,1543475367353369000,,0.0344960235099,0.0,0.0,0.0,0.0,-0.000632151346615
1543475367453416000,99,1543475367453416000,,0.0632979826468,0.0,0.0,0.0,0.0,0.00276101017628
1543475367553522000,100,1543475367553522000,,0.0766316969529,0.0,0.0,0.0,0.0,-0.00215162746587
1543475367653633000,101,1543475367653633000,,0.0572982426304,0.0,0.0,0.0,0.0,0.000886106716448
1543475367753708000,102,1543475367753708000,,0.0754346119029,0.0,0.0,0.0,0.0,0.000603227781307
1543475367853802000,103,1543475367853802000,,0.0714157026106,0.0,0.0,0.0,0.0,-0.00208032651434
1543475367953879000,104,1543475367953879000,,0.0883303767624,0.0,0.0,0.0,0.0,0.000977224405117
1543475368053972000,105,1543475368053972000,,0.0678428604838,0.0,0.0,0.0,0.0,0.000575335327049
1543475368154075000,106,1543475368154075000,,0.0732510433384,0.0,0.0,0.0,0.0,-0.00013952065617
1543475368254175000,107,1543475368254175000,,0.107164743901,0.0,0.0,0.0,0.0,7.97582904772e-05
1543475368354311000,108,1543475368354311000,,0.06424125232,0.0,0.0,0.0,0.0,-0.000360218916119
1543475368454390000,109,1543475368454390000,,0.0493982338935,0.0,0.0,0.0,0.0,-0.000279581856848
1543475368554502000,110,1543475368554502000,,0.0735691790739,0.0,0.0,0.0,0.0,0.00052615803618
1543475368654608000,111,1543475368654608000,,0.0891528062663,0.0,0.0,0.0,0.0,-0.00183879327453
1543475368754672000,112,1543475368754672000,,0.0963389608819,0.0,0.0,0.0,0.0,0.00151554168452
1543475368854722000,113,1543475368854722000,,0.085956837985,0.0,0.0,0.0,0.0,0.000344943454911
1543475368954814000,114,1543475368954814000,,0.0918672125423,0.0,0.0,0.0,0.0,-0.00113668861453
1543475369054917000,115,1543475369054917000,,0.121801405444,0.0,0.0,0.0,0.0,0.000851971340114
1543475369155015000,116,1543475369155015000,,0.0567682202697,0.0,0.0,0.0,0.0,0.00020650639198
1543475369255177000,117,1543475369255177000,,0.0685447627242,0.0,0.0,0.0,0.0,-0.00209465540061
1543475369355222000,118,1543475369355222000,,0.0837402316347,0.0,0.0,0.0,0.0,0.0016311311516
1543475369455365000,119,1543475369455365000,,0.0909171412212,0.0,0.0,0.0,0.0,-0.00166581051545
1543475369555454000,120,1543475369555454000,,0.0898488538508,0.0,0.0,0.0,0.0,0.00145573493376
1543475369655566000,121,1543475369655566000,,0.0527124813354,0.0,0.0,0.0,0.0,0.00031778137868
1543475369755661000,122,1543475369755661000,,0.0694376828739,0.0,0.0,0.0,0.0,-0.000763567981223
1543475369855776000,123,1543475369855776000,,0.0639655339193,0.0,0.0,0.0,0.0,0.000291010243545
1543475369955886000,124,1543475369955886000,,0.0750774756966,0.0,0.0,0.0,0.0,0.00146449675616
1543475370055959000,125,1543475370055959000,,0.0347246404533,0.0,0.0,0.0,0.0,-0.0035925161408
1543475370156051000,126,1543475370156051000,,0.0924022870721,0.0,0.0,0.0,0.0,0.00735012115194
1543475370256190000,127,1543475370256190000,,0.0404637404516,0.0,0.0,0.0,0.0,-0.00545931936409
1543475370356317000,128,1543475370356317000,,0.041698234648,0.0,0.0,0.0,0.0,0.000267601594827
1543475370456388000,129,1543475370456388000,,0.05646751358,0.0,0.0,0.0,0.0,-0.00364813987349
1543475370556523000,130,1543475370556523000,,0.0732541359725,0.0,0.0,0.0,0.0,0.00574481658715
1543475370656612000,131,1543475370656612000,,0.0945539829041,0.0,0.0,0.0,0.0,-0.00311454831049
1543475370756713000,132,1543475370756713000,,0.0789767670502,0.0,0.0,0.0,0.0,0.00366101811434
1543475370856831000,133,1543475370856831000,,0.0800135942994,0.0,0.0,0.0,0.0,-0.00126935059707
1543475370956936000,134,1543475370956936000,,0.0900831977359,0.0,0.0,0.0,0.0,-0.000251540599184
1543475371057065000,135,1543475371057065000,,0.0799018751861,0.0,0.0,0.0,0.0,-0.00136089919906
1543475371157154000,136,1543475371157154000,,0.0952240622635,0.0,0.0,0.0,0.0,0.000583466836358
1543475371257277000,137,1543475371257277000,,0.0579904956491,0.0,0.0,0.0,0.0,-0.00083055930748
1543475371357410000,138,1543475371357410000,,0.0890411017176,0.0,0.0,0.0,0.0,0.00186924917434
1543475371457499000,139,1543475371457499000,,0.0656449245504,0.0,0.0,0.0,0.0,-0.00109289916914
1543475371557610000,140,1543475371557610000,,0.0579152845115,0.0,0.0,0.0,0.0,0.000938531525817
1543475371657756000,141,1543475371657756000,,0.0665253868772,0.0,0.0,0.0,0.0,-0.000431604122359
1543475371757828000,142,1543475371757828000,,0.0683283809313,0.0,0.0,0.0,0.0,-0.00087943072645
1543475371857917000,143,1543475371857917000,,0.0538672906843,0.0,0.0,0.0,0.0,0.00221442409807
1543475371958066000,144,1543475371958066000,,0.0351040901731,0.0,0.0,0.0,0.0,2.79829945208e-05
1543475372058198000,145,1543475372058198000,,0.0960896747713,0.0,0.0,0.0,0.0,-0.00200215759004
1543475372158291000,146,1543475372158291000,,0.0959422386295,0.0,0.0,0.0,0.0,0.00115579794488
1543475372258424000,147,1543475372258424000,,0.04699232971,0.0,0.0,0.0,0.0,-0.00190199140766
1543475372358533000,148,1543475372358533000,,0.0622910587262,0.0,0.0,0.0,0.0,0.00321703967732
1543475372458677000,149,1543475372458677000,,0.0899603487471,0.0,0.0,0.0,0.0,-0.00298058887838
1543475372558770000,150,1543475372558770000,,0.0799307458124,0.0,0.0,0.0,0.0,-0.000480499289221
1543475372658892000,151,1543475372658892000,,0.0617381806008,0.0,0.0,0.0,0.0,0.00131435334309
1543475372758996000,152,1543475372758996000,,0.0979679932142,0.0,0.0,0.0,0.0,-0.00251979541919
1543475372859121000,153,1543475372859121000,,0.0647273680018,0.0,0.0,0.0,0.0,0.00362018904416
1543475372959253000,154,1543475372959253000,,0.0512785511351,0.0,0.0,0.0,0.0,-0.00388437941658
1543475373059367000,155,1543475373059367000,,0.0723389350326,0.0,0.0,0.0,0.0,0.00459825339146
1543475373159514000,156,1543475373159514000,,0.0961625340626,0.0,0.0,0.0,0.0,-0.00152557835724
1543475373259636000,157,1543475373259636000,,0.0879180232784,0.0,0.0,0.0,0.0,-2.27361607698e-05
1543475373359712000,158,1543475373359712000,,0.0314281602197,0.0,0.0,0.0,0.0,-0.00095961809163
1543475373459881000,159,1543475373459881000,,0.0693515115121,0.0,0.0,0.0,0.0,0.00506280211719
1543475373559962000,160,1543475373559962000,,0.0884436132754,0.0,0.0,0.0,0.0,-0.00489928548412
1543475373660103000,161,1543475373660103000,,0.0924577983599,0.0,0.0,0.0,0.0,0.00144409028328
1543475373760231000,162,1543475373760231000,,0.073667944857,0.0,0.0,0.0,0.0,-3.78516837361e-05
1543475373860378000,163,1543475373860378000,,0.0708910252735,0.0,0.0,0.0,0.0,-0.000815897456708
1543475373960482000,164,1543475373960482000,,0.0581482381765,0.0,0.0,0.0,0.0,-0.000633147163843
1543475374060614000,165,1543475374060614000,,0.0583714474489,0.0,0.0,0.0,0.0,0.00122386394864
1543475374160709000,166,1543475374160709000,,0.0768730563325,0.0,0.0,0.0,0.0,-0.00262499294231
1543475374260870000,167,1543475374260870000,,0.0697604557357,0.0,0.0,0.0,0.0,0.00182576849302
1543475374360987000,168,1543475374360987000,,0.0629836738665,0.0,0.0,0.0,0.0,0.000145846020778
1543475374461079000,169,1543475374461079000,,0.0594497126991,0.0,0.0,0.0,0.0,-0.000358285872685
1543475374561242000,170,1543475374561242000,,0.0754200132452,0.0,0.0,0.0,0.0,0.000940652527823
1543475374661338000,171,1543475374661338000,,0.0603311595798,0.0,0.0,0.0,0.0,-0.00104144053866
1543475374761492000,172,1543475374761492000,,0.0648427026826,0.0,0.0,0.0,0.0,0.00118904749966
1543475374861621000,173,1543475374861621000,,0.0548052231903,0.0,0.0,0.0,0.0,-0.0018854343125
1543475374961710000,174,1543475374961710000,,0.0782075357483,0.0,0.0,0.0,0.0,-0.000327935337099
1543475375061856000,175,1543475375061856000,,0.0626564832293,0.0,0.0,0.0,0.0,0.00241653850442
1543475375161976000,176,1543475375161976000,,0.0836177031367,0.0,0.0,0.0,0.0,-0.00174167797223
1543475375262111000,177,1543475375262111000,,0.0905766669376,0.0,0.0,0.0,0.0,0.00142588110762
1543475375362321000,178,1543475375362321000,,0.0599623916055,0.0,0.0,0.0,0.0,-0.00151637853553
1543475375462386000,179,1543475375462386000,,0.0805295061699,0.0,0.0,0.0,0.0,0.000873651216125
1543475375562516000,180,1543475375562516000,,0.06757604591,0.0,0.0,0.0,0.0,-0.000557747512811
1543475375662672000,181,1543475375662672000,,0.0787439775607,0.0,0.0,0.0,0.0,0.00102211857597
1543475375762800000,182,1543475375762800000,,0.0915293144455,0.0,0.0,0.0,0.0,-0.00199513629742
1543475375862957000,183,1543475375862957000,,0.0848376116865,0.0,0.0,0.0,0.0,0.00180541334742
1543475375963085000,184,1543475375963085000,,0.0999122694525,0.0,0.0,0.0,0.0,-0.000305833685558
1543475376063198000,185,1543475376063198000,,0.0815189003837,0.0,0.0,0.0,0.0,0.000236697785167
1543475376163367000,186,1543475376163367000,,0.0713764553756,0.0,0.0,0.0,0.0,-0.000782229260406
1543475376263474000,187,1543475376263474000,,0.0499996890296,0.0,0.0,0.0,0.0,0.00286881891134
1543475376363577000,188,1543475376363577000,,0.0509830380776,0.0,0.0,0.0,0.0,-0.0120152562658
1543475376463731000,189,1543475376463731000,,0.106044880698,0.0,0.0,0.0,0.0,0.0139170036643
1543475376563868000,190,1543475376563868000,,0.0881196139255,0.0,0.0,0.0,0.0,-0.0029423372383
1543475376663993000,191,1543475376663993000,,0.0411495230564,0.0,0.0,0.0,0.0,-0.000441768411774
1543475376764149000,192,1543475376764149000,,0.100768786745,0.0,0.0,0.0,0.0,-0.000789125235902
1543475376864287000,193,1543475376864287000,,0.10305614897,0.0,0.0,0.0,0.0,-0.000662358573172
1543475376964394000,194,1543475376964394000,,0.0587590067238,0.0,0.0,0.0,0.0,0.00163341083163
1543475377064535000,195,1543475377064535000,,0.0996648728597,0.0,0.0,0.0,0.0,-0.0011620213031
1543475377164715000,196,1543475377164715000,,0.0793391999583,0.0,0.0,0.0,0.0,-0.000334836113098
1543475377264860000,197,1543475377264860000,,0.0429947757161,0.0,0.0,0.0,0.0,0.00276143457556
1543475377365014000,198,1543475377365014000,,0.0918082289062,0.0,0.0,0.0,0.0,-0.00327057079199
1543475377465127000,199,1543475377465127000,,0.0700604521865,0.0,0.0,0.0,0.0,0.0009489068978
1543475377565285000,200,1543475377565285000,,0.0609636009961,0.0,0.0,0.0,0.0,0.00162272490634
1543475377665405000,201,1543475377665405000,,0.0844261726659,0.0,0.0,0.0,0.0,-0.00205705798177
1543475377765557000,202,1543475377765557000,,0.0607178021949,0.0,0.0,0.0,0.0,0.000561194195276
1543475377865710000,203,1543475377865710000,,0.0561796097372,0.0,0.0,0.0,0.0,-0.000548331537752
1543475377965843000,204,1543475377965843000,,0.0431631962532,0.0,0.0,0.0,0.0,0.00214038697504
1543475378065967000,205,1543475378065967000,,0.0540600320246,0.0,0.0,0.0,0.0,-0.00302813723328
1543475378166117000,206,1543475378166117000,,0.0722113391546,0.0,0.0,0.0,0.0,0.00227555633841
1543475378266268000,207,1543475378266268000,,0.0878173307962,0.0,0.0,0.0,0.0,-0.00153587298665
1543475378366397000,208,1543475378366397000,,0.093957653128,0.0,0.0,0.0,0.0,-6.50700410948e-05
1543475378466568000,209,1543475378466568000,,0.0630869053046,0.0,0.0,0.0,0.0,-0.000324188195169
1543475378566688000,210,1543475378566688000,,0.0313227763857,0.0,0.0,0.0,0.0,0.00786131294219
1543475378666809000,211,1543475378666809000,,0.0982028695265,0.0,0.0,0.0,0.0,-0.007877823589
1543475378766960000,212,1543475378766960000,,0.0504932636112,0.0,0.0,0.0,0.0,0.00457982539623
1543475378867125000,213,1543475378867125000,,0.0852452599306,0.0,0.0,0.0,0.0,-0.00715875729199
1543475378967243000,214,1543475378967243000,,0.0343854477538,0.0,0.0,0.0,0.0,0.0055778779889
1543475379067373000,215,1543475379067373000,,0.0446642945693,0.0,0.0,0.0,0.0,-0.00392715822599
1543475379167541000,216,1543475379167541000,,0.0725201732941,0.0,0.0,0.0,0.0,0.00200871052428
1543475379267703000,217,1543475379267703000,,0.0747556093704,0.0,0.0,0.0,0.0,-0.000763118034786
1543475379367846000,218,1543475379367846000,,0.0852822369208,0.0,0.0,0.0,0.0,0.000643471112444
1543475379467978000,219,1543475379467978000,,0.049750068924,0.0,0.0,0.0,0.0,0.00121769577165
1543475379568094000,220,1543475379568094000,,0.0720630697137,0.0,0.0,0.0,0.0,-0.00216052376099
1543475379668259000,221,1543475379668259000,,0.0997794519246,0.0,0.0,0.0,0.0,3.28029086082e-05
1543475379768449000,222,1543475379768449000,,0.0426549354156,0.0,0.0,0.0,0.0,0.00232711446831
1543475379868556000,223,1543475379868556000,,0.0851402462732,0.0,0.0,0.0,0.0,-0.00289139130669
1543475379968707000,224,1543475379968707000,,0.100360623266,0.0,0.0,0.0,0.0,0.000362866610021
1543475380068863000,225,1543475380068863000,,0.0835507396457,0.0,0.0,0.0,0.0,0.00171924206924
1543475380169015000,226,1543475380169015000,,0.079646254718,0.0,0.0,0.0,0.0,-0.00133058541091
1543475380269180000,227,1543475380269180000,,0.0704860678167,0.0,0.0,0.0,0.0,0.00171350747688
1543475380369333000,228,1543475380369333000,,0.0668689089641,0.0,0.0,0.0,0.0,-0.00038133992949
1543475380469465000,229,1543475380469465000,,0.0563083953049,0.0,0.0,0.0,0.0,-0.00145018582184
1543475380569623000,230,1543475380569623000,,0.0783762990467,0.0,0.0,0.0,0.0,0.000653747162277
1543475380669759000,231,1543475380669759000,,0.0626878483065,0.0,0.0,0.0,0.0,-0.000491683973007
1543475380769900000,232,1543475380769900000,,0.0501711254592,0.0,0.0,0.0,0.0,0.000223913123983
1543475380870054000,233,1543475380870054000,,0.0547868073327,0.0,0.0,0.0,0.0,0.000108264293874
1543475380970180000,234,1543475380970180000,,0.084234233985,0.0,0.0,0.0,0.0,0.00121636554411
1543475381070331000,235,1543475381070331000,,0.0963907800865,0.0,0.0,0.0,0.0,-0.000445968245841
1543475381170497000,236,1543475381170497000,,0.0579591268153,0.0,0.0,0.0,0.0,-0.00028011154072
1543475381270636000,237,1543475381270636000,,0.0809959390294,0.0,0.0,0.0,0.0,0.000423499236152
1543475381370793000,238,1543475381370793000,,0.0674092131264,0.0,0.0,0.0,0.0,-0.000491772085132
1543475381470957000,239,1543475381470957000,,0.0478850830289,0.0,0.0,0.0,0.0,0.000136057386925
1543475381571129000,240,1543475381571129000,,0.0625506456512,0.0,0.0,0.0,0.0,0.000149139906362
1543475381671243000,241,1543475381671243000,,0.0731966151326,0.0,0.0,0.0,0.0,0.000248930453355
1543475381771436000,242,1543475381771436000,,0.0724928976749,0.0,0.0,0.0,0.0,-0.00032434834723
1543475381871543000,243,1543475381871543000,,0.0656004006832,0.0,0.0,0.0,0.0,0.000194163064299
1543475381971704000,244,1543475381971704000,,0.0702665642408,0.0,0.0,0.0,0.0,0.000111884959358
1543475382071855000,245,1543475382071855000,,0.0896132776907,0.0,0.0,0.0,0.0,-2.96553165124e-05
1543475382172006000,246,1543475382172006000,,0.0651597081677,0.0,0.0,0.0,0.0,-0.000318973465836
1543475382272179000,247,1543475382272179000,,0.0623214518032,0.0,0.0,0.0,0.0,-0.000336562009988
1543475382372364000,248,1543475382372364000,,0.0810531660956,0.0,0.0,0.0,0.0,-0.000894379292788
1543475382472505000,249,1543475382472505000,,0.0456341795911,0.0,0.0,0.0,0.0,0.000926365687015
1543475382572650000,250,1543475382572650000,,0.0571097561121,0.0,0.0,0.0,0.0,-9.27401782088e-05
1543475382672799000,251,1543475382672799000,,0.0810967250177,0.0,0.0,0.0,0.0,0.000305595951468
1543475382772980000,252,1543475382772980000,,0.0879830651581,0.0,0.0,0.0,0.0,-0.000120781713566
1543475382873116000,253,1543475382873116000,,0.0753243070226,0.0,0.0,0.0,0.0,0.000443048464118
1543475382973286000,254,1543475382973286000,,0.0581757676579,0.0,0.0,0.0,0.0,-0.000799890022336
1543475383073434000,255,1543475383073434000,,0.0661589279259,0.0,0.0,0.0,0.0,-1.10893710616e-05
1543475383173590000,256,1543475383173590000,,0.0416502114864,0.0,0.0,0.0,0.0,0.00112987220127
1543475383273766000,257,1543475383273766000,,0.0629363515301,0.0,0.0,0.0,0.0,-0.00124244234128
1543475383373920000,258,1543475383373920000,,0.0774545211877,0.0,0.0,0.0,0.0,0.000634471410525
1543475383474041000,259,1543475383474041000,,0.0664094442281,0.0,0.0,0.0,0.0,-0.000682858387825
1543475383574227000,260,1543475383574227000,,0.0667194670837,0.0,0.0,0.0,0.0,0.00297324533497
1543475383674386000,261,1543475383674386000,,0.113475090115,0.0,0.0,0.0,0.0,-0.0022967753275
1543475383774522000,262,1543475383774522000,,0.0634898231073,0.0,0.0,0.0,0.0,0.00029651764883
1543475383874688000,263,1543475383874688000,,0.0585113956838,0.0,0.0,0.0,0.0,-0.000637685391926
1543475383974849000,264,1543475383974849000,,0.0695581284588,0.0,0.0,0.0,0.0,-0.000474528684251
1543475384075064000,265,1543475384075064000,,0.0585024660391,0.0,0.0,0.0,0.0,0.000648675217045
1543475384175162000,266,1543475384175162000,,0.0377298498307,0.0,0.0,0.0,0.0,2.13352278516e-05
1543475384275334000,267,1543475384275334000,,0.0574943631678,0.0,0.0,0.0,0.0,-0.000520040274738
1543475384375485000,268,1543475384375485000,,0.0824363872524,0.0,0.0,0.0,0.0,0.000879534089415
1543475384475672000,269,1543475384475672000,,0.0872299153097,0.0,0.0,0.0,0.0,-0.000510661639828
1543475384575796000,270,1543475384575796000,,0.0479607666818,0.0,0.0,0.0,0.0,-0.000440023072952
1543475384675977000,271,1543475384675977000,,0.0603068550381,0.0,0.0,0.0,0.0,0.00398158859079
1543475384776107000,272,1543475384776107000,,0.0527586180494,0.0,0.0,0.0,0.0,-0.0059590496391
1543475384876261000,273,1543475384876261000,,0.0464445749179,0.0,0.0,0.0,0.0,0.00692850344605
1543475384976428000,274,1543475384976428000,,0.087964630365,0.0,0.0,0.0,0.0,-0.00482999862177
1543475385076592000,275,1543475385076592000,,0.0406838845303,0.0,0.0,0.0,0.0,0.00275556671927
1543475385176802000,276,1543475385176802000,,0.10991557559,0.0,0.0,0.0,0.0,-0.0035355491279
1543475385276946000,277,1543475385276946000,,0.0788142667156,0.0,0.0,0.0,0.0,0.00091493666864
1543475385377093000,278,1543475385377093000,,0.0679550776737,0.0,0.0,0.0,0.0,0.0011298231641
1543475385477255000,279,1543475385477255000,,0.0858229590911,0.0,0.0,0.0,0.0,-0.000757434943186
1543475385577426000,280,1543475385577426000,,0.0935270088898,0.0,0.0,0.0,0.0,-0.000198401067587
1543475385677551000,281,1543475385677551000,,0.0639318051777,0.0,0.0,0.0,0.0,0.000679494374049
1543475385777728000,282,1543475385777728000,,0.0830477227855,0.0,0.0,0.0,0.0,-0.00106292549299
1543475385877895000,283,1543475385877895000,,0.0774737657979,0.0,0.0,0.0,0.0,0.00104668211922
1543475385978099000,284,1543475385978099000,,0.0524769060626,0.0,0.0,0.0,0.0,0.000129609219823
1543475386078222000,285,1543475386078222000,,0.0575195196952,0.0,0.0,0.0,0.0,0.000386862671702
1543475386178416000,286,1543475386178416000,,0.0727169806835,0.0,0.0,0.0,0.0,-0.00132704867738
1543475386278561000,287,1543475386278561000,,0.0530709436397,0.0,0.0,0.0,0.0,0.00120288660047
1543475386378741000,288,1543475386378741000,,0.0761160634949,0.0,0.0,0.0,0.0,-0.00173162356638
1543475386478909000,289,1543475386478909000,,0.0825747411504,0.0,0.0,0.0,0.0,0.00100591386027
1543475386579031000,290,1543475386579031000,,0.0986631624921,0.0,0.0,0.0,0.0,-0.000228610324718
1543475386679210000,291,1543475386679210000,,0.069891038105,0.0,0.0,0.0,0.0,-9.92709580643e-05
1543475386779388000,292,1543475386779388000,,0.0874840983608,0.0,0.0,0.0,0.0,0.000228902282571
1543475386879575000,293,1543475386879575000,,0.0728862538222,0.0,0.0,0.0,0.0,0.0010779651578
1543475386979747000,294,1543475386979747000,,0.0438482198656,0.0,0.0,0.0,0.0,-0.00325441395055
1543475387079914000,295,1543475387079914000,,0.0698767442997,0.0,0.0,0.0,0.0,0.00280711667401
1543475387180041000,296,1543475387180041000,,0.0956613587583,0.0,0.0,0.0,0.0,-0.00124352319501
1543475387280185000,297,1543475387280185000,,0.0642685434819,0.0,0.0,0.0,0.0,-0.000982231881879
1543475387380389000,298,1543475387380389000,,0.069624777429,0.0,0.0,0.0,0.0,0.00132919087346
1543475387480504000,299,1543475387480504000,,0.0945463652532,0.0,0.0,0.0,0.0,0.000496371813651
1543475387580729000,300,1543475387580729000,,0.0577687543241,0.0,0.0,0.0,0.0,-0.000440411318079
1543475387680908000,301,1543475387680908000,,0.0773862352273,0.0,0.0,0.0,0.0,0.00127829619309
1543475387781033000,302,1543475387781033000,,0.0874553347505,0.0,0.0,0.0,0.0,-0.00067975680601
1543475387881170000,303,1543475387881170000,,0.0633703921175,0.0,0.0,0.0,0.0,0.000450943648973
1543475387981348000,304,1543475387981348000,,0.0465005799585,0.0,0.0,0.0,0.0,-0.0009303925204
1543475388081549000,305,1543475388081549000,,0.0716096250061,0.0,0.0,0.0,0.0,0.00138706251295
1543475388181707000,306,1543475388181707000,,0.0901276195595,0.0,0.0,0.0,0.0,-0.000212941464005
1543475388281877000,307,1543475388281877000,,0.056055085549,0.0,0.0,0.0,0.0,-0.00110634934109
1543475388382042000,308,1543475388382042000,,0.0605408907591,0.0,0.0,0.0,0.0,-0.000334432541195
1543475388482259000,309,1543475388482259000,,0.0754990542276,0.0,0.0,0.0,0.0,0.00103408120619
1543475388582391000,310,1543475388582391000,,0.0632469662595,0.0,0.0,0.0,0.0,6.94329420942e-05
1543475388682521000,311,1543475388682521000,,0.0544703385732,0.0,0.0,0.0,0.0,0.000472923620562
1543475388782726000,312,1543475388782726000,,0.077901664419,0.0,0.0,0.0,0.0,-0.00142458415371
1543475388882894000,313,1543475388882894000,,0.0657838091591,0.0,0.0,0.0,0.0,0.00059585302695
1543475388983042000,314,1543475388983042000,,0.0595571054322,0.0,0.0,0.0,0.0,-0.000644623856668
1543475389083190000,315,1543475389083190000,,0.063966352121,0.0,0.0,0.0,0.0,0.00042112739133
1543475389183402000,316,1543475389183402000,,0.0478328789859,0.0,0.0,0.0,0.0,0.000195851414015
1543475389283532000,317,1543475389283532000,,0.0666545964771,0.0,0.0,0.0,0.0,-0.000542158332104
1543475389383729000,318,1543475389383729000,,0.0481677869262,0.0,0.0,0.0,0.0,9.57524061382e-05
1543475389483904000,319,1543475389483904000,,0.0579684096354,0.0,0.0,0.0,0.0,-0.000447077082444
1543475389584040000,320,1543475389584040000,,0.0583242560903,0.0,0.0,0.0,0.0,0.000171541831409
1543475389684225000,321,1543475389684225000,,0.0895001361362,0.0,0.0,0.0,0.0,6.61218332648e-05
1543475389784403000,322,1543475389784403000,,0.0833098459672,0.0,0.0,0.0,0.0,0.000155058642836
1543475389884570000,323,1543475389884570000,,0.0702998778117,0.0,0.0,0.0,0.0,-0.00060134781975
1543475389984767000,324,1543475389984767000,,0.0706690987399,0.0,0.0,0.0,0.0,0.000336328201372
1543475390084885000,325,1543475390084885000,,0.0452310076883,0.0,0.0,0.0,0.0,0.000898443243727
1543475390185095000,326,1543475390185095000,,0.0775326168662,0.0,0.0,0.0,0.0,-0.00120771096133
1543475390285264000,327,1543475390285264000,,0.0638981696101,0.0,0.0,0.0,0.0,0.00107558382296
1543475390385424000,328,1543475390385424000,,0.0478074646334,0.0,0.0,0.0,0.0,0.000809810594008
1543475390485565000,329,1543475390485565000,,0.0766471524486,0.0,0.0,0.0,0.0,-0.00109384194995
1543475390585779000,330,1543475390585779000,,0.0904106006041,0.0,0.0,0.0,0.0,0.000126163145734
1543475390685960000,331,1543475390685960000,,0.0666654300666,0.0,0.0,0.0,0.0,-0.000447960405973
1543475390786103000,332,1543475390786103000,,0.0416602438423,0.0,0.0,0.0,0.0,-0.000213800373937
1543475390886319000,333,1543475390886319000,,0.0588641572799,0.0,0.0,0.0,0.0,0.00438010777159
1543475390986459000,334,1543475390986459000,,0.0736100405105,0.0,0.0,0.0,0.0,-0.00359862304726
1543475391086673000,335,1543475391086673000,,0.0790861903275,0.0,0.0,0.0,0.0,-0.000563691066893
1543475391186789000,336,1543475391186789000,,0.0644835068304,0.0,0.0,0.0,0.0,0.00104310653108
1543475391286983000,337,1543475391286983000,,0.0761263348523,0.0,0.0,0.0,0.0,-0.0010466525065
1543475391387133000,338,1543475391387133000,,0.0683501333831,0.0,0.0,0.0,0.0,-0.000795965387487
1543475391487294000,339,1543475391487294000,,0.04920497786,0.0,0.0,0.0,0.0,0.00124347033597
1543475391587482000,340,1543475391587482000,,0.06646780807,0.0,0.0,0.0,0.0,0.000443698416981
1543475391687723000,341,1543475391687723000,,0.0495356204697,0.0,0.0,0.0,0.0,-0.000214137619266
1543475391787837000,342,1543475391787837000,,0.0841991233449,0.0,0.0,0.0,0.0,-0.00121845406514
1543475391887998000,343,1543475391887998000,,0.0600703468889,0.0,0.0,0.0,0.0,0.000826656122122
1543475391988193000,344,1543475391988193000,,0.0544579738843,0.0,0.0,0.0,0.0,0.000577417283755
1543475392088334000,345,1543475392088334000,,0.0861303618898,0.0,0.0,0.0,0.0,4.30624936787e-05
1543475392188537000,346,1543475392188537000,,0.0615119862668,0.0,0.0,0.0,0.0,-0.00116215929246
1543475392288726000,347,1543475392288726000,,0.048929250925,0.0,0.0,0.0,0.0,0.000613250654475
1543475392388857000,348,1543475392388857000,,0.0589539087934,0.0,0.0,0.0,0.0,-0.000623344184397
1543475392489065000,349,1543475392489065000,,0.0673411596958,0.0,0.0,0.0,0.0,0.000822389039521
1543475392589217000,350,1543475392589217000,,0.0707101555419,0.0,0.0,0.0,0.0,-0.000185137375629
1543475392689393000,351,1543475392689393000,,0.0968368277888,0.0,0.0,0.0,0.0,1.63263045827e-05
1543475392789560000,352,1543475392789560000,,0.0622553867373,0.0,0.0,0.0,0.0,0.0002903127441
1543475392889742000,353,1543475392889742000,,0.0743808686876,0.0,0.0,0.0,0.0,-0.000520377604609
1543475392989943000,354,1543475392989943000,,0.0719222151749,0.0,0.0,0.0,0.0,0.000515330347706
1543475393090075000,355,1543475393090075000,,0.0566020407352,0.0,0.0,0.0,0.0,-0.000877082821381
1543475393190282000,356,1543475393190282000,,0.061173395655,0.0,0.0,0.0,0.0,0.00266474389649
1543475393290470000,357,1543475393290470000,,0.0744418699625,0.0,0.0,0.0,0.0,-0.00217307055147
1543475393390622000,358,1543475393390622000,,0.0629742013132,0.0,0.0,0.0,0.0,0.000902278610011
1543475393490816000,359,1543475393490816000,,0.0628944855529,0.0,0.0,0.0,0.0,-0.00140368324157
1543475393590992000,360,1543475393590992000,,0.0737725942701,0.0,0.0,0.0,0.0,0.000175459871352
1543475393691202000,361,1543475393691202000,,0.0661894316761,0.0,0.0,0.0,0.0,0.000733416678966
1543475393791325000,362,1543475393791325000,,0.0557901845927,0.0,0.0,0.0,0.0,-0.000848639676113
1543475393891522000,363,1543475393891522000,,0.0775913297811,0.0,0.0,0.0,0.0,0.00182572926778
1543475393991683000,364,1543475393991683000,,0.0732303402573,0.0,0.0,0.0,0.0,-0.000610190713974
1543475394091854000,365,1543475394091854000,,0.100405387653,0.0,0.0,0.0,0.0,-0.000710738369351
1543475394192030000,366,1543475394192030000,,0.0808204001669,0.0,0.0,0.0,0.0,0.000818874934526
1543475394292216000,367,1543475394292216000,,0.0360853683653,0.0,0.0,0.0,0.0,0.000476992213196
1543475394392392000,368,1543475394392392000,,0.103924506712,0.0,0.0,0.0,0.0,-0.00137886608422
1543475394492558000,369,1543475394492558000,,0.0748112138375,0.0,0.0,0.0,0.0,-0.000233505127435
1543475394592751000,370,1543475394592751000,,0.0842397609653,0.0,0.0,0.0,0.0,0.00135504313138
1543475394692913000,371,1543475394692913000,,0.0691531254166,0.0,0.0,0.0,0.0,-0.00054294869359
1543475394793063000,372,1543475394793063000,,0.094374106438,0.0,0.0,0.0,0.0,0.000973477686397
1543475394893286000,373,1543475394893286000,,0.085171545229,0.0,0.0,0.0,0.0,-0.00183825088463
1543475394993443000,374,1543475394993443000,,0.0603696275281,0.0,0.0,0.0,0.0,0.0011447818863
1543475395093645000,375,1543475395093645000,,0.0963568029059,0.0,0.0,0.0,0.0,-0.000105820995296
1543475395193769000,376,1543475395193769000,,0.0643635261435,0.0,0.0,0.0,0.0,0.000353230212156
1543475395293961000,377,1543475395293961000,,0.0890208314181,0.0,0.0,0.0,0.0,-0.0030736841241
1543475395394169000,378,1543475395394169000,,0.0729284949595,0.0,0.0,0.0,0.0,0.00204305914578
1543475395494344000,379,1543475395494344000,,0.0639065594097,0.0,0.0,0.0,0.0,-0.00124014152805
1543475395594556000,380,1543475395594556000,,0.0450567477244,0.0,0.0,0.0,0.0,0.00296233909529
1543475395694710000,381,1543475395694710000,,0.0808952774076,0.0,0.0,0.0,0.0,-0.00222072803107
1543475395794856000,382,1543475395794856000,,0.0850831018392,0.0,0.0,0.0,0.0,0.00099286865201
1543475395895075000,383,1543475395895075000,,0.0785784316302,0.0,0.0,0.0,0.0,-0.000341074716396
1543475395995230000,384,1543475395995230000,,0.0868325593522,0.0,0.0,0.0,0.0,0.0012490049112
1543475396095416000,385,1543475396095416000,,0.0743884377172,0.0,0.0,0.0,0.0,-0.00139675841226
1543475396195591000,386,1543475396195591000,,0.0531844936275,0.0,0.0,0.0,0.0,0.00128122871885
1543475396295788000,387,1543475396295788000,,0.0525857198586,0.0,0.0,0.0,0.0,-0.00234612329571
1543475396395950000,388,1543475396395950000,,0.0566409600451,0.0,0.0,0.0,0.0,0.00237786652271
1543475396496109000,389,1543475396496109000,,0.078606506763,0.0,0.0,0.0,0.0,-0.000813760128692
1543475396596339000,390,1543475396596339000,,0.0588261066823,0.0,0.0,0.0,0.0,-0.000668951991394
1543475396696514000,391,1543475396696514000,,0.0689388456806,0.0,0.0,0.0,0.0,0.00110063921492
1543475396796677000,392,1543475396796677000,,0.105458707174,0.0,0.0,0.0,0.0,-0.000748915780696
1543475396896877000,393,1543475396896877000,,0.0500182256965,0.0,0.0,0.0,0.0,-0.00123748277375
1543475396997050000,394,1543475396997050000,,0.0596291163322,0.0,0.0,0.0,0.0,0.00107468127937
1543475397097198000,395,1543475397097198000,,0.0585191300872,0.0,0.0,0.0,0.0,0.000482638135885
1543475397197382000,396,1543475397197382000,,0.0500105780809,0.0,0.0,0.0,0.0,-0.00114146378786
1543475397297583000,397,1543475397297583000,,0.0714498890976,0.0,0.0,0.0,0.0,0.00119148472477
1543475397397759000,398,1543475397397759000,,0.0535001529169,0.0,0.0,0.0,0.0,-0.00071231381996
1543475397497934000,399,1543475397497934000,,0.0620362534875,0.0,0.0,0.0,0.0,-0.000398411060591
1543475397598107000,400,1543475397598107000,,0.0771518526065,0.0,0.0,0.0,0.0,0.000243720472341
1543475397698309000,401,1543475397698309000,,0.0527773825128,0.0,0.0,0.0,0.0,0.00101456871719
1543475397798485000,402,1543475397798485000,,0.0762845384726,0.0,0.0,0.0,0.0,0.000614439843858
1543475397898657000,403,1543475397898657000,,0.0495562367621,0.0,0.0,0.0,0.0,-0.00140258649323
1543475397998831000,404,1543475397998831000,,0.0984180802418,0.0,0.0,0.0,0.0,0.0035753079959
1543475398099009000,405,1543475398099009000,,0.102179920421,0.0,0.0,0.0,0.0,-0.00307088928351
1543475398199198000,406,1543475398199198000,,0.0242338378917,0.0,0.0,0.0,0.0,0.000404983004755
1543475398299401000,407,1543475398299401000,,0.090443007409,0.0,0.0,0.0,0.0,-0.00017869656042
1543475398399568000,408,1543475398399568000,,0.0984212719993,0.0,0.0,0.0,0.0,-0.000202362426116
1543475398499723000,409,1543475398499723000,,0.0857294727236,0.0,0.0,0.0,0.0,-0.000456886132032
1543475398599922000,410,1543475398599922000,,0.0749659351458,0.0,0.0,0.0,0.0,-0.000722771882702
1543475398700075000,411,1543475398700075000,,0.0581362217015,0.0,0.0,0.0,0.0,-6.15195410603e-05
1543475398800273000,412,1543475398800273000,,0.0491892026868,0.0,0.0,0.0,0.0,0.00130509132142
1543475398900433000,413,1543475398900433000,,0.0828804532977,0.0,0.0,0.0,0.0,-0.000825414118744
1543475399000665000,414,1543475399000665000,,0.0834289444879,0.0,0.0,0.0,0.0,0.000607411416284
1543475399100848000,415,1543475399100848000,,0.058942515676,0.0,0.0,0.0,0.0,-0.000944151810558
1543475399200988000,416,1543475399200988000,,0.0736528752619,0.0,0.0,0.0,0.0,0.0010374546075
1543475399301187000,417,1543475399301187000,,0.0698523303113,0.0,0.0,0.0,0.0,-0.000635952028262
1543475399401330000,418,1543475399401330000,,0.081642498365,0.0,0.0,0.0,0.0,0.000970366098338
1543475399501541000,419,1543475399501541000,,0.0569728332479,0.0,0.0,0.0,0.0,-0.000143354638014
1543475399601708000,420,1543475399601708000,,0.0751560234288,0.0,0.0,0.0,0.0,-0.000389091500764
1543475399701904000,421,1543475399701904000,,0.0867063001859,0.0,0.0,0.0,0.0,-0.000313181174942
1543475399802099000,422,1543475399802099000,,0.0772233240067,0.0,0.0,0.0,0.0,0.00098357172731
1543475399902269000,423,1543475399902269000,,0.0579887008218,0.0,0.0,0.0,0.0,-0.000674394317454
1543475400002460000,424,1543475400002460000,,0.0619061268106,0.0,0.0,0.0,0.0,0.00177904382727
1543475400102644000,425,1543475400102644000,,0.0945493291631,0.0,0.0,0.0,0.0,-0.00270001562571
1543475400202788000,426,1543475400202788000,,0.06865552981,0.0,0.0,0.0,0.0,0.00112180401515
1543475400303007000,427,1543475400303007000,,0.0409100960931,0.0,0.0,0.0,0.0,-0.0020109485338
1543475400403211000,428,1543475400403211000,,0.0706177952545,0.0,0.0,0.0,0.0,0.00400401988411
1543475400503417000,429,1543475400503417000,,0.0784659884609,0.0,0.0,0.0,0.0,-0.00152764742184
1543475400603547000,430,1543475400603547000,,0.0828589304186,0.0,0.0,0.0,0.0,-0.000132586860301
1543475400703759000,431,1543475400703759000,,0.0622195027451,0.0,0.0,0.0,0.0,-0.00157321037443
1543475400803917000,432,1543475400803917000,,0.0594179887239,0.0,0.0,0.0,0.0,0.00198998150944
1543475400904102000,433,1543475400904102000,,0.0979379007648,0.0,0.0,0.0,0.0,0.000611782688307
1543475401004311000,434,1543475401004311000,,0.0452764727525,0.0,0.0,0.0,0.0,-0.00266841466855
1543475401104479000,435,1543475401104479000,,0.0731878487719,0.0,0.0,0.0,0.0,0.00181507176968
1543475401204624000,436,1543475401204624000,,0.0471638464882,0.0,0.0,0.0,0.0,0.000267661903051
1543475401304840000,437,1543475401304840000,,0.0924105451075,0.0,0.0,0.0,0.0,-0.000701072646144
1543475401405015000,438,1543475401405015000,,0.0769403846892,0.0,0.0,0.0,0.0,-0.000284822557697
1543475401505167000,439,1543475401505167000,,0.0869581485589,0.0,0.0,0.0,0.0,-0.000872516509688
1543475401605367000,440,1543475401605367000,,0.0672962574825,0.0,0.0,0.0,0.0,0.00105990275355
1543475401705566000,441,1543475401705566000,,0.068368274434,0.0,0.0,0.0,0.0,-0.00140458451873
1543475401805748000,442,1543475401805748000,,0.0836891041568,0.0,0.0,0.0,0.0,0.000682982075561
1543475401905958000,443,1543475401905958000,,0.0973310510986,0.0,0.0,0.0,0.0,0.000645207909938
1543475402006176000,444,1543475402006176000,,0.0719332199369,0.0,0.0,0.0,0.0,-0.000885222171056
1543475402106290000,445,1543475402106290000,,0.059697624791,0.0,0.0,0.0,0.0,0.00063198963759
1543475402206541000,446,1543475402206541000,,0.0690661991157,0.0,0.0,0.0,0.0,-0.000299930454496
1543475402306668000,447,1543475402306668000,,0.0366622443357,0.0,0.0,0.0,0.0,0.000806334880043
1543475402406857000,448,1543475402406857000,,0.0263411403122,0.0,0.0,0.0,0.0,0.000480630428569
1543475402507031000,449,1543475402507031000,,0.0835703031649,0.0,0.0,0.0,0.0,-0.0169705765185
1543475402607292000,450,1543475402607292000,,0.0355751673362,0.0,0.0,0.0,0.0,0.0129107517357
1543475402707471000,451,1543475402707471000,,0.0323054351055,0.0,0.0,0.0,0.0,0.00630151542097
1543475402807556000,452,1543475402807556000,,0.0849075536178,0.0,0.0,0.0,0.0,-0.00488945817655
1543475402907787000,453,1543475402907787000,,0.0618598377319,0.0,0.0,0.0,0.0,0.00237064017096
1543475403007958000,454,1543475403007958000,,0.0814025150168,0.0,0.0,0.0,0.0,-0.00034864105411
1543475403108126000,455,1543475403108126000,,0.079959606274,0.0,0.0,0.0,0.0,0.000233635489796
1543475403208344000,456,1543475403208344000,,0.061993623584,0.0,0.0,0.0,0.0,0.000608308933296
1543475403308565000,457,1543475403308565000,,0.0388789960114,0.0,0.0,0.0,0.0,-0.00114960426843
1543475403408709000,458,1543475403408709000,,0.0714503618115,0.0,0.0,0.0,0.0,0.00153748993172
1543475403508908000,459,1543475403508908000,,0.0788542110569,0.0,0.0,0.0,0.0,-0.00185172115964
1543475403609066000,460,1543475403609066000,,0.0657035855176,0.0,0.0,0.0,0.0,-0.000101526063609
1543475403709228000,461,1543475403709228000,,0.0719267816766,0.0,0.0,0.0,0.0,-0.00050111522181
1543475403809475000,462,1543475403809475000,,0.0731304075676,0.0,0.0,0.0,0.0,0.00175577375234
1543475403909637000,463,1543475403909637000,,0.0721479445803,0.0,0.0,0.0,0.0,-0.000979808550761
1543475404009792000,464,1543475404009792000,,0.0875015404352,0.0,0.0,0.0,0.0,0.00070417733938
1543475404110001000,465,1543475404110001000,,0.0789865721396,0.0,0.0,0.0,0.0,-0.000522373205353
1543475404210175000,466,1543475404210175000,,0.052361767263,0.0,0.0,0.0,0.0,-0.000820489325415
1543475404310354000,467,1543475404310354000,,0.0780742871219,0.0,0.0,0.0,0.0,0.00357592270563
1543475404410562000,468,1543475404410562000,,0.0804355265353,0.0,0.0,0.0,0.0,-0.00146150785312
1543475404510756000,469,1543475404510756000,,0.0476360694446,0.0,0.0,0.0,0.0,-0.00141374781191
1543475404610893000,470,1543475404610893000,,0.0721084007234,0.0,0.0,0.0,0.0,0.0023626230405
1543475404711100000,471,1543475404711100000,,0.0672873409918,0.0,0.0,0.0,0.0,-0.0032121771711
1543475404811278000,472,1543475404811278000,,0.0616872715528,0.0,0.0,0.0,0.0,0.00299529744383
1543475404911450000,473,1543475404911450000,,0.0951798286754,0.0,0.0,0.0,0.0,-0.00152651612772
1543475405011686000,474,1543475405011686000,,0.0510826106535,0.0,0.0,0.0,0.0,-0.000361772417646
1543475405111849000,475,1543475405111849000,,0.0668478377642,0.0,0.0,0.0,0.0,-0.00052245380827
1543475405212050000,476,1543475405212050000,,0.0506832152677,0.0,0.0,0.0,0.0,0.000401358707682
1543475405312241000,477,1543475405312241000,,0.0834803460652,0.0,0.0,0.0,0.0,-1.11477735315e-05
1543475405412400000,478,1543475405412400000,,0.0652202156039,0.0,0.0,0.0,0.0,0.001703964494
1543475405516808000,479,1543475405516808000,,0.0432349722906,0.0,0.0,0.0,0.0,-0.00319406534542
1543475405612785000,480,1543475405612785000,,0.07190743027,0.0,0.0,0.0,0.0,0.00510735343393
1543475405712963000,481,1543475405712963000,,0.029659083642,0.0,0.0,0.0,0.0,-0.00431079153269
1543475405813169000,482,1543475405813169000,,0.0870403881142,0.0,0.0,0.0,0.0,0.00252632556077
1543475405913357000,483,1543475405913357000,,0.0764373628406,0.0,0.0,0.0,0.0,-0.000996903615433
1543475406013560000,484,1543475406013560000,,0.0408620841918,0.0,0.0,0.0,0.0,0.000756702291176
1543475406113692000,485,1543475406113692000,,0.0409233734572,0.0,0.0,0.0,0.0,-0.00244560998585
1543475406213895000,486,1543475406213895000,,0.0763516306677,0.0,0.0,0.0,0.0,0.00184124861226
1543475406314054000,487,1543475406314054000,,0.0587105365975,0.0,0.0,0.0,0.0,-0.000907301186605
1543475406414259000,488,1543475406414259000,,0.0905474525099,0.0,0.0,0.0,0.0,0.000425092452928
1543475406514485000,489,1543475406514485000,,0.0826244116056,0.0,0.0,0.0,0.0,2.27037861901e-05
1543475406614655000,490,1543475406614655000,,0.0767192805664,0.0,0.0,0.0,0.0,0.000840717109054
1543475406714848000,491,1543475406714848000,,0.0834703381838,0.0,0.0,0.0,0.0,-0.0010622181522
1543475406815018000,492,1543475406815018000,,0.0825085965946,0.0,0.0,0.0,0.0,-3.97439921533e-05
1543475406915199000,493,1543475406915199000,,0.0500126359558,0.0,0.0,0.0,0.0,-0.000423478733982
1543475407015398000,494,1543475407015398000,,0.0715556889231,0.0,0.0,0.0,0.0,0.000200662846404
1543475407115568000,495,1543475407115568000,,0.0587768829917,0.0,0.0,0.0,0.0,0.000469690397358
1543475407215739000,496,1543475407215739000,,0.0639855981121,0.0,0.0,0.0,0.0,-0.00127627353284
1543475407315945000,497,1543475407315945000,,0.0818963873177,0.0,0.0,0.0,0.0,0.000744597180802
1543475407416151000,498,1543475407416151000,,0.0474028543259,0.0,0.0,0.0,0.0,0.00143500734776
1543475407516336000,499,1543475407516336000,,0.0491746728511,0.0,0.0,0.0,0.0,-0.00274008107016
1543475407616512000,500,1543475407616512000,,0.0803825064831,0.0,0.0,0.0,0.0,0.00105109907511
1543475407716700000,501,1543475407716700000,,0.0641240952771,0.0,0.0,0.0,0.0,0.00161866685761
1543475407816925000,502,1543475407816925000,,0.0555298144384,0.0,0.0,0.0,0.0,-0.0019043189443
1543475407917098000,503,1543475407917098000,,0.0628026740618,0.0,0.0,0.0,0.0,0.000370097319189
1543475408017269000,504,1543475408017269000,,0.0655479461556,0.0,0.0,0.0,0.0,-0.000225801872231
1543475408117434000,505,1543475408117434000,,0.0867425063701,0.0,0.0,0.0,0.0,0.00269857569122
1543475408217678000,506,1543475408217678000,,0.107409569197,0.0,0.0,0.0,0.0,-0.000655821014292
1543475408317846000,507,1543475408317846000,,0.0545978517247,0.0,0.0,0.0,0.0,-0.00178003945015
1543475408417984000,508,1543475408417984000,,0.0623777468755,0.0,0.0,0.0,0.0,0.000989707384663
1543475408518218000,509,1543475408518218000,,0.10643506224,0.0,0.0,0.0,0.0,6.7975342315e-05
1543475408618417000,510,1543475408618417000,,0.0655877409415,0.0,0.0,0.0,0.0,-0.000574245151156
1543475408718591000,511,1543475408718591000,,0.046167385532,0.0,0.0,0.0,0.0,-0.00140952943756
1543475408818771000,512,1543475408818771000,,0.0539386888184,0.0,0.0,0.0,0.0,0.00152705802581
1543475408918928000,513,1543475408918928000,,0.0463778297088,0.0,0.0,0.0,0.0,-0.00309564562071
1543475409019199000,514,1543475409019199000,,0.0641978845996,0.0,0.0,0.0,0.0,0.00605275041849
1543475409119322000,515,1543475409119322000,,0.126456632921,0.0,0.0,0.0,0.0,-0.00184856714943
1543475409219533000,516,1543475409219533000,,0.0578310817287,0.0,0.0,0.0,0.0,-0.00248080485435
1543475409319732000,517,1543475409319732000,,0.0672801690121,0.0,0.0,0.0,0.0,0.000994918277102
1543475409419886000,518,1543475409419886000,,0.0760303684362,0.0,0.0,0.0,0.0,0.000776951932624
1543475409520125000,519,1543475409520125000,,0.0529894641571,0.0,0.0,0.0,0.0,-0.00311747532328
1543475409620273000,520,1543475409620273000,,0.0868242868723,0.0,0.0,0.0,0.0,0.00350257372482
1543475409720484000,521,1543475409720484000,,0.046622773744,0.0,0.0,0.0,0.0,-0.000752202455976
1543475409820668000,522,1543475409820668000,,0.082060975688,0.0,0.0,0.0,0.0,-0.000268553111239
1543475409920824000,523,1543475409920824000,,0.1064845606,0.0,0.0,0.0,0.0,0.000641145382486
1543475410021019000,524,1543475410021019000,,0.0582443088596,0.0,0.0,0.0,0.0,-0.000828089798133
1543475410121218000,525,1543475410121218000,,0.0740142970388,0.0,0.0,0.0,0.0,0.000895469053933
1543475410221406000,526,1543475410221406000,,0.0806894784668,0.0,0.0,0.0,0.0,9.57963563281e-05
1543475410321590000,527,1543475410321590000,,0.0675795026061,0.0,0.0,0.0,0.0,-0.00193326912276
1543475410421787000,528,1543475410421787000,,0.0782210824665,0.0,0.0,0.0,0.0,0.00324134541128
1543475410521996000,529,1543475410521996000,,0.0700392942753,0.0,0.0,0.0,0.0,-0.00452837190086
1543475410622189000,530,1543475410622189000,,0.0844874849166,0.0,0.0,0.0,0.0,0.00280860872473
1543475410722354000,531,1543475410722354000,,0.103872151872,0.0,0.0,0.0,0.0,-0.00156922078136
1543475410822566000,532,1543475410822566000,,0.0688893479024,0.0,0.0,0.0,0.0,0.0013120756578
1543475410922737000,533,1543475410922737000,,0.0509531659028,0.0,0.0,0.0,0.0,-0.00128859594628
1543475411022990000,534,1543475411022990000,,0.0596632170454,0.0,0.0,0.0,0.0,0.00141636335177
1543475411123327000,535,1543475411123327000,,0.0812929885624,0.0,0.0,0.0,0.0,-0.00133014614319
1543475411223558000,536,1543475411223558000,,0.0971110215669,0.0,0.0,0.0,0.0,0.00105273919831
1543475411323932000,537,1543475411323932000,,0.0789982908629,0.0,0.0,0.0,0.0,-1.19636014797e-05
1543475411424180000,538,1543475411424180000,,0.0812035319719,0.0,0.0,0.0,0.0,0.000824027500596
1543475411524478000,539,1543475411524478000,,0.0840064110825,0.0,0.0,0.0,0.0,3.54028452294e-05
1543475411624770000,540,1543475411624770000,,0.087041445881,0.0,0.0,0.0,0.0,-0.00209158836447
1543475411725066000,541,1543475411725066000,,0.0848635194927,0.0,0.0,0.0,0.0,0.00298376903405
1543475411825375000,542,1543475411825375000,,0.066787630784,0.0,0.0,0.0,0.0,-0.00167978149027
1543475411925636000,543,1543475411925636000,,0.0613721762805,0.0,0.0,0.0,0.0,0.000430892421746
1543475412025962000,544,1543475412025962000,,0.0670609072943,0.0,0.0,0.0,0.0,-0.000452820638849
1543475412126240000,545,1543475412126240000,,0.0760468991354,0.0,0.0,0.0,0.0,-0.000243012317255
1543475412226535000,546,1543475412226535000,,0.0918764819286,0.0,0.0,0.0,0.0,0.000883798734744
1543475412326813000,547,1543475412326813000,,0.0619556926157,0.0,0.0,0.0,0.0,-0.000803431687959
1543475412427080000,548,1543475412427080000,,0.0614448770082,0.0,0.0,0.0,0.0,0.00174784240398
1543475412527425000,549,1543475412527425000,,0.0935175188312,0.0,0.0,0.0,0.0,-0.00160830424918
1543475412627689000,550,1543475412627689000,,0.078559028408,0.0,0.0,0.0,0.0,0.000929608730344
1543475412727997000,551,1543475412727997000,,0.0533371073,0.0,0.0,0.0,0.0,-0.000402846324801
1543475412828321000,552,1543475412828321000,,0.088614299381,0.0,0.0,0.0,0.0,-0.000465054564371
1543475412928572000,553,1543475412928572000,,0.0901528152956,0.0,0.0,0.0,0.0,-0.00129687813817
1543475413028885000,554,1543475413028885000,,0.0733043214636,0.0,0.0,0.0,0.0,0.00233473597605
1543475413129138000,555,1543475413129138000,,0.0967885535411,0.0,0.0,0.0,0.0,-0.00147754218033
1543475413229434000,556,1543475413229434000,,0.102191504371,0.0,0.0,0.0,0.0,0.000453699320314
1543475413329790000,557,1543475413329790000,,0.0548664842311,0.0,0.0,0.0,0.0,-0.00076417226501
1543475413430041000,558,1543475413430041000,,0.0660794216067,0.0,0.0,0.0,0.0,0.00399269908021
1543475413530354000,559,1543475413530354000,,0.0707960838204,0.0,0.0,0.0,0.0,-0.00298742674134
1543475413630608000,560,1543475413630608000,,0.0677992520807,0.0,0.0,0.0,0.0,-0.000263404095318
1543475413730956000,561,1543475413730956000,,0.0826849150897,0.0,0.0,0.0,0.0,0.000505034752721
1543475413831226000,562,1543475413831226000,,0.106529170974,0.0,0.0,0.0,0.0,-0.000838173300612
1543475413931475000,563,1543475413931475000,,0.0569523630624,0.0,0.0,0.0,0.0,-0.000703519438192
1543475414031770000,564,1543475414031770000,,0.0523953852926,0.0,0.0,0.0,0.0,-0.000280869547704
1543475414132093000,565,1543475414132093000,,0.0922108204163,0.0,0.0,0.0,0.0,0.00236712411229
1543475414232351000,566,1543475414232351000,,0.0930134818389,0.0,0.0,0.0,0.0,-0.000421719043038
1543475414332656000,567,1543475414332656000,,0.0634876437317,0.0,0.0,0.0,0.0,-0.00121480645172
1543475414432945000,568,1543475414432945000,,0.0580891316667,0.0,0.0,0.0,0.0,0.00289348156759
1543475414533260000,569,1543475414533260000,,0.0805799746717,0.0,0.0,0.0,0.0,-0.00275097968136
1543475414633517000,570,1543475414633517000,,0.0683324256577,0.0,0.0,0.0,0.0,0.00121710847171
1543475414733810000,571,1543475414733810000,,0.0774520441876,0.0,0.0,0.0,0.0,-0.000711149362892
1543475414834088000,572,1543475414834088000,,0.0674942979177,0.0,0.0,0.0,0.0,-5.15918378974e-05
1543475414934366000,573,1543475414934366000,,0.0516808389884,0.0,0.0,0.0,0.0,-0.000422071249289
1543475415034671000,574,1543475415034671000,,0.0636011595018,0.0,0.0,0.0,0.0,0.00187406724163
1543475415134978000,575,1543475415134978000,,0.065672320249,0.0,0.0,0.0,0.0,-0.00376612639449
1543475415235257000,576,1543475415235257000,,0.0752663544595,0.0,0.0,0.0,0.0,0.00420235645404
1543475415335530000,577,1543475415335530000,,0.0787968066254,0.0,0.0,0.0,0.0,-0.00260865391277
1543475415435781000,578,1543475415435781000,,0.0591291451029,0.0,0.0,0.0,0.0,0.00177784902247
1543475415536131000,579,1543475415536131000,,0.0605045078786,0.0,0.0,0.0,0.0,-0.000655401670339
1543475415636379000,580,1543475415636379000,,0.0601274875045,0.0,0.0,0.0,0.0,-0.000953542824622
1543475415736671000,581,1543475415736671000,,0.0664615389102,0.0,0.0,0.0,0.0,-0.000286586757392
1543475415836943000,582,1543475415836943000,,0.0980873589669,0.0,0.0,0.0,0.0,0.000828704123527
1543475415937211000,583,1543475415937211000,,0.0932363309875,0.0,0.0,0.0,0.0,0.000849973378824
1543475416037512000,584,1543475416037512000,,0.067655629077,0.0,0.0,0.0,0.0,-0.00129371426015
1543475416137783000,585,1543475416137783000,,0.0737237589495,0.0,0.0,0.0,0.0,0.00215125136701
1543475416238099000,586,1543475416238099000,,0.0890922021918,0.0,0.0,0.0,0.0,-0.0023108508147
1543475416338384000,587,1543475416338384000,,0.0586341065708,0.0,0.0,0.0,0.0,0.00112280842109
1543475416438662000,588,1543475416438662000,,0.0600281774495,0.0,0.0,0.0,0.0,-0.00318890481017
1543475416538979000,589,1543475416538979000,,0.0802962246042,0.0,0.0,0.0,0.0,0.00481077661064
1543475416639238000,590,1543475416639238000,,0.0673297540364,0.0,0.0,0.0,0.0,-0.0037176336396
1543475416739506000,591,1543475416739506000,,0.0941380324655,0.0,0.0,0.0,0.0,0.00369664452415
1543475416839765000,592,1543475416839765000,,0.0866556168369,0.0,0.0,0.0,0.0,-0.00196570339868
1543475416940057000,593,1543475416940057000,,0.0915373355847,0.0,0.0,0.0,0.0,-0.000440312640485
1543475417040356000,594,1543475417040356000,,0.0631646454251,0.0,0.0,0.0,0.0,-0.000381549774654
1543475417140619000,595,1543475417140619000,,0.0715453732652,0.0,0.0,0.0,0.0,5.47949622269e-05
1543475417240906000,596,1543475417240906000,,0.0742825148462,0.0,0.0,0.0,0.0,0.00117863441402
1543475417341203000,597,1543475417341203000,,0.100565300069,0.0,0.0,0.0,0.0,-0.00121188075571
1543475417441481000,598,1543475417441481000,,0.0789391351429,0.0,0.0,0.0,0.0,-0.000578100397406
1543475417541744000,599,1543475417541744000,,0.0589764295988,0.0,0.0,0.0,0.0,0.0012726142661
1543475417642025000,600,1543475417642025000,,0.0616259491169,0.0,0.0,0.0,0.0,-0.000436275470105
1543475417742279000,601,1543475417742279000,,0.078463206223,0.0,0.0,0.0,0.0,0.00133505757105
1543475417842596000,602,1543475417842596000,,0.0710905743785,0.0,0.0,0.0,0.0,-0.00324780936511
1543475417942903000,603,1543475417942903000,,0.0684153746899,0.0,0.0,0.0,0.0,0.00563378720566
1543475418043129000,604,1543475418043129000,,0.078655169919,0.0,0.0,0.0,0.0,-0.00336016167359
1543475418143436000,605,1543475418143436000,,0.0831449065804,0.0,0.0,0.0,0.0,-0.00106923953844
1543475418243701000,606,1543475418243701000,,0.0381603007553,0.0,0.0,0.0,0.0,0.00250831123263
1543475418343958000,607,1543475418343958000,,0.056940418763,0.0,0.0,0.0,0.0,-0.000839616578525
1543475418444237000,608,1543475418444237000,,0.0740062117822,0.0,0.0,0.0,0.0,-0.000924081858081
1543475418544555000,609,1543475418544555000,,0.050858499735,0.0,0.0,0.0,0.0,-0.000432835194385
1543475418644783000,610,1543475418644783000,,0.0714230402815,0.0,0.0,0.0,0.0,0.00194159553117
1543475418745067000,611,1543475418745067000,,0.0834304016551,0.0,0.0,0.0,0.0,-0.00187562507217
1543475418845367000,612,1543475418845367000,,0.0647380808383,0.0,0.0,0.0,0.0,0.00115996981814
1543475418945641000,613,1543475418945641000,,0.0682639501287,0.0,0.0,0.0,0.0,6.43492985659e-05
1543475419045923000,614,1543475419045923000,,0.0917776184634,0.0,0.0,0.0,0.0,-0.000564455332493
1543475419146190000,615,1543475419146190000,,0.0474663859439,0.0,0.0,0.0,0.0,0.000631037974292
1543475419246504000,616,1543475419246504000,,0.0853866878221,0.0,0.0,0.0,0.0,-1.39852152826e-06
1543475419346761000,617,1543475419346761000,,0.0588524362885,0.0,0.0,0.0,0.0,-0.000968969545068
1543475419447029000,618,1543475419447029000,,0.0957807952569,0.0,0.0,0.0,0.0,0.00185375654199
1543475419547294000,619,1543475419547294000,,0.0973125778653,0.0,0.0,0.0,0.0,-0.00123668386715
1543475419647576000,620,1543475419647576000,,0.0706488735841,0.0,0.0,0.0,0.0,0.00135678667665
1543475419747874000,621,1543475419747874000,,0.0735127375309,0.0,0.0,0.0,0.0,-0.00272298746941
1543475419848190000,622,1543475419848190000,,0.0864262252873,0.0,0.0,0.0,0.0,0.00195193972365
1543475419948403000,623,1543475419948403000,,0.0611566586397,0.0,0.0,0.0,0.0,-0.000393419243621
1543475420048674000,624,1543475420048674000,,0.0594446579355,0.0,0.0,0.0,0.0,-0.000206282566466
1543475420148933000,625,1543475420148933000,,0.0936864504881,0.0,0.0,0.0,0.0,-0.000399327263698
1543475420249252000,626,1543475420249252000,,0.0579292468212,0.0,0.0,0.0,0.0,4.86559797128e-05
1543475420349519000,627,1543475420349519000,,0.0766341474525,0.0,0.0,0.0,0.0,0.000342273243725
1543475420449785000,628,1543475420449785000,,0.0871139198367,0.0,0.0,0.0,0.0,0.000671925777455
1543475420550074000,629,1543475420550074000,,0.0532015594413,0.0,0.0,0.0,0.0,-0.00184244357031
1543475420650351000,630,1543475420650351000,,0.0786131018627,0.0,0.0,0.0,0.0,0.00149893688208
1543475420750620000,631,1543475420750620000,,0.0924400128607,0.0,0.0,0.0,0.0,-0.000410933638636
