%time,field.header.seq,field.header.stamp,field.header.frame_id,field.pose.position.x,field.pose.position.y,field.pose.position.z,field.pose.orientation.x,field.pose.orientation.y,field.pose.orientation.z,field.pose.orientation.w
1543475341951127000,0,1543475341951127000,/map,1.33418273926,18.5297222137,0.285407781601,0.00186209613726,-0.00877472554462,0.715831648354,0.698215287719
1543475357648884000,1,1543475357648884000,/map,1.34106874466,18.5305366516,0.285703539848,0.00179968490167,-0.00886246610797,0.716053954361,0.697986355363
1543475357748912000,2,1543475357748912000,/map,1.33806622028,18.5347900391,0.284585356712,0.00187273077479,-0.00875691496836,0.715833374801,0.698213712871
1543475357848870000,3,1543475357848870000,/map,1.3311368227,18.529668808,0.283666133881,0.00174057844177,-0.00877910729147,0.716058961368,0.697982422061
1543475357948859000,4,1543475357948859000,/map,1.33881795406,18.5322875977,0.284914135933,0.00181284378083,-0.00879371300529,0.715949631013,0.698094198559
1543475358048902000,5,1543475358048902000,/map,1.33796930313,18.5306167603,0.282841324806,0.00189175484138,-0.00878728576701,0.715922043246,0.698122362389
1543475358148862000,6,1543475358148862000,/map,1.34088242054,18.5370101929,0.286613821983,0.00173991737119,-0.0088211097582,0.715940330276,0.698103576982
1543475358248870000,7,1543475358248870000,/map,1.34095156193,18.5318145752,0.284243822098,0.00176653099726,-0.00883509220156,0.71592941593,0.698114526364
1543475358348934000,8,1543475358348934000,/map,1.33202409744,18.528137207,0.28184056282,0.00180595119841,-0.00887783681731,0.715903732698,0.698140220918
1543475358448902000,9,1543475358448902000,/map,1.33424854279,18.5373153687,0.288053631783,0.00179949242472,-0.00881315258046,0.715934011888,0.698110006224
1543475358548907000,10,1543475358548907000,/map,1.341604352,18.5331039429,0.282870054245,0.00180192132201,-0.00876636693733,0.715952292667,0.698091841032
1543475358648926000,11,1543475358648926000,/map,1.33807659149,18.5296096802,0.287275791168,0.00175910923187,-0.0088813536316,0.715894958847,0.698149292766
1543475358748882000,12,1543475358748882000,/map,1.33594024181,18.5379734039,0.284646987915,0.00187448553347,-0.00877276663425,0.715941839108,0.698102290416
1543475358848901000,13,1543475358848901000,/map,1.3342000246,18.5342121124,0.28156888485,0.00178863148487,-0.00875471911453,0.71593542715,0.698109317974
1543475358948944000,14,1543475358948944000,/map,1.33840489388,18.5350875854,0.285875201225,0.00183470297686,-0.00881264083754,0.715956889391,0.698086458656
1543475359048921000,15,1543475359048921000,/map,1.33180236816,18.536567688,0.284079670906,0.00180093646235,-0.00883755105772,0.715928941531,0.698114893837
1543475359148918000,16,1543475359148918000,/map,1.33712637424,18.5303916931,0.28296995163,0.00183394491334,-0.00879419790036,0.715944352638,0.698099550677
1543475359248970000,17,1543475359248970000,/map,1.33557939529,18.5370044708,0.280126333237,0.00183855659097,-0.00869509748793,0.715923051139,0.698122625216
1543475359348980000,18,1543475359348980000,/map,1.33526217937,18.5330295563,0.286055088043,0.00181363254112,-0.00887705382825,0.715926355892,0.698117011389
1543475359448969000,19,1543475359448969000,/map,1.33636415005,18.5380420685,0.284092664719,0.001857533926,-0.00878962031369,0.715939407249,0.698104617726
1543475359549014000,20,1543475359549014000,/map,1.34034121037,18.5302600861,0.283752202988,0.00179297703527,-0.00877431558063,0.715897544246,0.698147908944
1543475359649016000,21,1543475359649016000,/map,1.33482265472,18.5334663391,0.287373661995,0.00180378415726,-0.00877761652884,0.715963552808,0.698080146446
1543475359749078000,22,1543475359749078000,/map,1.34163761139,18.530128479,0.281785130501,0.00182317538155,-0.00878425747713,0.715887299808,0.698158210455
1543475359849071000,23,1543475359849071000,/map,1.33616006374,18.532327652,0.287561416626,0.00179781318735,-0.00883810772967,0.715930268852,0.698113533647
1543475359949103000,24,1543475359949103000,/map,1.34299504757,18.5272407532,0.282572984695,0.00184253772403,-0.00875268310214,0.715948101335,0.698096205253
1543475360049127000,25,1543475360049127000,/map,1.33709251881,18.5344791412,0.287244319916,0.00175531843763,-0.00885052857593,0.715954167571,0.698088974944
1543475360149151000,26,1543475360149151000,/map,1.33871138096,18.5292110443,0.281653642654,0.00191269558429,-0.0087594322792,0.715909879911,0.698135128601
1543475360249160000,27,1543475360249160000,/map,1.34123635292,18.5361671448,0.283164978027,0.00187409065403,-0.00877583030995,0.715970075822,0.698073293511
1543475360349184000,28,1543475360349184000,/map,1.33422803879,18.5339355469,0.280160546303,0.00181647289762,-0.0087447827033,0.715909288599,0.698136175613
1543475360449207000,29,1543475360449207000,/map,1.34152185917,18.5295810699,0.280710339546,0.00190241812926,-0.00868607642749,0.71594068661,0.698104480818
1543475360549213000,30,1543475360549213000,/map,1.33573377132,18.5317516327,0.286260724068,0.0018025563305,-0.00877267454647,0.7159344149,0.698110094852
1543475360649248000,31,1543475360649248000,/map,1.33846569061,18.5283756256,0.284253358841,0.00182758943179,-0.00880184557214,0.715847645338,0.698198636561
1543475360749319000,32,1543475360749319000,/map,1.33958351612,18.5380172729,0.281091809273,0.0018000596438,-0.00877950261276,0.715919252777,0.698125564367
1543475360849325000,33,1543475360849325000,/map,1.34090733528,18.529378891,0.283982872963,0.00183158326623,-0.00875208184477,0.715900645008,0.698144908199
1543475360949360000,34,1543475360949360000,/map,1.33608949184,18.533575058,0.284917593002,0.00177922363269,-0.00886282684951,0.715932756541,0.698110716703
1543475361049370000,35,1543475361049370000,/map,1.33786845207,18.5294055939,0.285130143166,0.0018383551568,-0.00876803285382,0.715905757196,0.698139448007
1543475361149418000,36,1543475361149418000,/map,1.33588290215,18.5343399048,0.286552071571,0.00176209882263,-0.00891883498761,0.715990067093,0.698051268328
1543475361249464000,37,1543475361249464000,/map,1.3383808136,18.5346126556,0.279839992523,0.00186424043954,-0.00870008597931,0.715970983944,0.698073336593
1543475361349519000,38,1543475361349519000,/map,1.33758533001,18.5337257385,0.286394715309,0.00183516183173,-0.00879200628747,0.715890391532,0.698154911262
1543475361449565000,39,1543475361449565000,/map,1.33493745327,18.5378551483,0.290238618851,0.0017429557296,-0.00886587765535,0.716064358889,0.697975781992
1543475361549557000,40,1543475361549557000,/map,1.34232127666,18.5315589905,0.281221628189,0.00183889714318,-0.00876514155134,0.715959366215,0.6980845054
1543475361649594000,41,1543475361649594000,/map,1.3365432024,18.5365619659,0.28320980072,0.00182906234936,-0.00883601104288,0.715930630411,0.698113108227
1543475361749636000,42,1543475361749636000,/map,1.3384655714,18.5318374634,0.284090876579,0.0018532207978,-0.00881531563268,0.715938979163,0.698104744216
1543475361849717000,43,1543475361849717000,/map,1.33130431175,18.5274410248,0.28301179409,0.00183964819757,-0.0087343283266,0.715867314323,0.698179286063
1543475361949731000,44,1543475361949731000,/map,1.33730268478,18.527551651,0.282668709755,0.0018568404734,-0.00877510885605,0.715918686895,0.698126051199
1543475362049791000,45,1543475362049791000,/map,1.33689773083,18.537279129,0.279549002647,0.00180428312964,-0.00875142452631,0.71594293518,0.698101619176
1543475362149848000,46,1543475362149848000,/map,1.33256304264,18.5325546265,0.28074324131,0.00187194674349,-0.00876840034493,0.71594707466,0.698096982701
1543475362249889000,47,1543475362249889000,/map,1.33793401718,18.5357570648,0.285155177116,0.00182940745944,-0.0088303577596,0.715939046269,0.698104548099
1543475362349919000,48,1543475362349919000,/map,1.33636116982,18.5336017609,0.279175877571,0.00186525092441,-0.00874834981502,0.715938068615,0.698106488383
1543475362449956000,49,1543475362449956000,/map,1.33513081074,18.5402679443,0.282528877258,0.00180277166013,-0.00879352770591,0.715970924056,0.698072388647
1543475362550010000,50,1543475362550010000,/map,1.33669579029,18.5290279388,0.285314440727,0.00177263410591,-0.00878084330558,0.715885271748,0.698160463113
1543475362650064000,51,1543475362650064000,/map,1.33711194992,18.5364151001,0.281752347946,0.00182523513014,-0.00876784167894,0.715923588396,0.698121199396
1543475362750134000,52,1543475362750134000,/map,1.33764982224,18.5304374695,0.281996488571,0.00188456591295,-0.00868014925255,0.715922316809,0.698123441602
1543475362850195000,53,1543475362850195000,/map,1.33865189552,18.5341053009,0.285700440407,0.00179806228463,-0.0088191104504,0.715906942171,0.698137694452
1543475362950217000,54,1543475362950217000,/map,1.33497643471,18.5391273499,0.2804479599,0.00179630382041,-0.00874731978107,0.715945186134,0.69809938271
1543475363050314000,55,1543475363050314000,/map,1.33418762684,18.5342273712,0.285774588585,0.00186713603297,-0.00878947113134,0.715950472859,0.6980932455
1543475363150315000,56,1543475363150315000,/map,1.34118413925,18.5311164856,0.281420111656,0.00185246522866,-0.00876033494388,0.715948255933,0.698095924448
1543475363250386000,57,1543475363250386000,/map,1.33809125423,18.5310707092,0.283621191978,0.0018315681312,-0.00879071787169,0.715912756189,0.698132003394
1543475363350432000,58,1543475363350432000,/map,1.34502017498,18.5278949738,0.285516858101,0.00177229199542,-0.00882575435357,0.715941122383,0.698102624491
1543475363450478000,59,1543475363450478000,/map,1.34066486359,18.5332489014,0.286869168282,0.00175475021241,-0.00885994967366,0.71592587829,0.698117868944
1543475363550592000,60,1543475363550592000,/map,1.34172677994,18.5314235687,0.281523823738,0.00185938277424,-0.00879306610294,0.715913739958,0.698130891469
1543475363650588000,61,1543475363650588000,/map,1.34003293514,18.5340003967,0.287160754204,0.00179922927674,-0.00881571880558,0.715912794252,0.698131733201
1543475363750650000,62,1543475363750650000,/map,1.3412899971,18.5288295746,0.282837629318,0.0018990314405,-0.00876258812226,0.715894765203,0.698150625498
1543475363850700000,63,1543475363850700000,/map,1.33499634266,18.5347747803,0.284720778465,0.00177005912558,-0.00882157632535,0.715893354084,0.698151668522
1543475363950791000,64,1543475363950791000,/map,1.34085214138,18.5308380127,0.283389925957,0.00184340961873,-0.00875304198679,0.715930764208,0.698113978486
1543475364050853000,65,1543475364050853000,/map,1.33807051182,18.5313243866,0.285055994987,0.00179671540312,-0.00888083199319,0.715925084277,0.698118311134
1543475364150914000,66,1543475364150914000,/map,1.34330236912,18.5286998749,0.280978083611,0.00189880207956,-0.00878892102277,0.715983202821,0.698059598241
1543475364250987000,67,1543475364250987000,/map,1.33781194687,18.5338382721,0.287282943726,0.00180167860714,-0.00881486612723,0.715947493214,0.698096153155
1543475364351050000,68,1543475364351050000,/map,1.33880484104,18.5289115906,0.283233523369,0.00179911724284,-0.00878229136408,0.715904872729,0.69814027798
1543475364451156000,69,1543475364451156000,/map,1.33548223972,18.5359172821,0.281146883965,0.00183921032305,-0.00879806472802,0.715924273894,0.698120079507
1543475364551177000,70,1543475364551177000,/map,1.33852124214,18.5321159363,0.286543488503,0.00179495218202,-0.00886413377076,0.715920255329,0.698123479972
1543475364651248000,71,1543475364651248000,/map,1.33723044395,18.5361042023,0.28709757328,0.00173896417184,-0.00885481069612,0.715907076486,0.698137254535
1543475364751320000,72,1543475364751320000,/map,1.33931672573,18.5316982269,0.283875465393,0.00181905445172,-0.00877793736406,0.715944075209,0.698100078807
1543475364851398000,73,1543475364851398000,/map,1.33434474468,18.535692215,0.285212159157,0.00180461332913,-0.00881871151866,0.715900460577,0.698144329092
1543475364951462000,74,1543475364951462000,/map,1.33695840836,18.5309181213,0.285335063934,0.00181452496958,-0.00881919018213,0.715885711465,0.698159421267
1543475365051543000,75,1543475365051543000,/map,1.33662474155,18.5338726044,0.276258349419,0.0019099149073,-0.00867457941979,0.715964841751,0.698079830158
1543475365151615000,76,1543475365151615000,/map,1.33422875404,18.5320091248,0.285035729408,0.001791472,-0.00881464947793,0.715899195226,0.698145711766
1543475365251688000,77,1543475365251688000,/map,1.3350687027,18.5375041962,0.280649423599,0.0018271485098,-0.00873423180597,0.715906636324,0.69813899962
1543475365351755000,78,1543475365351755000,/map,1.33836448193,18.5289974213,0.28660774231,0.00182216247745,-0.00881307831887,0.715926061071,0.698118102081
1543475365451875000,79,1543475365451875000,/map,1.33572947979,18.536239624,0.284453749657,0.00184367458609,-0.00883463428608,0.71594070687,0.698102753431
1543475365551917000,80,1543475365551917000,/map,1.34094321728,18.529460907,0.281869530678,0.00185479647311,-0.00875283254817,0.715929600893,0.698115143953
1543475365651971000,81,1543475365651971000,/map,1.33493852615,18.5294113159,0.284056186676,0.00186334137477,-0.00882659617094,0.715883672144,0.698161290188
1543475365752015000,82,1543475365752015000,/map,1.3394806385,18.5347042084,0.28338599205,0.00181593379395,-0.00884751068064,0.715969927744,0.698072694285
1543475365852104000,83,1543475365852104000,/map,1.3343911171,18.5364685059,0.28290104866,0.0018190031023,-0.00880017268381,0.715888110475,0.698157189656
1543475365952204000,84,1543475365952204000,/map,1.33712697029,18.5265693665,0.285975456238,0.00182309450787,-0.00880572182333,0.715897619023,0.698147358849
1543475366052269000,85,1543475366052269000,/map,1.33574831486,18.5350837708,0.283390879631,0.00182169673729,-0.00883541063911,0.715920926012,0.698123087026
1543475366152367000,86,1543475366152367000,/map,1.33978807926,18.5341567993,0.28784263134,0.0017723283031,-0.0088272655236,0.715924616984,0.698119532051
1543475366252437000,87,1543475366252437000,/map,1.33510386944,18.5373420715,0.281015276909,0.00188158702473,-0.00876283480251,0.715986460841,0.698056631118
1543475366352521000,88,1543475366352521000,/map,1.33943331242,18.5289802551,0.281349301338,0.00184838164726,-0.00876192747923,0.715899244412,0.698146176644
1543475366452567000,89,1543475366452567000,/map,1.33376443386,18.5345821381,0.286133885384,0.00181652414069,-0.00882341749191,0.715940590877,0.698103085424
1543475366552711000,90,1543475366552711000,/map,1.33774328232,18.5313243866,0.277626395226,0.00188834215255,-0.00871197589276,0.715922903486,0.698122433319
1543475366652754000,91,1543475366652754000,/map,1.33405280113,18.5315322876,0.288287401199,0.0017902245741,-0.0088781999982,0.715930484921,0.698112822845
1543475366752823000,92,1543475366752823000,/map,1.33764898777,18.5284137726,0.285560369492,0.00180370449165,-0.00883296800278,0.715911596636,0.698132731741
1543475366852962000,93,1543475366852962000,/map,1.33639907837,18.5364971161,0.283426523209,0.00178892010278,-0.00883325046941,0.715943655683,0.698099889227
1543475366953008000,94,1543475366953008000,/map,1.33891808987,18.5301742554,0.28379380703,0.00182165809925,-0.00880496725915,0.71587621001,0.698169324773
1543475367053107000,95,1543475367053107000,/map,1.33854091167,18.5365505219,0.283131837845,0.00177620689897,-0.00884965691511,0.71591151925,0.698132670247
1543475367153164000,96,1543475367153164000,/map,1.33727157116,18.5263080597,0.283986330032,0.00182780291479,-0.00877416778992,0.715889185393,0.698156391759
1543475367253254000,97,1543475367253254000,/map,1.33554780483,18.5342330933,0.283250689507,0.00180157974916,-0.00886222296573,0.715914301837,0.698129592368
1543475367353369000,98,1543475367353369000,/map,1.33837425709,18.5327587128,0.28457903862,0.00182497762489,-0.00883029400707,0.715892606588,0.698152183407
1543475367453416000,99,1543475367453416000,/map,1.3409614563,18.5274143219,0.286780834198,0.00184306042356,-0.00882262386968,0.715989114936,0.698053258519
1543475367553522000,100,1543475367553522000,/map,1.33769750595,18.5338401794,0.284153342247,0.00179452045616,-0.0088512338509,0.715913586697,0.698130483319
1543475367653633000,101,1543475367653633000,/map,1.33357727528,18.5325927734,0.287944316864,0.0017623547713,-0.00884684515665,0.715944611425,0.698098804474
1543475367753708000,102,1543475367753708000,/map,1.33978068829,18.5354061127,0.28468978405,0.00171819707481,-0.00883683919398,0.715965815621,0.698077294384
1543475367853802000,103,1543475367853802000,/map,1.33421075344,18.5354537964,0.28020966053,0.00191953940497,-0.00876380569576,0.715894007521,0.69815133107
1543475367953879000,104,1543475367953879000,/map,1.33678472042,18.5270557404,0.28120470047,0.00189030228245,-0.00874119157972,0.715928430523,0.698116394805
1543475368053972000,105,1543475368053972000,/map,1.33531785011,18.5331707001,0.283767461777,0.00184661899759,-0.00884871770302,0.715947198358,0.698095909855
1543475368154075000,106,1543475368154075000,/map,1.33972084522,18.5283870697,0.280376553535,0.00186368582968,-0.00875182667669,0.715943529143,0.698100848934
1543475368254175000,107,1543475368254175000,/map,1.33653235435,18.5373725891,0.285292506218,0.00180912458814,-0.00890210391226,0.71594444561,0.698098152422
1543475368354311000,108,1543475368354311000,/map,1.33746993542,18.5313549042,0.283221244812,0.00185122349317,-0.00877773825809,0.715933405936,0.698110938567
1543475368454390000,109,1543475368454390000,/map,1.33738923073,18.5338287354,0.287500739098,0.00173366636542,-0.00895690253158,0.715921409607,0.698121267091
1543475368554502000,110,1543475368554502000,/map,1.33438801765,18.5332336426,0.280801177025,0.00180330994626,-0.00871008447638,0.71594287298,0.698102202496
1543475368654608000,111,1543475368654608000,/map,1.34020066261,18.5293312073,0.286336064339,0.00179271587264,-0.00883470365496,0.715877072788,0.698168139374
1543475368754672000,112,1543475368754672000,/map,1.3349083662,18.5328731537,0.27909886837,0.00185605226945,-0.00873638980343,0.715931220734,0.698113685399
1543475368854722000,113,1543475368854722000,/map,1.33916378021,18.5333118439,0.286559343338,0.00180549159561,-0.00884698643678,0.715941897856,0.698101475378
1543475368954814000,114,1543475368954814000,/map,1.33865511417,18.5241336823,0.286327362061,0.0017756326166,-0.00882668215661,0.71590244514,0.698142267631
1543475369054917000,115,1543475369054917000,/map,1.33714795113,18.5357151031,0.282825827599,0.00183041652199,-0.00884052878315,0.715932030383,0.698111611777
1543475369155015000,116,1543475369155015000,/map,1.33972585201,18.5307598114,0.281782269478,0.00186517675775,-0.0087522096929,0.715940340242,0.698104110542
1543475369255177000,117,1543475369255177000,/map,1.33774781227,18.534078598,0.287457585335,0.00175123028274,-0.00883018150804,0.715866155271,0.698179496136
1543475369355222000,118,1543475369355222000,/map,1.33447468281,18.533372879,0.279778003693,0.00181922165099,-0.0087701533546,0.715923854071,0.698120913607
1543475369455365000,119,1543475369455365000,/map,1.33797156811,18.5270042419,0.285265088081,0.00185296861783,-0.00881540088216,0.715865052999,0.69818055051
1543475369555454000,120,1543475369555454000,/map,1.33564329147,18.5350494385,0.28199005127,0.00183138739705,-0.00876823306739,0.715916505011,0.69812844231
1543475369655566000,121,1543475369655566000,/map,1.33537876606,18.5337734222,0.287103772163,0.00179435016783,-0.0089120309566,0.715925814558,0.698117170725
1543475369755661000,122,1543475369755661000,/map,1.33959209919,18.5358524323,0.281981945038,0.00191747204673,-0.00874520777533,0.715901201283,0.698144193304
1543475369855776000,123,1543475369855776000,/map,1.33498740196,18.5362110138,0.286417961121,0.00179392056566,-0.00886995551937,0.715909836556,0.698134092894
1543475369955886000,124,1543475369955886000,/map,1.3392560482,18.5307025909,0.283602595329,0.00187774879937,-0.00879598795411,0.715961920423,0.698081394366
1543475370055959000,125,1543475370055959000,/map,1.33601343632,18.5311279297,0.282427787781,0.00181126399971,-0.00875896040351,0.715836900932,0.698210234242
1543475370156051000,126,1543475370156051000,/map,1.33770155907,18.5399742126,0.284533143044,0.00182150440812,-0.00887143733668,0.716092269789,0.697946875392
1543475370256190000,127,1543475370256190000,/map,1.33730149269,18.5362510681,0.282984972,0.00182050907207,-0.00876649302705,0.715902780474,0.69814256657
1543475370356317000,128,1543475370356317000,/map,1.33944880962,18.5326709747,0.282925128937,0.00182217978226,-0.00880717749538,0.715911626093,0.698132979389
1543475370456388000,129,1543475370456388000,/map,1.33747220039,18.5374965668,0.280748486519,0.00183199519299,-0.0087563568446,0.715784814125,0.698263610592
1543475370556523000,130,1543475370556523000,/map,1.33780801296,18.5302562714,0.27962064743,0.00192040852375,-0.00868270575929,0.715986512842,0.698057473336
1543475370656612000,131,1543475370656612000,/map,1.33859968185,18.5304203033,0.289049863815,0.00173393824783,-0.00886177148238,0.715875512108,0.698169545046
1543475370756713000,132,1543475370756713000,/map,1.33669018745,18.5360202789,0.283806443214,0.00179706065671,-0.00884686110929,0.716003601218,0.698038212897
1543475370856831000,133,1543475370856831000,/map,1.34023547173,18.5295562744,0.280672669411,0.0018139389369,-0.00876545915169,0.715960259077,0.698083650986
1543475370956936000,134,1543475370956936000,/map,1.33561038971,18.5336856842,0.287220716476,0.00180864272647,-0.00882551608412,0.715950722409,0.698092688802
1543475371057065000,135,1543475371057065000,/map,1.33924269676,18.5268325806,0.285258769989,0.00177134193234,-0.00882033097627,0.715903231053,0.698141552893
1543475371157154000,136,1543475371157154000,/map,1.33428120613,18.5342102051,0.281824827194,0.00189137990964,-0.00871727727742,0.715924873955,0.698120338202
1543475371257277000,137,1543475371257277000,/map,1.33503520489,18.5297412872,0.285454154015,0.00180348591902,-0.00882292046115,0.715894550042,0.698150339635
1543475371357410000,138,1543475371357410000,/map,1.33685398102,18.5366153717,0.280075192451,0.0018947994171,-0.00874539406199,0.715960830786,0.698083101499
1543475371457499000,139,1543475371457499000,/map,1.33762204647,18.5329017639,0.285440683365,0.00181614775637,-0.00882205416459,0.71592171042,0.698122465988
1543475371557610000,140,1543475371557610000,/map,1.33943164349,18.5359325409,0.280841112137,0.00183426659278,-0.00872701002649,0.715955684377,0.698088771411
1543475371657756000,141,1543475371657756000,/map,1.33502423763,18.5311965942,0.282432079315,0.00189222493642,-0.00875549268638,0.715940233884,0.69810410566
1543475371757828000,142,1543475371757828000,/map,1.34171938896,18.5312633514,0.283819675446,0.00182629285359,-0.00883949382546,0.715908480075,0.698135786333
1543475371857917000,143,1543475371857917000,/map,1.33692455292,18.5330867767,0.285478949547,0.00181791925287,-0.00877807118012,0.715986609182,0.698056456247
1543475371958066000,144,1543475371958066000,/map,1.33406746387,18.5340595245,0.287281870842,0.00184868987805,-0.00876090691966,0.715987794868,0.69805537492
1543475372058198000,145,1543475372058198000,/map,1.33995842934,18.5274200439,0.283568382263,0.00189337431674,-0.00878349937492,0.715917530929,0.698127032983
1543475372158291000,146,1543475372158291000,/map,1.33609926701,18.5358715057,0.285997390747,0.00182659946999,-0.00884754563785,0.715957122899,0.698085798911
1543475372258424000,147,1543475372258424000,/map,1.33496081829,18.5314064026,0.285044312477,0.00184051008091,-0.00878396324483,0.715891437734,0.698153925644
1543475372358533000,148,1543475372358533000,/map,1.33958566189,18.5343151093,0.282038211823,0.00184746635751,-0.00881257512827,0.716003488669,0.698038630451
1543475372458677000,149,1543475372458677000,/map,1.33234536648,18.5380153656,0.285917401314,0.00187951096352,-0.0088070555321,0.71589936868,0.698145398277
1543475372558770000,150,1543475372558770000,/map,1.33916079998,18.5346031189,0.283485412598,0.00178850009212,-0.0087956992682,0.715882739235,0.698162832444
1543475372658892000,151,1543475372658892000,/map,1.33543133736,18.5313072205,0.279819726944,0.00188605754576,-0.00869096998961,0.715929953804,0.69811547116
1543475372758996000,152,1543475372758996000,/map,1.33935844898,18.5339679718,0.288403153419,0.00181085702535,-0.0088377856352,0.715840093763,0.698205968539
1543475372859121000,153,1543475372859121000,/map,1.3347376585,18.5319805145,0.284316658974,0.00177441344508,-0.00884142169188,0.715966579384,0.698076312393
1543475372959253000,154,1543475372959253000,/map,1.3369987011,18.5350494385,0.280876636505,0.00188569557217,-0.00870645563782,0.715832469281,0.698215237377
1543475373059367000,155,1543475373059367000,/map,1.33965837955,18.532207489,0.286983847618,0.00180048166851,-0.00883590440326,0.715991563307,0.698050690375
1543475373159514000,156,1543475373159514000,/map,1.33307039738,18.5368232727,0.281688809395,0.00189531527511,-0.00874934740668,0.715939299049,0.698105133041
1543475373259636000,157,1543475373259636000,/map,1.33678483963,18.5292053223,0.284066677094,0.00180620446844,-0.00879020558815,0.715938013288,0.698106174618
1543475373359712000,158,1543475373359712000,/map,1.33626115322,18.5316066742,0.28210413456,0.00178772272798,-0.00877891622718,0.715904636282,0.698140592164
1543475373459881000,159,1543475373459881000,/map,1.33291232586,18.5376605988,0.281476140022,0.00189577926295,-0.00879634854617,0.716081396216,0.697958784074
1543475373559962000,160,1543475373559962000,/map,1.33526349068,18.5294342041,0.28374505043,0.00181311596239,-0.00877567871355,0.715910539642,0.69813451376
1543475373660103000,161,1543475373660103000,/map,1.33295786381,18.5383987427,0.283961415291,0.00187868025127,-0.00880939754971,0.715960583083,0.698082594358
1543475373760231000,162,1543475373760231000,/map,1.33719146252,18.5340538025,0.279765367508,0.00191497525987,-0.00873530155287,0.715960174939,0.69808384545
1543475373860378000,163,1543475373860378000,/map,1.33972382545,18.5321502686,0.286118865013,0.00168857006029,-0.00884857893086,0.71593028581,0.698113656393
1543475373960482000,164,1543475373960482000,/map,1.33839929104,18.5327167511,0.280479073524,0.00188879981034,-0.00877030580881,0.715909102611,0.698135854236
1543475374060614000,165,1543475374060614000,/map,1.33475959301,18.5299301147,0.284105300903,0.00178256830252,-0.00872667098791,0.715952438649,0.698092238359
1543475374160709000,166,1543475374160709000,/map,1.33768582344,18.5367851257,0.286016583443,0.00179734903198,-0.00887452464786,0.715858876479,0.69818627981
1543475374260870000,167,1543475374260870000,/map,1.33419489861,18.5318870544,0.282460689545,0.00181204864448,-0.0087512668415,0.715924247628,0.698120765675
1543475374360987000,168,1543475374360987000,/map,1.33951580524,18.5328197479,0.285713434219,0.00174817161286,-0.00881819551406,0.715928522819,0.698115702114
1543475374461079000,169,1543475374461079000,/map,1.34044480324,18.5281829834,0.282101631165,0.0018566610893,-0.00880875512857,0.715916102883,0.698128277808
1543475374561242000,170,1543475374561242000,/map,1.33675205708,18.5345458984,0.283817529678,0.00182166140199,-0.00877955153359,0.715949360101,0.69809463169
1543475374661338000,171,1543475374661338000,/map,1.34224629402,18.5324249268,0.282482147217,0.00178767116258,-0.00878007130802,0.715912974018,0.69813202778
1543475374761492000,172,1543475374761492000,/map,1.3367677927,18.5292034149,0.283817529678,0.00189453564962,-0.00876719812646,0.715954681014,0.698089135932
1543475374861621000,173,1543475374861621000,/map,1.33674037457,18.5326309204,0.279532074928,0.00184729304138,-0.00870201382893,0.715889600982,0.698156817391
1543475374961710000,174,1543475374961710000,/map,1.3350058794,18.5303478241,0.28681576252,0.00175794992821,-0.00883863985152,0.715876461527,0.698168804723
1543475375061856000,175,1543475375061856000,/map,1.33764541149,18.5344352722,0.282853603363,0.00180314295945,-0.00878649599873,0.715961577462,0.69808206234
1543475375161976000,176,1543475375161976000,/map,1.33989715576,18.5270137787,0.286006093025,0.00176919031679,-0.00884611983305,0.715899973101,0.698144572881
1543475375262111000,177,1543475375262111000,/map,1.33435165882,18.5337905884,0.28364276886,0.00191095171667,-0.00875763078865,0.71595088796,0.698093101381
1543475375362321000,178,1543475375362321000,/map,1.33501052856,18.5289516449,0.287143707275,0.00175004384513,-0.00879081182576,0.715897465143,0.698147891478
1543475375462386000,179,1543475375462386000,/map,1.33726775646,18.5344047546,0.281657099724,0.00184861241778,-0.00875975147304,0.715928348211,0.69811635822
1543475375562516000,180,1543475375562516000,/map,1.33726656437,18.5288906097,0.285578608513,0.00176637162089,-0.00883998782634,0.715907869077,0.69813656081
1543475375662672000,181,1543475375662672000,/map,1.33492684364,18.5324306488,0.278930783272,0.00190001381337,-0.00877773525968,0.715944353837,0.698099579946
1543475375762800000,182,1543475375762800000,/map,1.33856654167,18.5302352905,0.287050127983,0.00179085285267,-0.0088540904492,0.71587368934,0.698171367817
1543475375862957000,183,1543475375862957000,/map,1.33576440811,18.5309333801,0.279058814049,0.00185468518255,-0.00875160814223,0.715938074755,0.698106469397
1543475375963085000,184,1543475375963085000,/map,1.33835279942,18.5338802338,0.288261890411,0.00181055440749,-0.00884580747802,0.715926219417,0.698117555956
1543475376063198000,185,1543475376063198000,/map,1.33867037296,18.5282058716,0.282404899597,0.00182121011822,-0.00874957633481,0.715935688776,0.698109029912
1543475376163367000,186,1543475376163367000,/map,1.33974671364,18.5330524445,0.287549853325,0.00177167709108,-0.00884244812903,0.715907190085,0.698137212485
1543475376263474000,187,1543475376263474000,/map,1.33703160286,18.5320396423,0.283468723297,0.001894086403,-0.00882978824892,0.716007563611,0.698034108141
1543475376363577000,188,1543475376363577000,/map,1.33975994587,18.5302658081,0.287400126457,0.00162403507237,-0.00882967289548,0.715587712721,0.698465192254
1543475376463731000,189,1543475376463731000,/map,1.33216166496,18.5362319946,0.282987356186,0.00191086275467,-0.00885607339764,0.716073915749,0.697965662301
1543475376563868000,190,1543475376563868000,/map,1.34011077881,18.5326194763,0.284262061119,0.001799678786,-0.00885644029689,0.715971104666,0.69807141605
1543475376663993000,191,1543475376663993000,/map,1.33734214306,18.5336494446,0.287134170532,0.00183884007158,-0.00889757856605,0.715955141249,0.698087163241
1543475376764149000,192,1543475376764149000,/map,1.33487582207,18.5335407257,0.277348160744,0.00185264854251,-0.00863226561364,0.715930848856,0.698115371082
1543475376864287000,193,1543475376864287000,/map,1.33499002457,18.529499054,0.286842942238,0.00179378066025,-0.00884055010909,0.715905128448,0.698139294186
1543475376964394000,194,1543475376964394000,/map,1.33260536194,18.5321063995,0.282140254974,0.00187312571935,-0.00875336451898,0.715963275088,0.698080553185
1543475377064535000,195,1543475377064535000,/map,1.34158074856,18.5278053284,0.281395673752,0.00178078510612,-0.00881877939875,0.715921861288,0.698122443747
1543475377164715000,196,1543475377164715000,/map,1.33559858799,18.5311412811,0.285427927971,0.00184800125019,-0.00883858484155,0.71590989214,0.698134292701
1543475377264860000,197,1543475377264860000,/map,1.33606112003,18.5342025757,0.282435655594,0.00182964259501,-0.00872670602263,0.716007811217,0.698035322377
1543475377365014000,198,1543475377365014000,/map,1.34321129322,18.5284233093,0.282285928726,0.00179897025629,-0.00880469029317,0.715892517224,0.69815266591
1543475377465127000,199,1543475377465127000,/map,1.33752477169,18.531671524,0.284797549248,0.00185749700285,-0.0088511160681,0.715925084898,0.698118528807
1543475377565285000,200,1543475377565285000,/map,1.33987545967,18.5292625427,0.279703021049,0.00181753280916,-0.00873837103577,0.715983226293,0.698060425116
1543475377665405000,201,1543475377665405000,/map,1.33771348,18.5327320099,0.287101507187,0.00182131936378,-0.00880422929401,0.715910521325,0.69813415172
1543475377765557000,202,1543475377765557000,/map,1.33643126488,18.5288085938,0.2826359272,0.00177921938511,-0.00870208455922,0.715931415015,0.698114114667
1543475377865710000,203,1543475377865710000,/map,1.33682060242,18.5342636108,0.283958554268,0.00183442098425,-0.0088095755606,0.715910901584,0.698133660034
1543475377965843000,204,1543475377965843000,/map,1.33577263355,18.5301628113,0.284833431244,0.00189411020912,-0.0088520215742,0.71598516558,0.698056800504
1543475378065967000,205,1543475378065967000,/map,1.33883070946,18.534614563,0.285190463066,0.0018179923162,-0.00877975814497,0.71588025653,0.698165502629
1543475378166117000,206,1543475378166117000,/map,1.33417189121,18.5317649841,0.280449509621,0.00182789594179,-0.00881054039727,0.715959418714,0.698083908945
1543475378266268000,207,1543475378266268000,/map,1.33584463596,18.5350532532,0.28843331337,0.00181858419039,-0.00887508189294,0.715904921546,0.698139004052
1543475378366397000,208,1543475378366397000,/map,1.33481144905,18.5288352966,0.281449198723,0.00181869787683,-0.00877224294068,0.715903933631,0.698141316571
1543475378466568000,209,1543475378466568000,/map,1.33666682243,18.5318317413,0.286694645882,0.00179838746106,-0.00879031887842,0.715892376845,0.698152992453
1543475378566688000,210,1543475378566688000,/map,1.33721745014,18.5293998718,0.288596630096,0.00180111578315,-0.00903872733008,0.716163922713,0.697871258324
1543475378666809000,211,1543475378666809000,/map,1.33534836769,18.5370521545,0.282712697983,0.00175188672985,-0.00879241566082,0.715891779611,0.698153696693
1543475378766960000,212,1543475378766960000,/map,1.33644795418,18.5364341736,0.287609815598,0.00184384362497,-0.00878435171791,0.716051951643,0.69798928212
1543475378867125000,213,1543475378867125000,/map,1.33698046207,18.5311450958,0.28092777729,0.00180563112476,-0.00873731278309,0.715802255509,0.698246038349
1543475378967243000,214,1543475378967243000,/map,1.33852350712,18.5337371826,0.282586574554,0.00181294317333,-0.00878440831382,0.715996601863,0.698046139971
1543475379067373000,215,1543475379067373000,/map,1.33819615841,18.5292778015,0.282674074173,0.00186772006952,-0.00871190395694,0.715860236076,0.698186749199
1543475379167541000,216,1543475379167541000,/map,1.33320462704,18.5344619751,0.281685352325,0.00182392453907,-0.00877639874131,0.715929679553,0.69811484876
1543475379267703000,217,1543475379267703000,/map,1.33740770817,18.5318832397,0.287320017815,0.00173954863894,-0.00893139523893,0.715901070022,0.698142436822
1543475379367846000,218,1543475379367846000,/map,1.33166444302,18.5365657806,0.283074140549,0.00182557067524,-0.00878495070537,0.715925385505,0.698119140493
1543475379467978000,219,1543475379467978000,/map,1.33354783058,18.5322723389,0.284757971764,0.00183792392883,-0.00878105269864,0.715967990035,0.698075463252
1543475379568094000,220,1543475379568094000,/map,1.33839583397,18.5349216461,0.280117988586,0.00181593912329,-0.00881111729139,0.715892119461,0.698152948766
1543475379668259000,221,1543475379668259000,/map,1.33278524876,18.5304298401,0.287063002586,0.00176585865939,-0.0088405842674,0.715892907104,0.698151897062
1543475379768449000,222,1543475379768449000,/map,1.33603274822,18.5291213989,0.284612417221,0.00182608257339,-0.0088347030279,0.715974350444,0.698068293902
1543475379868556000,223,1543475379868556000,/map,1.33776974678,18.5361309052,0.28008544445,0.00183984918938,-0.00876342576771,0.715874205133,0.698171855455
1543475379968707000,224,1543475379968707000,/map,1.33577620983,18.5298709869,0.287692427635,0.00174401679801,-0.00886607482025,0.715885626196,0.698159094569
1543475380068863000,225,1543475380068863000,/map,1.33594787121,18.5364074707,0.282470345497,0.0018591253838,-0.0087864156001,0.71594670563,0.698097168918
1543475380169015000,226,1543475380169015000,/map,1.33735072613,18.5300979614,0.287144780159,0.00178207466353,-0.00885955116597,0.715899290713,0.698145069537
1543475380269180000,227,1543475380269180000,/map,1.33668935299,18.5321521759,0.280422449112,0.00179476380529,-0.00878487962872,0.715960130292,0.698083588509
1543475380369333000,228,1543475380369333000,/map,1.33532679081,18.5314598083,0.286942839622,0.00177494947777,-0.00883159590895,0.715946220248,0.698097315695
1543475380469465000,229,1543475380469465000,/map,1.33527004719,18.5355300903,0.283041596413,0.00184969692996,-0.00887280078688,0.715895003354,0.698149121749
1543475380569623000,230,1543475380569623000,/map,1.33854866028,18.5302562714,0.287843704224,0.00179094223898,-0.00887765867576,0.715917808972,0.698125827125
1543475380669759000,231,1543475380669759000,/map,1.3362416029,18.5339984894,0.283362865448,0.00182362077658,-0.00880677257719,0.715901505445,0.698143358964
1543475380769900000,232,1543475380769900000,/map,1.33616685867,18.5290107727,0.283962488174,0.00182918888291,-0.00880499960063,0.715909353444,0.698135319048
1543475380870054000,233,1543475380870054000,/map,1.33671426773,18.5337047577,0.286750912666,0.00168322282592,-0.00884697170223,0.715912640506,0.698131784849
1543475380970180000,234,1543475380970180000,/map,1.33669114113,18.5365791321,0.278821825981,0.00195942080801,-0.00874515246273,0.715956368211,0.698087502966
1543475381070331000,235,1543475381070331000,/map,1.3364636898,18.5328140259,0.287708044052,0.00177598458995,-0.00891008996002,0.715938749381,0.698103977435
1543475381170497000,236,1543475381170497000,/map,1.33610033989,18.5333557129,0.281939268112,0.00184732994637,-0.0087874770793,0.715930480607,0.698113826361
1543475381270636000,237,1543475381270636000,/map,1.34216117859,18.5283164978,0.283851981163,0.00181885953615,-0.00876843253919,0.715945525432,0.698098711469
1543475381370793000,238,1543475381370793000,/map,1.33646082878,18.5318851471,0.283257365227,0.00179046951898,-0.00879550518144,0.715928001795,0.698116415474
1543475381470957000,239,1543475381470957000,/map,1.33875775337,18.5313587189,0.28743493557,0.00182171604823,-0.00881863193595,0.715932464006,0.69811146679
1543475381571129000,240,1543475381571129000,/map,1.33604240417,18.5268154144,0.284081459045,0.00171027464117,-0.00889662124087,0.715936720375,0.698106394119
1543475381671243000,241,1543475381671243000,/map,1.33855068684,18.5327682495,0.280621409416,0.00183843896468,-0.00878760436555,0.715946761239,0.698097151708
1543475381771436000,242,1543475381771436000,/map,1.33367097378,18.5324172974,0.285989880562,0.00173658005794,-0.00888162233376,0.715934260046,0.698109043322
1543475381871543000,243,1543475381871543000,/map,1.33777058125,18.5370960236,0.283885359764,0.00177950039931,-0.0088677932222,0.715941210288,0.698101983261
1543475381971704000,244,1543475381971704000,/map,1.336114645,18.530834198,0.281132102013,0.00189959943562,-0.00870743845821,0.71594709686,0.698097648281
1543475382071855000,245,1543475382071855000,/map,1.33821022511,18.5376987457,0.28652048111,0.00181401986407,-0.00883883994189,0.715944442001,0.698098947291
1543475382172006000,246,1543475382172006000,/map,1.33786642551,18.5328922272,0.282119870186,0.00183260265061,-0.00880159182674,0.715933753921,0.698110330496
1543475382272179000,247,1543475382272179000,/map,1.33607053757,18.5385456085,0.284066200256,0.00181763032547,-0.00877005714775,0.715922381566,0.698122429012
1543475382372364000,248,1543475382372364000,/map,1.33456075191,18.5306968689,0.285500526428,0.00175356164869,-0.00884826454017,0.715890140083,0.698154668085
1543475382472505000,249,1543475382472505000,/map,1.33831596375,18.5331783295,0.284710407257,0.00181358513651,-0.00887489195575,0.715922175496,0.698121326014
1543475382572650000,250,1543475382572650000,/map,1.3329846859,18.5319957733,0.286410093307,0.00180578722385,-0.00882326566218,0.715919582789,0.698124659423
1543475382672799000,251,1543475382672799000,/map,1.34110033512,18.5316944122,0.286501407623,0.00174819662748,-0.00885620252547,0.715929863597,0.698113845942
1543475382772980000,252,1543475382772980000,/map,1.33725059032,18.5237941742,0.285825848579,0.00172582986722,-0.00885417939208,0.715925669695,0.69811822816
1543475382873116000,253,1543475382873116000,/map,1.33605563641,18.5309467316,0.283751010895,0.00175737514967,-0.00880863998493,0.715941719276,0.698102266215
1543475382973286000,254,1543475382973286000,/map,1.34102487564,18.5279464722,0.28426527977,0.00186387196447,-0.00889618753367,0.71591263307,0.698130708134
1543475383073434000,255,1543475383073434000,/map,1.33739948273,18.5334777832,0.28386425972,0.00177348874519,-0.00877344507222,0.715913799719,0.698131300524
1543475383173590000,256,1543475383173590000,/map,1.33904623985,18.5304279327,0.286185503006,0.00181174530732,-0.00886852528728,0.715952102762,0.698090720028
1543475383273766000,257,1543475383273766000,/map,1.33585977554,18.5341072083,0.282178163528,0.00186047588128,-0.00878122221857,0.715909742519,0.69813513687
1543475383373920000,258,1543475383373920000,/map,1.33939385414,18.5299453735,0.287688732147,0.00168585068124,-0.00884407163994,0.715931170547,0.698112812763
1543475383474041000,259,1543475383474041000,/map,1.33723688126,18.5332660675,0.28234744072,0.00184288359735,-0.00880581395589,0.715907755538,0.698136911344
1543475383574227000,260,1543475383574227000,/map,1.33411204815,18.5372695923,0.27800142765,0.00183266733322,-0.00877000537449,0.716012172146,0.698030298536
1543475383674386000,261,1543475383674386000,/map,1.33502483368,18.5282707214,0.284883499146,0.00180394199788,-0.00886799187883,0.71593066183,0.698112735857
1543475383774522000,262,1543475383774522000,/map,1.33948683739,18.5325489044,0.286369085312,0.00173715953267,-0.00888500811614,0.715940824159,0.698102267013
1543475383874688000,263,1543475383874688000,/map,1.33533763885,18.5295677185,0.283497452736,0.00180351594041,-0.00880896057603,0.715919470235,0.698124961366
1543475383974849000,264,1543475383974849000,/map,1.34133219719,18.5312538147,0.286621809006,0.0017878263626,-0.00890393611238,0.715901690424,0.698142029423
1543475384075064000,265,1543475384075064000,/map,1.33691084385,18.5336914062,0.283641457558,0.00177394073689,-0.00883120339827,0.715925298295,0.698118779466
1543475384175162000,266,1543475384175162000,/map,1.34017705917,18.5317993164,0.283518314362,0.00190154283533,-0.00875944945962,0.715926914388,0.698117690247
1543475384275334000,267,1543475384275334000,/map,1.33495497704,18.5327129364,0.285768866539,0.00166547446815,-0.00879914197943,0.71590828112,0.698136902276
1543475384375485000,268,1543475384375485000,/map,1.34181475639,18.5291252136,0.282899260521,0.00185043891674,-0.00885439982815,0.715938301595,0.698104951843
1543475384475672000,269,1543475384475672000,/map,1.33736097813,18.5363349915,0.285034298897,0.00182565022144,-0.00877482101591,0.715921442913,0.698123310809
1543475384575796000,270,1543475384575796000,/map,1.33525419235,18.532201767,0.286274194717,0.00168368194787,-0.00882057094197,0.715905520574,0.698139418995
1543475384675977000,271,1543475384675977000,/map,1.33779799938,18.5342826843,0.28120470047,0.00189439041121,-0.00888323790841,0.716043912619,0.697996142232
1543475384776107000,272,1543475384776107000,/map,1.33758854866,18.5302085876,0.284561038017,0.00177134838736,-0.00880874013668,0.715836604579,0.698210014227
1543475384876261000,273,1543475384876261000,/map,1.3377058506,18.5347652435,0.285488724709,0.00188408059283,-0.00889597174624,0.716077687974,0.697961357607
1543475384976428000,274,1543475384976428000,/map,1.33823668957,18.5282020569,0.279633879662,0.00183185726215,-0.00876254093802,0.715910513294,0.698134656875
1543475385076592000,275,1543475385076592000,/map,1.33924102783,18.5309734344,0.282447576523,0.00185017908127,-0.00880229225855,0.716006350724,0.698035817284
1543475385176802000,276,1543475385176802000,/map,1.3329474926,18.5398769379,0.280885100365,0.0017429837917,-0.0088118206157,0.71588258823,0.69816289911
1543475385276946000,277,1543475385276946000,/map,1.33823120594,18.5341320038,0.279712915421,0.00186418530863,-0.00876328626406,0.71591515319,0.698129803876
1543475385377093000,278,1543475385377093000,/map,1.33199357986,18.5315284729,0.278920173645,0.00184573889499,-0.00871112969425,0.715955296502,0.698089337318
1543475385477255000,279,1543475385477255000,/map,1.34007847309,18.5321273804,0.28177857399,0.00183695478818,-0.00877933482125,0.71592797213,0.698116528668
1543475385577426000,280,1543475385577426000,/map,1.33302474022,18.5380020142,0.279906153679,0.00180024519903,-0.00876945660265,0.715921164868,0.698123729322
1543475385677551000,281,1543475385677551000,/map,1.33724308014,18.5337772369,0.282215237617,0.00187405031346,-0.00876927007889,0.715944900378,0.698099196003
1543475385777728000,282,1543475385777728000,/map,1.34202110767,18.5276489258,0.28518640995,0.00178111400259,-0.00883507392929,0.715906929813,0.698137548731
1543475385877895000,283,1543475385877895000,/map,1.33619475365,18.5323524475,0.283148527145,0.00176466071582,-0.00876693362801,0.715944378361,0.698100045796
1543475385978099000,284,1543475385978099000,/map,1.34110701084,18.5322437286,0.285021662712,0.00180093444283,-0.00888303938564,0.715947452146,0.698095333039
1543475386078222000,285,1543475386078222000,/map,1.33702528477,18.5356235504,0.282767176628,0.00177652751573,-0.00886535053355,0.715961198713,0.698081522064
1543475386178416000,286,1543475386178416000,/map,1.34120976925,18.5296592712,0.28274667263,0.00185595354467,-0.00873115388763,0.715916448106,0.698128900504
1543475386278561000,287,1543475386278561000,/map,1.34067058563,18.5348453522,0.281716704369,0.00182430402031,-0.00886155956226,0.715956874663,0.698085881751
1543475386378741000,288,1543475386378741000,/map,1.33430373669,18.5320186615,0.284818053246,0.00174558603795,-0.00874286375426,0.715897819672,0.698148141193
1543475386478909000,289,1543475386478909000,/map,1.33860433102,18.5290851593,0.278390407562,0.00191259905922,-0.00881490669691,0.715932062579,0.698111682438
1543475386579031000,290,1543475386579031000,/map,1.33605360985,18.5368251801,0.28397321701,0.00179827238341,-0.00877757782712,0.715924560349,0.698120150284
1543475386679210000,291,1543475386679210000,/map,1.33691751957,18.5300865173,0.282280087471,0.0018185901383,-0.00883677757999,0.715920346154,0.698123672464
1543475386779388000,292,1543475386779388000,/map,1.33246767521,18.5330352783,0.289230704308,0.00173245479901,-0.00887011109499,0.715927948076,0.698115673004
1543475386879575000,293,1543475386879575000,/map,1.33639204502,18.5293579102,0.284291148186,0.00178829252259,-0.00879917203967,0.71596652139,0.698076870287
1543475386979747000,294,1543475386979747000,/map,1.33353924751,18.5324954987,0.283146619797,0.00190648099295,-0.0087993351647,0.715852704175,0.698193270489
1543475387079914000,295,1543475387079914000,/map,1.33197927475,18.5295200348,0.289286971092,0.00164607752472,-0.00889211644868,0.715949738864,0.698093254597
1543475387180041000,296,1543475387180041000,/map,1.33643364906,18.5347766876,0.282633423805,0.00186654113192,-0.00878973221963,0.715907520564,0.698137292107
1543475387280185000,297,1543475387280185000,/map,1.33665835857,18.5294914246,0.286299347878,0.00168218234655,-0.00889052524984,0.715871956166,0.69817295221
1543475387380389000,298,1543475387380389000,/map,1.33308196068,18.5320529938,0.280884385109,0.00188774439617,-0.00869644770753,0.71592082895,0.698124755967
1543475387480504000,299,1543475387480504000,/map,1.34051012993,18.5344409943,0.286243081093,0.00182892628789,-0.00887714401512,0.715935934718,0.698107147021
1543475387580729000,300,1543475387580729000,/map,1.33725523949,18.5330696106,0.281655311584,0.00180818407937,-0.00878283602507,0.715921712128,0.698122979399
1543475387680908000,301,1543475387680908000,/map,1.33690071106,18.527135849,0.286631822586,0.00186281093642,-0.00885216358818,0.715965532621,0.698077019557
1543475387781033000,302,1543475387781033000,/map,1.33925962448,18.5353279114,0.284631490707,0.00183076805728,-0.00880831069847,0.715942332199,0.698101453169
1543475387881170000,303,1543475387881170000,/map,1.33831942081,18.5295410156,0.282203316689,0.00180768737535,-0.00880355876562,0.715958157004,0.698085343665
1543475387981348000,304,1543475387981348000,/map,1.33798658848,18.5327262878,0.285586118698,0.0018051499216,-0.00885528435061,0.715924977778,0.698118723117
1543475388081549000,305,1543475388081549000,/map,1.3350982666,18.5311737061,0.279203891754,0.00186651864071,-0.00874689466859,0.715974829394,0.698068801491
1543475388181707000,306,1543475388181707000,/map,1.34072041512,18.5353794098,0.284877538681,0.00182997028704,-0.00883871461535,0.715966247776,0.698076543352
1543475388281877000,307,1543475388281877000,/map,1.33620548248,18.5325908661,0.283042311668,0.00185470317204,-0.0087498245932,0.715928669956,0.698116136599
1543475388382042000,308,1543475388382042000,/map,1.3366048336,18.53033638,0.288657546043,0.00177129760062,-0.00870008981071,0.71591760803,0.69812831876
1543475388482259000,309,1543475388482259000,/map,1.33942770958,18.5331516266,0.282226800919,0.00184503003263,-0.00879767898491,0.715952556214,0.698091064231
1543475388582391000,310,1543475388582391000,/map,1.33571171761,18.5317325592,0.287154793739,0.0018006507717,-0.00887773328161,0.715953988295,0.698088697912
1543475388682521000,311,1543475388682521000,/map,1.33625459671,18.5348205566,0.282691955566,0.00179214029154,-0.0087920445411,0.715971590986,0.698071750673
1543475388782726000,312,1543475388782726000,/map,1.34016346931,18.5283088684,0.284495949745,0.00185966343796,-0.00877358619629,0.715921982752,0.69812268295
1543475388882894000,313,1543475388882894000,/map,1.33473348618,18.5310630798,0.287015914917,0.00176968775603,-0.00886394374352,0.715941703015,0.698101551775
1543475388983042000,314,1543475388983042000,/map,1.33851134777,18.5265274048,0.287870883942,0.00174400425441,-0.00890187882367,0.715918696543,0.698124727354
1543475389083190000,315,1543475389083190000,/map,1.33814179897,18.5319957733,0.284554481506,0.00181385269842,-0.00880448441765,0.715934626789,0.698109447835
1543475389183402000,316,1543475389183402000,/map,1.33914589882,18.5356769562,0.281653165817,0.0017903265094,-0.00880089093605,0.715941526596,0.698102477825
1543475389283532000,317,1543475389283532000,/map,1.3349519968,18.5305919647,0.282701015472,0.00186075259099,-0.00871665206971,0.715923610983,0.698121723494
1543475389383729000,318,1543475389383729000,/map,1.3397616148,18.53074646,0.28307056427,0.00180873001458,-0.00884967461394,0.715925313233,0.698118440973
1543475389483904000,319,1543475389483904000,/map,1.33427667618,18.5318470001,0.284627914429,0.00182898207312,-0.00871027731531,0.715911411833,0.698134397019
1543475389584040000,320,1543475389584040000,/map,1.33962464333,18.531627655,0.286964774132,0.00169275390503,-0.00891795078628,0.715914838528,0.698128604709
1543475389684225000,321,1543475389684225000,/map,1.33307540417,18.5299453735,0.281076073647,0.00186334309466,-0.00880642454497,0.715918519722,0.698125810981
1543475389784403000,322,1543475389784403000,/map,1.33502030373,18.5362262726,0.286216139793,0.00180146621314,-0.00884921141351,0.715923417903,0.698120409296
1543475389884570000,323,1543475389884570000,/map,1.3324072361,18.5320987701,0.281144499779,0.00180198905652,-0.00874475183811,0.715903695064,0.698141949424
1543475389984767000,324,1543475389984767000,/map,1.33841204643,18.5340499878,0.284349679947,0.00189475110485,-0.0087744664635,0.715915071563,0.698129664866
1543475390084885000,325,1543475390084885000,/map,1.33746504784,18.5298423767,0.285730242729,0.00178476378258,-0.0088903629609,0.715945038,0.698097757214
1543475390185095000,326,1543475390185095000,/map,1.3349288702,18.5365524292,0.282745480537,0.00183532302957,-0.00871794369134,0.715904936861,0.698140924473
1543475390285264000,327,1543475390285264000,/map,1.33823549747,18.5312843323,0.284255862236,0.00181374008268,-0.00882283001142,0.715941243554,0.698102430733
1543475390385424000,328,1543475390385424000,/map,1.33755743504,18.5360050201,0.283826828003,0.00183460779378,-0.0089149140334,0.715968392152,0.698073362879
1543475390485565000,329,1543475390485565000,/map,1.33785736561,18.5298061371,0.279310464859,0.00191770144768,-0.00874170489407,0.715932311487,0.698112333644
1543475390585779000,330,1543475390585779000,/map,1.33190262318,18.5318756104,0.285818099976,0.00181047163922,-0.00878658524475,0.715936187117,0.698108081953
1543475390685960000,331,1543475390685960000,/map,1.33780133724,18.5289058685,0.284823298454,0.0017155322904,-0.00885093487835,0.71591973623,0.698124379446
1543475390786103000,332,1543475390786103000,/map,1.3354370594,18.5317459106,0.282886862755,0.00190881266954,-0.00878263992462,0.715913080038,0.69813156604
1543475390886319000,333,1543475390886319000,/map,1.33402860165,18.5359382629,0.286790728569,0.00178889138082,-0.00886535291427,0.716065271055,0.69797473663
1543475390986459000,334,1543475390986459000,/map,1.33944666386,18.5323143005,0.283348679543,0.00185542782712,-0.00876309125348,0.715940765202,0.698103564195
1543475391086673000,335,1543475391086673000,/map,1.33188712597,18.5321483612,0.285723567009,0.00180368774468,-0.00888431496659,0.715919541064,0.698123933397
1543475391186789000,336,1543475391186789000,/map,1.33598327637,18.5324459076,0.280742526054,0.00183215640784,-0.00878866831568,0.715957184868,0.698086464521
1543475391286983000,337,1543475391286983000,/map,1.33795583248,18.5254192352,0.282958865166,0.00185103927355,-0.0087382077745,0.715921204793,0.698123947381
1543475391387133000,338,1543475391387133000,/map,1.34065151215,18.5314311981,0.281102180481,0.00190992949828,-0.00877428842447,0.715892920302,0.698152340606
1543475391487294000,339,1543475391487294000,/map,1.33763086796,18.5295028687,0.284485459328,0.00180748792813,-0.00880814595718,0.715935991372,0.698108018726
1543475391587482000,340,1543475391587482000,/map,1.34025299549,18.5353965759,0.282831788063,0.001772845556,-0.0088121387802,0.715951463974,0.698092189086
1543475391687723000,341,1543475391687723000,/map,1.34017503262,18.5304317474,0.282807469368,0.00183174166277,-0.00884400321139,0.715943561867,0.698099738254
1543475391787837000,342,1543475391787837000,/map,1.33330047131,18.5338172913,0.286319613457,0.00171639782111,-0.00880290284818,0.715901518876,0.698143665838
1543475391887998000,343,1543475391887998000,/map,1.33773565292,18.531206131,0.283203244209,0.00187419914503,-0.0087287380468,0.715931312212,0.698113638818
1543475391988193000,344,1543475391988193000,/map,1.34239280224,18.5283946991,0.282779812813,0.00194131517256,-0.00865196483528,0.71595243908,0.698092744393
1543475392088334000,345,1543475392088334000,/map,1.3365380764,18.5346069336,0.284014344215,0.0017318303728,-0.00881996553696,0.715951902887,0.698091743057
1543475392188537000,346,1543475392188537000,/map,1.33795082569,18.5286083221,0.283905625343,0.00183088902168,-0.00884309919002,0.715910947601,0.698133198284
1543475392288726000,347,1543475392288726000,/map,1.3364803791,18.5331058502,0.285186767578,0.0018000867741,-0.00877452838457,0.715933255685,0.698111266736
1543475392388857000,348,1543475392388857000,/map,1.33269047737,18.5289306641,0.283439993858,0.00181369217902,-0.00885452635909,0.715910467134,0.698133591035
1543475392489065000,349,1543475392489065000,/map,1.33818387985,18.5320320129,0.285836100578,0.00184347615819,-0.00881783710384,0.715939686194,0.698104013079
1543475392589217000,350,1543475392589217000,/map,1.33332514763,18.5268802643,0.285776257515,0.00176576526882,-0.00890119859751,0.715932182024,0.698110851856
1543475392689393000,351,1543475392689393000,/map,1.33929741383,18.534412384,0.284471154213,0.00184600930237,-0.00883184938463,0.715933609361,0.698110061289
1543475392789560000,352,1543475392789560000,/map,1.33344578743,18.5322570801,0.284466385841,0.00177833980664,-0.00884109443739,0.715943656387,0.698099816241
1543475392889742000,353,1543475392889742000,/map,1.34043121338,18.531162262,0.282114386559,0.00189917722122,-0.00876734786333,0.715926357537,0.698118168595
1543475392989943000,354,1543475392989943000,/map,1.33508121967,18.5309276581,0.286937117577,0.00182097345874,-0.00889288240696,0.71594282429,0.698099901909
1543475393090075000,355,1543475393090075000,/map,1.33884119987,18.5337619781,0.283782482147,0.00174010060698,-0.00890385206772,0.715912046457,0.698131531451
1543475393190282000,356,1543475393190282000,/map,1.33489465714,18.5290737152,0.283930540085,0.0018251482204,-0.0086903930762,0.716007892903,0.698035703387
1543475393290470000,357,1543475393290470000,/map,1.34053385258,18.5339546204,0.283957362175,0.0018973725379,-0.0088192878288,0.715930290864,0.69811348559
1543475393390622000,358,1543475393390622000,/map,1.33549189568,18.5303821564,0.28522002697,0.00182703936922,-0.00889502143152,0.715960894084,0.698081326683
1543475393490816000,359,1543475393490816000,/map,1.33749878407,18.5363407135,0.28479719162,0.00185409406233,-0.00881935679607,0.715912749469,0.698131589622
1543475393590992000,360,1543475393590992000,/map,1.33370232582,18.530582428,0.287451386452,0.00173281369593,-0.00887381862176,0.715918224588,0.698125596438
1543475393691202000,361,1543475393691202000,/map,1.33720993996,18.5347919464,0.283713579178,0.0018142449112,-0.00880515853307,0.715944722967,0.698099084195
1543475393791325000,362,1543475393791325000,/map,1.33390414715,18.5317306519,0.280411720276,0.00189372220599,-0.00879213905995,0.715915212474,0.698129300814
1543475393891522000,363,1543475393891522000,/map,1.33718717098,18.5307712555,0.287393331528,0.00164914158632,-0.00883666650704,0.715978552536,0.698064399583
1543475393991683000,364,1543475393991683000,/map,1.33991730213,18.5283622742,0.281026005745,0.00185809120906,-0.00882282025029,0.715957354874,0.698085790818
1543475394091854000,365,1543475394091854000,/map,1.33579456806,18.5369911194,0.28414106369,0.00185974180792,-0.00882419614391,0.715932487425,0.698111272199
1543475394192030000,366,1543475394192030000,/map,1.34135150909,18.5311336517,0.284741044044,0.00181028138222,-0.00882806914321,0.715961080451,0.698082029103
1543475394292216000,367,1543475394292216000,/map,1.34041428566,18.5343360901,0.283349633217,0.0017775309736,-0.00884182220927,0.71597759365,0.698065002671
1543475394392392000,368,1543475394392392000,/map,1.33458197117,18.5276165009,0.288754701614,0.00174845616397,-0.00889214208687,0.715928754764,0.69811452557
1543475394492558000,369,1543475394492558000,/map,1.33460402489,18.5286216736,0.28132891655,0.00183748579209,-0.00874707247722,0.715922387754,0.698122659051
1543475394592751000,370,1543475394592751000,/map,1.3403352499,18.530500412,0.287233233452,0.00177794495732,-0.0088718428973,0.715968228331,0.698074226236
1543475394692913000,371,1543475394692913000,/map,1.33453607559,18.530500412,0.283445596695,0.00181269530866,-0.00877654827699,0.715950432495,0.69809359297
1543475394793063000,372,1543475394793063000,/map,1.34395861626,18.5310955048,0.283885717392,0.00186181153275,-0.00883978628304,0.715983661533,0.698058585116
1543475394893286000,373,1543475394893286000,/map,1.33560800552,18.5298805237,0.285172939301,0.00177493145988,-0.00879179279481,0.715919973221,0.698124735231
1543475394993443000,374,1543475394993443000,/map,1.34015071392,18.5319538116,0.28176343441,0.00183693374062,-0.00886872941166,0.715959018831,0.698083558514
1543475395093645000,375,1543475395093645000,/map,1.33525466919,18.5312900543,0.290058612823,0.00171725247345,-0.00888569244278,0.715955127079,0.698087638855
1543475395193769000,376,1543475395193769000,/map,1.33611857891,18.5299453735,0.28381562233,0.00174396113866,-0.00877585363437,0.715968841046,0.698074896873
1543475395293961000,377,1543475395293961000,/map,1.3436473608,18.533946991,0.281197190285,0.00188947028766,-0.00878204358994,0.715861242435,0.69818478012
1543475395394169000,378,1543475395394169000,/map,1.33742845058,18.5304584503,0.282797932625,0.00181502853833,-0.00887995403599,0.71593149473,0.698111700905
1543475395494344000,379,1543475395494344000,/map,1.33915090561,18.5340480804,0.287811040878,0.00169632533202,-0.008868744357,0.715888294305,0.698156442304
1543475395594556000,380,1543475395594556000,/map,1.33982849121,18.5324802399,0.283631324768,0.00189454693692,-0.00879225803348,0.715992831412,0.698049691825
1543475395694710000,381,1543475395694710000,/map,1.33204472065,18.5332641602,0.285738587379,0.00178644619906,-0.00885235120989,0.715914469938,0.698129584119
1543475395794856000,382,1543475395794856000,/map,1.339812994,18.5355205536,0.283061742783,0.00185123886265,-0.00878384370666,0.715950020332,0.698093822771
